{"type":"Topology","objects":{"default":{"type":"GeometryCollection","geometries":[{"type":"Polygon","arcs":[[252,1994,1995,1996,1997]],"id":"DE.BY.09677000.09677151","properties":{"hc-group":"admin3","hc-key":"de-by-09677000-09677151","hc-a2":"KR","name":"Kreuzwertheim","hc-middle-lon":9.537,"hc-middle-lat":49.788}},{"type":"Polygon","arcs":[[194,1998,1999,2000,-502,-501,-500]],"id":"DE.BY.09189000.09189152","properties":{"hc-group":"admin3","hc-key":"de-by-09189000-09189152","hc-a2":"TI","name":"Tittmoning","hc-middle-lon":12.79,"hc-middle-lat":48.045}},{"type":"MultiPolygon","arcs":[[[2001]],[[-514,-513,2002,2003,2004,2005,2006,2007]]],"id":"DE.BY.09572000.09572158","properties":{"hc-group":"admin3","hc-key":"de-by-09572000-09572158","hc-a2":"UT","name":"Uttenreuth","hc-middle-lon":11.087,"hc-middle-lat":49.593}},{"type":"MultiPolygon","arcs":[[[2008]],[[2009,2010,2011]]],"id":"DE.BY.09671000.09671157","properties":{"hc-group":"admin3","hc-key":"de-by-09671000-09671157","hc-a2":"WE","name":"Weibersbrunn","hc-middle-lon":9.37,"hc-middle-lat":49.929}},{"type":"MultiPolygon","arcs":[[[2012]],[[2013,2014,1098,1099]],[[1102,-1112,-1723,2015,2016,2017,1101]]],"id":"DE.BY.09272000.09272145","properties":{"hc-group":"admin3","hc-key":"de-by-09272000-09272145","hc-a2":"SC","name":"Schöfweg","hc-middle-lon":13.224,"hc-middle-lat":48.839}},{"type":"Polygon","arcs":[[2018,-1724,443,2019,2020]],"id":"DE.BY.09575000.09575163","properties":{"hc-group":"admin3","hc-key":"de-by-09575000-09575163","hc-a2":"SI","name":"Simmershofen","hc-middle-lon":10.14,"hc-middle-lat":49.511}},{"type":"Polygon","arcs":[[-2019,2021,2022,2023,2024,2025,1738,1739]],"id":"DE.BY.09575000.09575168","properties":{"hc-group":"admin3","hc-key":"de-by-09575000-09575168","hc-a2":"UF","name":"Uffenheim","hc-middle-lon":10.159,"hc-middle-lat":49.491}},{"type":"MultiPolygon","arcs":[[[2026]],[[2027,2028,2029,2030,2031]]],"id":"DE.BY.09173000.09173451","properties":{"hc-group":"admin3","hc-key":"de-by-09173000-09173451","hc-a2":"PA","name":"Pupplinger Au","hc-middle-lon":11.453,"hc-middle-lat":47.908}},{"type":"Polygon","arcs":[[2032,2033,2034,2035,2036,2037]],"id":"DE.BY.09184000.09184134","properties":{"hc-group":"admin3","hc-key":"de-by-09184000-09184134","hc-a2":"OB","name":"Oberhaching","hc-middle-lon":11.579,"hc-middle-lat":48.003}},{"type":"Polygon","arcs":[[-2033,2038,1142,2039,2040,2041]],"id":"DE.BY.09184000.09184144","properties":{"hc-group":"admin3","hc-key":"de-by-09184000-09184144","hc-a2":"SD","name":"Straßlach-Dingharting","hc-middle-lon":11.522,"hc-middle-lat":47.98}},{"type":"MultiPolygon","arcs":[[[2042]],[[2043]],[[2044,-2010,2045,2046,2047,2048,2049,2050],[2051]]],"id":"DE.BY.09671000.09671460","properties":{"hc-group":"admin3","hc-key":"de-by-09671000-09671460","hc-a2":"WF","name":"Waldaschaffer Forst","hc-middle-lon":9.323,"hc-middle-lat":49.955}},{"type":"MultiPolygon","arcs":[[[2052]],[[2053]],[[2054]],[[2055]],[[2056]],[[2057]],[[2058]],[[2059]],[[2060]],[[2061]],[[2062,2063,2064,2065,2066,2067,2068,437,2069]],[[2070,2071]],[[2072,2073,2074]],[[2075,2076]],[[2077,2078]]],"id":"DE.BY.09272000.09272122","properties":{"hc-group":"admin3","hc-key":"de-by-09272000-09272122","hc-a2":"HA","name":"Haidmühle","hc-middle-lon":13.745,"hc-middle-lat":48.868}},{"type":"MultiPolygon","arcs":[[[2079]],[[2080]],[[-1167,2081,2082,2083,2084,2085,2086,2087,2088,918,844]]],"id":"DE.BY.09273000.09273152","properties":{"hc-group":"admin3","hc-key":"de-by-09273000-09273152","hc-a2":"NA","name":"Neustadt a.d. Donau","hc-middle-lon":11.797,"hc-middle-lat":48.838}},{"type":"MultiPolygon","arcs":[[[1]],[[2]],[[849,2089,2090,1180,1181,-1186,-1185,-1184,-1183]]],"id":"DE.BY.09678000.09678181","properties":{"hc-group":"admin3","hc-key":"de-by-09678000-09678181","hc-a2":"ST","name":"Stadtlauringen","hc-middle-lon":10.418,"hc-middle-lat":50.173}},{"type":"MultiPolygon","arcs":[[[2091]],[[2092,2093]],[[2094,2095]]],"id":"DE.BY.09472000.09472121","properties":{"hc-group":"admin3","hc-key":"de-by-09472000-09472121","hc-a2":"BI","name":"Bischofsgrün","hc-middle-lon":11.795,"hc-middle-lat":50.057}},{"type":"Polygon","arcs":[[1324,2096,2097,2098,1323]],"id":"DE.BY.09675000.09675158","properties":{"hc-group":"admin3","hc-key":"de-by-09675000-09675158","hc-a2":"PR","name":"Prichsenstadt","hc-middle-lon":10.324,"hc-middle-lat":49.821}},{"type":"Polygon","arcs":[[-1325,2099,2100,2101,689,690,-1326],[2102]],"id":"DE.BY.09678000.09678164","properties":{"hc-group":"admin3","hc-key":"de-by-09678000-09678164","hc-a2":"OB","name":"Oberschwarzach","hc-middle-lon":10.419,"hc-middle-lat":49.853}},{"type":"MultiPolygon","arcs":[[[2103]],[[2104,2105,2106,2107,2108,2109,2110,2111,2112,2113,2114]]],"id":"DE.BY.09672000.09672138","properties":{"hc-group":"admin3","hc-key":"de-by-09672000-09672138","hc-a2":"OB","name":"Oberleichtersbach","hc-middle-lon":9.778,"hc-middle-lat":50.264}},{"type":"MultiPolygon","arcs":[[[2115]],[[2116]],[[2117,2118]],[[2119,-162,2120,2121,2122,2123,2124]]],"id":"DE.BY.09371000.09371154","properties":{"hc-group":"admin3","hc-key":"de-by-09371000-09371154","hc-a2":"UR","name":"Ursensollen","hc-middle-lon":11.781,"hc-middle-lat":49.379}},{"type":"Polygon","arcs":[[171,2125,2126,2127]],"id":"DE.BY.09171000.09171112","properties":{"hc-group":"admin3","hc-key":"de-by-09171000-09171112","hc-a2":"BU","name":"Burghausen","hc-middle-lon":12.781,"hc-middle-lat":48.135}},{"type":"Polygon","arcs":[[278,2128,2129]],"id":"DE.BY.09275000.09275137","properties":{"hc-group":"admin3","hc-key":"de-by-09275000-09275137","hc-a2":"OB","name":"Obernzell","hc-middle-lon":13.611,"hc-middle-lat":48.573}},{"type":"MultiPolygon","arcs":[[[2130]],[[2131,177,2132,2133,2134,2135]],[[179,2136]]],"id":"DE.BY.09172000.09172116","properties":{"hc-group":"admin3","hc-key":"de-by-09172000-09172116","hc-a2":"BE","name":"Berchtesgaden","hc-middle-lon":13.078,"hc-middle-lat":47.669}},{"type":"MultiPolygon","arcs":[[[2137]],[[2138,2139,2140,2141,2142,2143]]],"id":"DE.BY.09677000.09677135","properties":{"hc-group":"admin3","hc-key":"de-by-09677000-09677135","hc-a2":"HA","name":"Hafenlohr","hc-middle-lon":9.594,"hc-middle-lat":49.867}},{"type":"MultiPolygon","arcs":[[[2144]],[[2145,2146,2147,2148,2149,2150,2151,2152,-2153,2153,2154,2155,2156,2157]],[[2158,864,2159]],[[2160,866]],[[3,3,3]],[[3,3,3]]],"id":"DE.BY.09678000.09678157","properties":{"hc-group":"admin3","hc-key":"de-by-09678000-09678157","hc-a2":"MI","name":"Michelau i. Steigerwald","hc-middle-lon":10.435,"hc-middle-lat":49.919}},{"type":"Polygon","arcs":[[2161,-913,903,904,2162,2163]],"id":"DE.BY.09576000.09576148","properties":{"hc-group":"admin3","hc-key":"de-by-09576000-09576148","hc-a2":"TH","name":"Thalmässing","hc-middle-lon":11.273,"hc-middle-lat":49.104}},{"type":"Polygon","arcs":[[-2162,2164,1918,1919,1883,1884,1885,1886]],"id":"DE.BY.09576000.09576122","properties":{"hc-group":"admin3","hc-key":"de-by-09576000-09576122","hc-a2":"GR","name":"Greding","hc-middle-lon":11.377,"hc-middle-lat":49.057}},{"type":"Polygon","arcs":[[496,2165,2166,2167,2168,2169,495]],"id":"DE.BY.09679000.09679451","properties":{"hc-group":"admin3","hc-key":"de-by-09679000-09679451","hc-a2":"GW","name":"Gramschatzer Wald","hc-middle-lon":9.919,"hc-middle-lat":49.926}},{"type":"Polygon","arcs":[[-497,2170,2171,2172,2173,-1187,596,597,-499,-498]],"id":"DE.BY.09677000.09677114","properties":{"hc-group":"admin3","hc-key":"de-by-09677000-09677114","hc-a2":"AR","name":"Arnstein","hc-middle-lon":9.954,"hc-middle-lat":49.994}},{"type":"Polygon","arcs":[[196,2174,2175,2176]],"id":"DE.BY.09776000.09776112","properties":{"hc-group":"admin3","hc-key":"de-by-09776000-09776112","hc-a2":"GE","name":"Gestratz","hc-middle-lon":10,"hc-middle-lat":47.657}},{"type":"MultiPolygon","arcs":[[[2177]],[[2178]],[[529,530,531,2179,2180,2181,528]]],"id":"DE.BY.09677000.09677165","properties":{"hc-group":"admin3","hc-key":"de-by-09677000-09677165","hc-a2":"NE","name":"Neuhütten","hc-middle-lon":9.42,"hc-middle-lat":50.006}},{"type":"MultiPolygon","arcs":[[[2182]],[[2183,-2083,2184,2185]],[[2186,2187,2188,2189,-587,-586,2190,2191,2192,-2085]]],"id":"DE.BY.09273000.09273137","properties":{"hc-group":"admin3","hc-key":"de-by-09273000-09273137","hc-a2":"KE","name":"Kelheim","hc-middle-lon":11.837,"hc-middle-lat":48.922}},{"type":"Polygon","arcs":[[2193,1004,1005,1006,2194,2195,2196]],"id":"DE.BY.09375000.09375118","properties":{"hc-group":"admin3","hc-key":"de-by-09375000-09375118","hc-a2":"BE","name":"Beratzhausen","hc-middle-lon":11.818,"hc-middle-lat":49.116}},{"type":"Polygon","arcs":[[-2194,2197,2198,591,592,-596,-595,-594]],"id":"DE.BY.09375000.09375148","properties":{"hc-group":"admin3","hc-key":"de-by-09375000-09375148","hc-a2":"HE","name":"Hemau","hc-middle-lon":11.774,"hc-middle-lat":49.039}},{"type":"MultiPolygon","arcs":[[[2199]],[[2200]],[[2201]],[[2202,2203,2204,2205,2206,1190,1191,1192,2207,2208,2209,2210,2211,2212],[2213]],[[2214,2215]],[[2216,2217]]],"id":"DE.BY.09672000.09672161","properties":{"hc-group":"admin3","hc-key":"de-by-09672000-09672161","hc-a2":"WA","name":"Wartmannsroth","hc-middle-lon":9.832,"hc-middle-lat":50.184}},{"type":"MultiPolygon","arcs":[[[-2214]],[[-2209,2218]]],"id":"DE.BY.09672000.09672463","properties":{"hc-group":"admin3","hc-key":"de-by-09672000-09672463","hc-a2":"OU","name":"Omerz u. Roter Berg","hc-middle-lon":9.738,"hc-middle-lat":50.185}},{"type":"MultiPolygon","arcs":[[[2219]],[[2220]],[[2221]],[[2222]],[[173,-554,2223,2224,2225,-2066,2226]],[[2227,-2064]]],"id":"DE.BY.09272000.09272136","properties":{"hc-group":"admin3","hc-key":"de-by-09272000-09272136","hc-a2":"NE","name":"Neureichenau","hc-middle-lon":13.796,"hc-middle-lat":48.734}},{"type":"MultiPolygon","arcs":[[[2228]],[[2229]],[[2230,2231,2232,2233,2234]]],"id":"DE.BY.09679000.09679154","properties":{"hc-group":"admin3","hc-key":"de-by-09679000-09679154","hc-a2":"KI","name":"Kist","hc-middle-lon":9.839,"hc-middle-lat":49.744}},{"type":"MultiPolygon","arcs":[[[2235]],[[2236,2237,2238,848,523]]],"id":"DE.BY.09677000.09677120","properties":{"hc-group":"admin3","hc-key":"de-by-09677000-09677120","hc-a2":"BI","name":"Bischbrunn","hc-middle-lon":9.462,"hc-middle-lat":49.882}},{"type":"MultiPolygon","arcs":[[[2239]],[[2240,2241,2242,-2180,532,2243,2244]]],"id":"DE.BY.09677000.09677200","properties":{"hc-group":"admin3","hc-key":"de-by-09677000-09677200","hc-a2":"WI","name":"Wiesthal","hc-middle-lon":9.428,"hc-middle-lat":50.03}},{"type":"MultiPolygon","arcs":[[[2245]],[[2246]],[[2247]],[[2248]],[[2249]],[[2250]],[[2251]],[[2252]],[[2253]],[[2254]],[[2255]],[[2256,2257,2258,-2112,2259,2260,2261,2262]],[[2263,2264,2265]],[[2266,2267,2268]],[[2269,2270]],[[2271,2272]],[[2273,2274]],[[2275,2276]],[[2277,2278]]],"id":"DE.BY.09672000.09672149","properties":{"hc-group":"admin3","hc-key":"de-by-09672000-09672149","hc-a2":"SC","name":"Schondra","hc-middle-lon":9.85,"hc-middle-lat":50.262}},{"type":"MultiPolygon","arcs":[[[8]],[[2279,2280,2281,2282,2283,-2284,2284,2285,2286,2287,2288,600,2289,2290]],[[9,9,9]],[[9,9,9]]],"id":"DE.BY.09673000.09673456","properties":{"hc-group":"admin3","hc-key":"de-by-09673000-09673456","hc-a2":"SF","name":"Steinacher Forst-r.d. Saale","hc-middle-lon":10.153,"hc-middle-lat":50.303}},{"type":"Polygon","arcs":[[174,2291,2292,552,553]],"id":"DE.BY.09275000.09275118","properties":{"hc-group":"admin3","hc-key":"de-by-09275000-09275118","hc-a2":"BR","name":"Breitenberg","hc-middle-lon":13.78,"hc-middle-lat":48.698}},{"type":"Polygon","arcs":[[2293,2294,1266,1305]],"id":"DE.BY.09274000.09274193","properties":{"hc-group":"admin3","hc-key":"de-by-09274000-09274193","hc-a2":"WU","name":"Wurmsham","hc-middle-lon":12.326,"hc-middle-lat":48.353}},{"type":"Polygon","arcs":[[-2294,1306,678,679,2295,2296,2297,2298]],"id":"DE.BY.09274000.09274183","properties":{"hc-group":"admin3","hc-key":"de-by-09274000-09274183","hc-a2":"VE","name":"Velden","hc-middle-lon":12.269,"hc-middle-lat":48.368}},{"type":"MultiPolygon","arcs":[[[10]],[[11,12,13,14,15,16,17,18,19,20]]],"id":"DE.BY.09462000.09462000","properties":{"hc-group":"admin3","hc-key":"de-by-09462000-09462000","hc-a2":"BA","name":"Bayreuth","hc-middle-lon":11.537,"hc-middle-lat":49.927}},{"type":"MultiPolygon","arcs":[[[212,2299,2300,2301]],[[349,350,2302]]],"id":"DE.BY.09775000.09775451","properties":{"hc-group":"admin3","hc-key":"de-by-09775000-09775451","hc-a2":"AU","name":"Auwald","hc-middle-lon":10.066,"hc-middle-lat":48.269}},{"type":"MultiPolygon","arcs":[[[2303]],[[2304,2305,739,2306,2307,2308]]],"id":"DE.BY.09375000.09375114","properties":{"hc-group":"admin3","hc-key":"de-by-09375000-09375114","hc-a2":"AL","name":"Altenthann","hc-middle-lon":12.298,"hc-middle-lat":49.081}},{"type":"Polygon","arcs":[[2309,2310,771,2311,2312,2313]],"id":"DE.BY.09371000.09371127","properties":{"hc-group":"admin3","hc-key":"de-by-09371000-09371127","hc-a2":"HI","name":"Hirschau","hc-middle-lon":11.981,"hc-middle-lat":49.555}},{"type":"Polygon","arcs":[[-2310,2314,2315]],"id":"DE.BY.09371000.09371123","properties":{"hc-group":"admin3","hc-key":"de-by-09371000-09371123","hc-a2":"GE","name":"Gebenbach","hc-middle-lon":11.877,"hc-middle-lat":49.544}},{"type":"MultiPolygon","arcs":[[[2316]],[[2317,2318,2319,2320]]],"id":"DE.BY.09177000.09177143","properties":{"hc-group":"admin3","hc-key":"de-by-09177000-09177143","hc-a2":"WA","name":"Wartenberg","hc-middle-lon":11.983,"hc-middle-lat":48.397}},{"type":"MultiPolygon","arcs":[[[2321]],[[2322,2323,2324,2325,2326,2327,2328,2329]]],"id":"DE.BY.09673000.09673141","properties":{"hc-group":"admin3","hc-key":"de-by-09673000-09673141","hc-a2":"BK","name":"Bad Königshofen i. Grabfeld","hc-middle-lon":10.449,"hc-middle-lat":50.27}},{"type":"MultiPolygon","arcs":[[[2330]],[[2331]],[[2332]],[[2333,2334,2335,2336,2337,-145,2338,2339]]],"id":"DE.BY.09471000.09471195","properties":{"hc-group":"admin3","hc-key":"de-by-09471000-09471195","hc-a2":"ST","name":"Strullendorf","hc-middle-lon":11.002,"hc-middle-lat":49.868}},{"type":"MultiPolygon","arcs":[[[2340]],[[2341,2342,2343]],[[2344,2344,2344]],[[2345,2346,-1207,-1206,2347,2348]]],"id":"DE.BY.09371000.09371120","properties":{"hc-group":"admin3","hc-key":"de-by-09371000-09371120","hc-a2":"EN","name":"Ensdorf","hc-middle-lon":11.994,"hc-middle-lat":49.338}},{"type":"MultiPolygon","arcs":[[[2349]],[[2350]],[[2351,2352,2353,2354,2355,2356,2357]],[[2358,2359]],[[2360,2361]]],"id":"DE.BY.09377000.09377133","properties":{"hc-group":"admin3","hc-key":"de-by-09377000-09377133","hc-a2":"KU","name":"Kulmain","hc-middle-lon":11.922,"hc-middle-lat":49.913}},{"type":"MultiPolygon","arcs":[[[-2052]],[[2362,-2049],[-2044]]],"id":"DE.BY.09671000.09671156","properties":{"hc-group":"admin3","hc-key":"de-by-09671000-09671156","hc-a2":"WA","name":"Waldaschaff","hc-middle-lon":9.302,"hc-middle-lat":49.968}},{"type":"Polygon","arcs":[[24,25,26,27,28,29,30]],"id":"DE.BY.09263000.09263000","properties":{"hc-group":"admin3","hc-key":"de-by-09263000-09263000","hc-a2":"ST","name":"Straubing","hc-middle-lon":12.518,"hc-middle-lat":48.854}},{"type":"Polygon","arcs":[[-25,2363,2364,2365,2366]],"id":"DE.BY.09278000.09278170","properties":{"hc-group":"admin3","hc-key":"de-by-09278000-09278170","hc-a2":"PA","name":"Parkstetten","hc-middle-lon":12.612,"hc-middle-lat":48.92}},{"type":"Polygon","arcs":[[359,2367,2368,-60,2369]],"id":"DE.BY.09473000.09473141","properties":{"hc-group":"admin3","hc-key":"de-by-09473000-09473141","hc-a2":"LA","name":"Lautertal","hc-middle-lon":10.945,"hc-middle-lat":50.371}},{"type":"MultiPolygon","arcs":[[[2370]],[[479,2371,2372,2373,2374,2375,2376]]],"id":"DE.BY.09479000.09479458","properties":{"hc-group":"admin3","hc-key":"de-by-09479000-09479458","hc-a2":"SF","name":"Selber Forst","hc-middle-lon":12.157,"hc-middle-lat":50.143}},{"type":"MultiPolygon","arcs":[[[31]],[[32]],[[33]],[[34]],[[35]],[[2377]],[[2378,2379,2380,2381,2382,2383,-755,-754,-753,-752,2384,2385]],[[36,37]],[[38,39]]],"id":"DE.BY.09372000.09372153","properties":{"hc-group":"admin3","hc-key":"de-by-09372000-09372153","hc-a2":"RO","name":"Roding","hc-middle-lon":12.55,"hc-middle-lat":49.191}},{"type":"MultiPolygon","arcs":[[[2386]],[[2387]],[[2388,-2225,2389,2390,2391,2392,2393,2394]],[[2395,2396]],[[2397,2398]],[[2399,2400]],[[2400,2400,2400]]],"id":"DE.BY.09272000.09272121","properties":{"hc-group":"admin3","hc-key":"de-by-09272000-09272121","hc-a2":"GR","name":"Grainet","hc-middle-lon":13.697,"hc-middle-lat":48.774}},{"type":"MultiPolygon","arcs":[[[2401]],[[-67,2402,2403,2404]]],"id":"DE.BY.09374000.09374134","properties":{"hc-group":"admin3","hc-key":"de-by-09374000-09374134","hc-a2":"MA","name":"Mantel","hc-middle-lon":12.075,"hc-middle-lat":49.655}},{"type":"MultiPolygon","arcs":[[[2405]],[[2406,2407,2408,2409,2410,2411,2412]]],"id":"DE.BY.09472000.09472198","properties":{"hc-group":"admin3","hc-key":"de-by-09472000-09472198","hc-a2":"WA","name":"Warmensteinach","hc-middle-lon":11.785,"hc-middle-lat":49.997}},{"type":"Polygon","arcs":[[373,2413,2414,2415,2416,-1394,-1393,-1392]],"id":"DE.BY.09473000.09473165","properties":{"hc-group":"admin3","hc-key":"de-by-09473000-09473165","hc-a2":"SE","name":"Seßlach","hc-middle-lon":10.791,"hc-middle-lat":50.202}},{"type":"MultiPolygon","arcs":[[[2417]],[[2418,-16,2419,2420,955,2421]]],"id":"DE.BY.09472000.09472131","properties":{"hc-group":"admin3","hc-key":"de-by-09472000-09472131","hc-a2":"EC","name":"Eckersdorf","hc-middle-lon":11.506,"hc-middle-lat":49.932}},{"type":"MultiPolygon","arcs":[[[2422]],[[2423,2424,2425,2426,-98,2427]]],"id":"DE.BY.09679000.09679176","properties":{"hc-group":"admin3","hc-key":"de-by-09679000-09679176","hc-a2":"RE","name":"Reichenberg","hc-middle-lon":9.891,"hc-middle-lat":49.721}},{"type":"Polygon","arcs":[[200,2428,2429,2430,2431]],"id":"DE.BY.09776000.09776125","properties":{"hc-group":"admin3","hc-key":"de-by-09776000-09776125","hc-a2":"SC","name":"Scheidegg","hc-middle-lon":9.852,"hc-middle-lat":47.571}},{"type":"MultiPolygon","arcs":[[[2432]],[[2433,2434,2435,833,232,-2377,2436],[-2371]],[[2437,2438,2439,-2373,2440]],[[2441,-2375,2442]],[[2443,2373]]],"id":"DE.BY.09479000.09479152","properties":{"hc-group":"admin3","hc-key":"de-by-09479000-09479152","hc-a2":"SE","name":"Selb","hc-middle-lon":12.112,"hc-middle-lat":50.173}},{"type":"MultiPolygon","arcs":[[[2444]],[[2445]],[[2446]],[[2447]],[[2448]],[[2449]],[[2450]],[[2451]],[[2452]],[[-2274,2453,2454,2455,2456,2457,2458,2459,2460,-2206,2461,2462]],[[-2262,2463,2464]]],"id":"DE.BY.09672000.09672139","properties":{"hc-group":"admin3","hc-key":"de-by-09672000-09672139","hc-a2":"OB","name":"Oberthulba","hc-middle-lon":9.932,"hc-middle-lat":50.202}},{"type":"Polygon","arcs":[[2465,2466,2467,2468,2469,2470]],"id":"DE.BY.09474000.09474145","properties":{"hc-group":"admin3","hc-key":"de-by-09474000-09474145","hc-a2":"KU","name":"Kunreuth","hc-middle-lon":11.165,"hc-middle-lat":49.676}},{"type":"Polygon","arcs":[[-2466,2471,2472,2473,2474,1072,2475,2476,2477,2478]],"id":"DE.BY.09474000.09474132","properties":{"hc-group":"admin3","hc-key":"de-by-09474000-09474132","hc-a2":"GR","name":"Gräfenberg","hc-middle-lon":11.253,"hc-middle-lat":49.66}},{"type":"MultiPolygon","arcs":[[[2479]],[[2480,2481,2482]]],"id":"DE.BY.09188000.09188118","properties":{"hc-group":"admin3","hc-key":"de-by-09188000-09188118","hc-a2":"FE","name":"Feldafing","hc-middle-lon":11.281,"hc-middle-lat":47.944}},{"type":"Polygon","arcs":[[219,2483,2484,2485,2486]],"id":"DE.BY.09773000.09773153","properties":{"hc-group":"admin3","hc-key":"de-by-09773000-09773153","hc-a2":"ME","name":"Medlingen","hc-middle-lon":10.33,"hc-middle-lat":48.58}},{"type":"Polygon","arcs":[[221,2487,2488]],"id":"DE.BY.09773000.09773170","properties":{"hc-group":"admin3","hc-key":"de-by-09773000-09773170","hc-a2":"SY","name":"Syrgenstein","hc-middle-lon":10.286,"hc-middle-lat":48.66}},{"type":"MultiPolygon","arcs":[[[2489]],[[2490]],[[2491,327,2492,-2114,2493,-2258,2494,2495,-2204,2496,-2211,2497,2498,2499,2500,323]],[[325,2501]],[[1195,321,2502]],[[2503,2504]],[[2505,-2213]]],"id":"DE.BY.09672000.09672166","properties":{"hc-group":"admin3","hc-key":"de-by-09672000-09672166","hc-a2":"ZE","name":"Zeitlofs","hc-middle-lon":9.654,"hc-middle-lat":50.254}},{"type":"Polygon","arcs":[[2506,2507,2508,2509,2510,2511]],"id":"DE.BY.09272000.09272127","properties":{"hc-group":"admin3","hc-key":"de-by-09272000-09272127","hc-a2":"HO","name":"Hohenau","hc-middle-lon":13.521,"hc-middle-lat":48.865}},{"type":"Polygon","arcs":[[-2507,2512,2513,2514]],"id":"DE.BY.09272000.09272140","properties":{"hc-group":"admin3","hc-key":"de-by-09272000-09272140","hc-a2":"RI","name":"Ringelai","hc-middle-lon":13.458,"hc-middle-lat":48.809}},{"type":"MultiPolygon","arcs":[[[2515]],[[2516]],[[2517]],[[2518]],[[2519,2520,2521,2522,435,2523]]],"id":"DE.BY.09272000.09272139","properties":{"hc-group":"admin3","hc-key":"de-by-09272000-09272139","hc-a2":"PH","name":"Philippsreut","hc-middle-lon":13.661,"hc-middle-lat":48.884}},{"type":"MultiPolygon","arcs":[[[2524]],[[2525]],[[-2076,2526,-2393,2527,2528]],[[2529,-2530,2530]]],"id":"DE.BY.09272000.09272126","properties":{"hc-group":"admin3","hc-key":"de-by-09272000-09272126","hc-a2":"HI","name":"Hinterschmiding","hc-middle-lon":13.587,"hc-middle-lat":48.811}},{"type":"MultiPolygon","arcs":[[[2531]],[[2532]],[[2533]],[[2534]],[[2535,2536,2537,2538,2539,2540]]],"id":"DE.BY.09671000.09671150","properties":{"hc-group":"admin3","hc-key":"de-by-09671000-09671150","hc-a2":"SA","name":"Sailauf","hc-middle-lon":9.261,"hc-middle-lat":50.03}},{"type":"Polygon","arcs":[[2541,2542,2543,2544,2545,2546,2547,2548,2549,2550,-1714,429]],"id":"DE.BY.09272000.09272143","properties":{"hc-group":"admin3","hc-key":"de-by-09272000-09272143","hc-a2":"SO","name":"Sankt Oswald-Riedlhütte","hc-middle-lon":13.406,"hc-middle-lat":48.926}},{"type":"Polygon","arcs":[[-2542,430,2551,2552,-2543]],"id":"DE.BY.09272000.09272459","properties":{"hc-group":"admin3","hc-key":"de-by-09272000-09272459","hc-a2":"SO","name":"Sankt Oswald","hc-middle-lon":13.436,"hc-middle-lat":48.937}},{"type":"MultiPolygon","arcs":[[[2553]],[[2554,2555,2556,2557,2558]]],"id":"DE.BY.09376000.09376117","properties":{"hc-group":"admin3","hc-key":"de-by-09376000-09376117","hc-a2":"BI","name":"Bruck i.d. OPf.","hc-middle-lon":12.288,"hc-middle-lat":49.259}},{"type":"MultiPolygon","arcs":[[[2559]],[[2560,-2539,2561,2562]]],"id":"DE.BY.09671000.09671139","properties":{"hc-group":"admin3","hc-key":"de-by-09671000-09671139","hc-a2":"LA","name":"Laufach","hc-middle-lon":9.303,"hc-middle-lat":50.012}},{"type":"Polygon","arcs":[[-2103]],"id":"DE.BY.09678000.09678452","properties":{"hc-group":"admin3","hc-key":"de-by-09678000-09678452","hc-a2":"GE","name":"Geiersberg","hc-middle-lon":10.437,"hc-middle-lat":49.862}},{"type":"MultiPolygon","arcs":[[[2563]],[[2564,2565,2566,2567,2568,2569,2570,2571]],[[2572,2573,719]]],"id":"DE.BY.09374000.09374157","properties":{"hc-group":"admin3","hc-key":"de-by-09374000-09374157","hc-a2":"SP","name":"Speinshart","hc-middle-lon":11.822,"hc-middle-lat":49.789}},{"type":"MultiPolygon","arcs":[[[40]],[[41]],[[42]]],"id":"DE.BY.09187000.09187123","properties":{"hc-group":"admin3","hc-key":"de-by-09187000-09187123","hc-a2":"CH","name":"Chiemsee","hc-middle-lon":12.4,"hc-middle-lat":47.863}},{"type":"Polygon","arcs":[[2574,2575,2576,2577,2578,2579,2580]],"id":"DE.BY.09376000.09376163","properties":{"hc-group":"admin3","hc-key":"de-by-09376000-09376163","hc-a2":"SC","name":"Schwarzenfeld","hc-middle-lon":12.209,"hc-middle-lat":49.363}},{"type":"Polygon","arcs":[[-2575,2581,2582,2583,2584]],"id":"DE.BY.09376000.09376162","properties":{"hc-group":"admin3","hc-key":"de-by-09376000-09376162","hc-a2":"SB","name":"Schwarzach b. Nabburg","hc-middle-lon":12.208,"hc-middle-lat":49.4}},{"type":"Polygon","arcs":[[2585,1492,2586,2587,2588,579,1160]],"id":"DE.BY.09184000.09184452","properties":{"hc-group":"admin3","hc-key":"de-by-09184000-09184452","hc-a2":"FP","name":"Forstenrieder Park","hc-middle-lon":11.459,"hc-middle-lat":48.045}},{"type":"Polygon","arcs":[[-2586,1161,2589,1491]],"id":"DE.BY.09184000.09184132","properties":{"hc-group":"admin3","hc-key":"de-by-09184000-09184132","hc-a2":"NE","name":"Neuried","hc-middle-lon":11.442,"hc-middle-lat":48.082}},{"type":"Polygon","arcs":[[2590,2591,2592,2593,2594]],"id":"DE.BY.09574000.09574141","properties":{"hc-group":"admin3","hc-key":"de-by-09574000-09574141","hc-a2":"NA","name":"Neunkirchen a. Sand","hc-middle-lon":11.341,"hc-middle-lat":49.535}},{"type":"Polygon","arcs":[[-2591,2595,521,-1076,-1075,2596,-1082,2597]],"id":"DE.BY.09574000.09574155","properties":{"hc-group":"admin3","hc-key":"de-by-09574000-09574155","hc-a2":"SC","name":"Schnaittach","hc-middle-lon":11.388,"hc-middle-lat":49.581}},{"type":"MultiPolygon","arcs":[[[2598]],[[2599,2600]]],"id":"DE.BY.09574000.09574463","properties":{"hc-group":"admin3","hc-key":"de-by-09574000-09574463","hc-a2":"SC","name":"Schönberg","hc-middle-lon":11.301,"hc-middle-lat":49.496}},{"type":"Polygon","arcs":[[445,2601,2602]],"id":"DE.BY.09571000.09571179","properties":{"hc-group":"admin3","hc-key":"de-by-09571000-09571179","hc-a2":"MÖ","name":"Mönchsroth","hc-middle-lon":10.354,"hc-middle-lat":49.025}},{"type":"Polygon","arcs":[[1418,2603,2604,1416,1417]],"id":"DE.BY.09773000.09773143","properties":{"hc-group":"admin3","hc-key":"de-by-09773000-09773143","hc-a2":"LA","name":"Laugna","hc-middle-lon":10.702,"hc-middle-lat":48.508}},{"type":"Polygon","arcs":[[-1419,2605,2606,2607,2608,-1482]],"id":"DE.BY.09772000.09772137","properties":{"hc-group":"admin3","hc-key":"de-by-09772000-09772137","hc-a2":"EM","name":"Emersacker","hc-middle-lon":10.67,"hc-middle-lat":48.476}},{"type":"Polygon","arcs":[[-2370,-59,2609,2610,2611,379]],"id":"DE.BY.09473000.09473144","properties":{"hc-group":"admin3","hc-key":"de-by-09473000-09473144","hc-a2":"ME","name":"Meeder","hc-middle-lon":10.864,"hc-middle-lat":50.364}},{"type":"MultiPolygon","arcs":[[[2612]],[[2613,2614,2615]],[[2616,-520,2617,2618]]],"id":"DE.BY.09572000.09572131","properties":{"hc-group":"admin3","hc-key":"de-by-09572000-09572131","hc-a2":"HE","name":"Heroldsberg","hc-middle-lon":11.158,"hc-middle-lat":49.536}},{"type":"MultiPolygon","arcs":[[[23]],[[2619,-698,-697,-696,2620,-2361,2621,-2352]]],"id":"DE.BY.09377000.09377127","properties":{"hc-group":"admin3","hc-key":"de-by-09377000-09377127","hc-a2":"IM","name":"Immenreuth","hc-middle-lon":11.859,"hc-middle-lat":49.896}},{"type":"MultiPolygon","arcs":[[[2622]],[[-738,2623]]],"id":"DE.BY.09478000.09478451","properties":{"hc-group":"admin3","hc-key":"de-by-09478000-09478451","hc-a2":"BF","name":"Breitengüßbacher Forst","hc-middle-lon":10.909,"hc-middle-lat":50.044}},{"type":"MultiPolygon","arcs":[[[2624]],[[2625,2626,2627,2628,1637]],[[2629,2630,2631]],[[2632,2633,2634]]],"id":"DE.BY.09475000.09475451","properties":{"hc-group":"admin3","hc-key":"de-by-09475000-09475451","hc-a2":"FS","name":"Forst Schwarzenbach a. Wald","hc-middle-lon":11.586,"hc-middle-lat":50.307}},{"type":"MultiPolygon","arcs":[[[2635]],[[2636]],[[-2627,2637,975,2638,2639]],[[1640,1641,1642,2640]],[[398,396]]],"id":"DE.BY.09475000.09475128","properties":{"hc-group":"admin3","hc-key":"de-by-09475000-09475128","hc-a2":"GE","name":"Geroldsgrün","hc-middle-lon":11.587,"hc-middle-lat":50.351}},{"type":"MultiPolygon","arcs":[[[2641]],[[2642]],[[2643]],[[2644,2645,2646,2647,2648]],[[2649,2650]]],"id":"DE.BY.09574000.09574164","properties":{"hc-group":"admin3","hc-key":"de-by-09574000-09574164","hc-a2":"WI","name":"Winkelhaid","hc-middle-lon":11.3,"hc-middle-lat":49.386}},{"type":"MultiPolygon","arcs":[[[2651]],[[709,2652,712,2653,2654,2655,-1197]],[[2656,2657]]],"id":"DE.BY.09374000.09374129","properties":{"hc-group":"admin3","hc-key":"de-by-09374000-09374129","hc-a2":"KI","name":"Kirchenthumbach","hc-middle-lon":11.755,"hc-middle-lat":49.764}},{"type":"MultiPolygon","arcs":[[[2658]],[[2659,2660,-1744,2661,2662,2663,2664,2665,2666,2667]]],"id":"DE.BY.09471000.09471120","properties":{"hc-group":"admin3","hc-key":"de-by-09471000-09471120","hc-a2":"BU","name":"Burgebrach","hc-middle-lon":10.731,"hc-middle-lat":49.826}},{"type":"Polygon","arcs":[[2668]],"id":"DE.BY.09472000.09472464","properties":{"hc-group":"admin3","hc-key":"de-by-09472000-09472464","hc-a2":"PR","name":"Prüll","hc-middle-lon":11.435,"hc-middle-lat":49.774}},{"type":"MultiPolygon","arcs":[[[43]],[[-842,-841,-840,-839,-838,-837,-836,-835,-1496,-1495,-1494,-1493,-1492,-1491,-1490,-1858,-1857,-1856,-1855,-1860,-1859,-844,-843]]],"id":"DE.BY.09162000.09162000","properties":{"hc-group":"admin3","hc-key":"de-by-09162000-09162000","hc-a2":"MÜ","name":"München","hc-middle-lon":11.525,"hc-middle-lat":48.171}},{"type":"Polygon","arcs":[[2669,2670,2671,2672,2673,2674,2675,2676,2677]],"id":"DE.BY.09176000.09176138","properties":{"hc-group":"admin3","hc-key":"de-by-09176000-09176138","hc-a2":"KI","name":"Kipfenberg","hc-middle-lon":11.367,"hc-middle-lat":48.926}},{"type":"Polygon","arcs":[[-2670,2678,2679,2680,2681]],"id":"DE.BY.09176000.09176116","properties":{"hc-group":"admin3","hc-key":"de-by-09176000-09176116","hc-a2":"BÖ","name":"Böhmfeld","hc-middle-lon":11.363,"hc-middle-lat":48.87}},{"type":"MultiPolygon","arcs":[[[2682]],[[2683,2684,2685,2686,2687,2688,2689,2690]]],"id":"DE.BY.09173000.09173145","properties":{"hc-group":"admin3","hc-key":"de-by-09173000-09173145","hc-a2":"WA","name":"Wackersberg","hc-middle-lon":11.524,"hc-middle-lat":47.739}},{"type":"MultiPolygon","arcs":[[[-2271,2691,-2276,2692,-2278,2693,-2268,2694,-2273,2695,-2215,2696,-2217,2697,-2495,-2257,2698,2699],[-2249],[-2250],[-2251],[-2252],[-2253],[-2254],[-2255],[-2256]],[[-2454,-2275,-2463,2700,-2464,-2261,2701,2702],[-2246],[-2247],[-2248]]],"id":"DE.BY.09672000.09672455","properties":{"hc-group":"admin3","hc-key":"de-by-09672000-09672455","hc-a2":"GO","name":"Geiersnest-Ost","hc-middle-lon":9.838,"hc-middle-lat":50.229}},{"type":"Polygon","arcs":[[-2063,2703,439,-2227,-2065,-2228],[-2220],[-2221],[-2222],[-2223]],"id":"DE.BY.09272000.09272458","properties":{"hc-group":"admin3","hc-key":"de-by-09272000-09272458","hc-a2":"PW","name":"Pleckensteiner Wald","hc-middle-lon":13.796,"hc-middle-lat":48.769}},{"type":"MultiPolygon","arcs":[[[2704,-2067,-2226,-2389,2705,-2397,2706,-2399,2707,2708,2070],[-2059],[-2060]],[[-2704,-2070,438],[-2061]]],"id":"DE.BY.09272000.09272452","properties":{"hc-group":"admin3","hc-key":"de-by-09272000-09272452","hc-a2":"FU","name":"Frauenberger und Duschlberger Wald","hc-middle-lon":13.737,"hc-middle-lat":48.806}},{"type":"Polygon","arcs":[[2709,2710,2711,2712]],"id":"DE.BY.09676000.09676151","properties":{"hc-group":"admin3","hc-key":"de-by-09676000-09676151","hc-a2":"RÖ","name":"Röllbach","hc-middle-lon":9.25,"hc-middle-lat":49.768}},{"type":"Polygon","arcs":[[-2710,2713,2714,2715,236,2716,2717]],"id":"DE.BY.09676000.09676117","properties":{"hc-group":"admin3","hc-key":"de-by-09676000-09676117","hc-a2":"CO","name":"Collenberg","hc-middle-lon":9.341,"hc-middle-lat":49.789}},{"type":"Polygon","arcs":[[-2045,2718,-529,-528,2719,2720,2721,2722,2723,2724,2725,-2011]],"id":"DE.BY.09671000.09671457","properties":{"hc-group":"admin3","hc-key":"de-by-09671000-09671457","hc-a2":"RF","name":"Rothenbucher Forst","hc-middle-lon":9.348,"hc-middle-lat":49.95}},{"type":"Polygon","arcs":[[-2719,-2051,2726,-2563,2727,2728,-530]],"id":"DE.BY.09671000.09671451","properties":{"hc-group":"admin3","hc-key":"de-by-09671000-09671451","hc-a2":"FH","name":"Forst Hain i. Spessart","hc-middle-lon":9.344,"hc-middle-lat":50}},{"type":"Polygon","arcs":[[2729,2730,1008]],"id":"DE.BY.09671000.09671124","properties":{"hc-group":"admin3","hc-key":"de-by-09671000-09671124","hc-a2":"HA","name":"Haibach","hc-middle-lon":9.215,"hc-middle-lat":49.959}},{"type":"Polygon","arcs":[[-2730,1009,2731,2732,2733,2734,-2541,2735]],"id":"DE.BY.09671000.09671130","properties":{"hc-group":"admin3","hc-key":"de-by-09671000-09671130","hc-a2":"HÖ","name":"Hösbach","hc-middle-lon":9.208,"hc-middle-lat":50.013}},{"type":"Polygon","arcs":[[-2735,2736,2737,2738,2739,-2536]],"id":"DE.BY.09671000.09671113","properties":{"hc-group":"admin3","hc-key":"de-by-09671000-09671113","hc-a2":"BL","name":"Blankenbach","hc-middle-lon":9.228,"hc-middle-lat":50.065}},{"type":"Polygon","arcs":[[44,45,46,47,48,49,50,51,52]],"id":"DE.BY.09662000.09662000","properties":{"hc-group":"admin3","hc-key":"de-by-09662000-09662000","hc-a2":"SC","name":"Schweinfurt","hc-middle-lon":10.225,"hc-middle-lat":50.051}},{"type":"Polygon","arcs":[[-45,2740,2741]],"id":"DE.BY.09678000.09678178","properties":{"hc-group":"admin3","hc-key":"de-by-09678000-09678178","hc-a2":"SE","name":"Sennfeld","hc-middle-lon":10.26,"hc-middle-lat":50.039}},{"type":"Polygon","arcs":[[-49,2742,2743,2744,2745,2746]],"id":"DE.BY.09678000.09678132","properties":{"hc-group":"admin3","hc-key":"de-by-09678000-09678132","hc-a2":"GE","name":"Geldersheim","hc-middle-lon":10.137,"hc-middle-lat":50.048}},{"type":"Polygon","arcs":[[-2506,-2212,-2497,-2203],[-2490]],"id":"DE.BY.09672000.09672454","properties":{"hc-group":"admin3","hc-key":"de-by-09672000-09672454","hc-a2":"FD","name":"Forst Detter-Süd","hc-middle-lon":9.758,"hc-middle-lat":50.21}},{"type":"Polygon","arcs":[[2747,2748,2749,2750,2751,2752,-493,-492,-491,2753]],"id":"DE.BY.09677000.09677203","properties":{"hc-group":"admin3","hc-key":"de-by-09677000-09677203","hc-a2":"ZE","name":"Zellingen","hc-middle-lon":9.779,"hc-middle-lat":49.897}},{"type":"Polygon","arcs":[[-2748,2754,2755,2756,2757,2758]],"id":"DE.BY.09677000.09677193","properties":{"hc-group":"admin3","hc-key":"de-by-09677000-09677193","hc-a2":"UR","name":"Urspringen","hc-middle-lon":9.678,"hc-middle-lat":49.904}},{"type":"Polygon","arcs":[[-2755,-2754,-490,-489,-488,2759]],"id":"DE.BY.09677000.09677119","properties":{"hc-group":"admin3","hc-key":"de-by-09677000-09677119","hc-a2":"BI","name":"Birkenfeld","hc-middle-lon":9.719,"hc-middle-lat":49.862}},{"type":"Polygon","arcs":[[2760,688,-2102,2761]],"id":"DE.BY.09678000.09678455","properties":{"hc-group":"admin3","hc-key":"de-by-09678000-09678455","hc-a2":"ST","name":"Stollbergerforst","hc-middle-lon":10.432,"hc-middle-lat":49.879}},{"type":"Polygon","arcs":[[-2761,2762,2763,-2148,2764,-2146,2765,868,687]],"id":"DE.BY.09678000.09678451","properties":{"hc-group":"admin3","hc-key":"de-by-09678000-09678451","hc-a2":"BÜ","name":"Bürgerwald","hc-middle-lon":10.461,"hc-middle-lat":49.892}},{"type":"Polygon","arcs":[[-859,-858,2766,-854,2767,2768]],"id":"DE.BY.09674000.09674180","properties":{"hc-group":"admin3","hc-key":"de-by-09674000-09674180","hc-a2":"TH","name":"Theres","hc-middle-lon":10.42,"hc-middle-lat":50.033}},{"type":"Polygon","arcs":[[858,859,860,2769,-2150,2770,2771,2772]],"id":"DE.BY.09678000.09678124","properties":{"hc-group":"admin3","hc-key":"de-by-09678000-09678124","hc-a2":"DO","name":"Donnersdorf","hc-middle-lon":10.399,"hc-middle-lat":49.962}},{"type":"Polygon","arcs":[[-2772,2773,2774,2775,2776,2777]],"id":"DE.BY.09678000.09678183","properties":{"hc-group":"admin3","hc-key":"de-by-09678000-09678183","hc-a2":"SU","name":"Sulzheim","hc-middle-lon":10.348,"hc-middle-lat":49.949}},{"type":"Polygon","arcs":[[-2712,2778,2779,416,2780,2781,2782]],"id":"DE.BY.09676000.09676134","properties":{"hc-group":"admin3","hc-key":"de-by-09676000-09676134","hc-a2":"KA","name":"Klingenberg a. Main","hc-middle-lon":9.183,"hc-middle-lat":49.762}},{"type":"Polygon","arcs":[[-2758,2783,2784,2785,2786]],"id":"DE.BY.09677000.09677186","properties":{"hc-group":"admin3","hc-key":"de-by-09677000-09677186","hc-a2":"ST","name":"Steinfeld","hc-middle-lon":9.693,"hc-middle-lat":49.942}},{"type":"Polygon","arcs":[[-2784,-2757,2787,2788,2789]],"id":"DE.BY.09677000.09677178","properties":{"hc-group":"admin3","hc-key":"de-by-09677000-09677178","hc-a2":"RO","name":"Roden","hc-middle-lon":9.618,"hc-middle-lat":49.91}},{"type":"Polygon","arcs":[[-2733,2790,2791,1012,2792,2793,2794,2795,2796]],"id":"DE.BY.09671000.09671133","properties":{"hc-group":"admin3","hc-key":"de-by-09671000-09671133","hc-a2":"JO","name":"Johannesberg","hc-middle-lon":9.134,"hc-middle-lat":50.034}},{"type":"Polygon","arcs":[[-2794,2797,2798,403,2799]],"id":"DE.BY.09671000.09671136","properties":{"hc-group":"admin3","hc-key":"de-by-09671000-09671136","hc-a2":"KL","name":"Kleinostheim","hc-middle-lon":9.072,"hc-middle-lat":50.014}},{"type":"Polygon","arcs":[[-2800,404,2800,2801,-2795]],"id":"DE.BY.09671000.09671114","properties":{"hc-group":"admin3","hc-key":"de-by-09671000-09671114","hc-a2":"KA","name":"Karlstein a. Main","hc-middle-lon":8.992,"hc-middle-lat":50.053}},{"type":"Polygon","arcs":[[-2785,-2790,2802,2803,2804,2805,2806]],"id":"DE.BY.09677000.09677166","properties":{"hc-group":"admin3","hc-key":"de-by-09677000-09677166","hc-a2":"NA","name":"Neustadt a. Main","hc-middle-lon":9.545,"hc-middle-lat":49.937}},{"type":"Polygon","arcs":[[2807,2808,2809]],"id":"DE.BY.09679000.09679169","properties":{"hc-group":"admin3","hc-key":"de-by-09679000-09679169","hc-a2":"OB","name":"Oberpleichfeld","hc-middle-lon":10.093,"hc-middle-lat":49.874}},{"type":"Polygon","arcs":[[-2808,2810,2811,2812,2813,-2168,2814,2815]],"id":"DE.BY.09679000.09679201","properties":{"hc-group":"admin3","hc-key":"de-by-09679000-09679201","hc-a2":"UN","name":"Unterpleichfeld","hc-middle-lon":9.998,"hc-middle-lat":49.893}},{"type":"Polygon","arcs":[[-2812,2816,1335,2817,2818]],"id":"DE.BY.09679000.09679156","properties":{"hc-group":"admin3","hc-key":"de-by-09679000-09679156","hc-a2":"KÜ","name":"Kürnach","hc-middle-lon":10.048,"hc-middle-lat":49.839}},{"type":"MultiPolygon","arcs":[[[-2814,2819,-103,2820,2821,-2169]],[[-2166,497,2822]]],"id":"DE.BY.09679000.09679180","properties":{"hc-group":"admin3","hc-key":"de-by-09679000-09679180","hc-a2":"RI","name":"Rimpar","hc-middle-lon":9.956,"hc-middle-lat":49.865}},{"type":"Polygon","arcs":[[417,2823,2824,-2781]],"id":"DE.BY.09676000.09676169","properties":{"hc-group":"admin3","hc-key":"de-by-09676000-09676169","hc-a2":"WA","name":"Wörth a. Main","hc-middle-lon":9.133,"hc-middle-lat":49.782}},{"type":"Polygon","arcs":[[409,2825,411,2826,2827,2828]],"id":"DE.BY.09671000.09671452","properties":{"hc-group":"admin3","hc-key":"de-by-09671000-09671452","hc-a2":"GF","name":"Geiselbacher Forst","hc-middle-lon":9.213,"hc-middle-lat":50.138}},{"type":"Polygon","arcs":[[2829,2830,-2459,2831]],"id":"DE.BY.09672000.09672111","properties":{"hc-group":"admin3","hc-key":"de-by-09672000-09672111","hc-a2":"AA","name":"Aura a.d. Saale","hc-middle-lon":10.011,"hc-middle-lat":50.171}},{"type":"Polygon","arcs":[[-2830,2832,2833,2834,2835]],"id":"DE.BY.09672000.09672122","properties":{"hc-group":"admin3","hc-key":"de-by-09672000-09672122","hc-a2":"EU","name":"Euerdorf","hc-middle-lon":10.037,"hc-middle-lat":50.159}},{"type":"Polygon","arcs":[[-2834,2836,2837,-1175,2838]],"id":"DE.BY.09672000.09672142","properties":{"hc-group":"admin3","hc-key":"de-by-09672000-09672142","hc-a2":"RA","name":"Ramsthal","hc-middle-lon":10.076,"hc-middle-lat":50.126}},{"type":"Polygon","arcs":[[-50,-2747,2839,2840,2841]],"id":"DE.BY.09678000.09678160","properties":{"hc-group":"admin3","hc-key":"de-by-09678000-09678160","hc-a2":"NI","name":"Niederwerrn","hc-middle-lon":10.169,"hc-middle-lat":50.066}},{"type":"Polygon","arcs":[[405,2842,-2801]],"id":"DE.BY.09671000.09671134","properties":{"hc-group":"admin3","hc-key":"de-by-09671000-09671134","hc-a2":"KA","name":"Kahl a. Main","hc-middle-lon":9.012,"hc-middle-lat":50.088}},{"type":"Polygon","arcs":[[-2744,2843,2844,2845,-1328,-1327,-598,2846]],"id":"DE.BY.09678000.09678193","properties":{"hc-group":"admin3","hc-key":"de-by-09678000-09678193","hc-a2":"WE","name":"Werneck","hc-middle-lon":10.083,"hc-middle-lat":49.987}},{"type":"Polygon","arcs":[[-2835,-2839,-1174,-1173,-1172,2847]],"id":"DE.BY.09672000.09672155","properties":{"hc-group":"admin3","hc-key":"de-by-09672000-09672155","hc-a2":"SU","name":"Sulzthal","hc-middle-lon":10.038,"hc-middle-lat":50.118}},{"type":"Polygon","arcs":[[-2424,2848,2849,2850,2851,1340,1341,1342,2852,1346,1112,1113,2853,2854,2855,2856]],"id":"DE.BY.09679000.09679170","properties":{"hc-group":"admin3","hc-key":"de-by-09679000-09679170","hc-a2":"OC","name":"Ochsenfurt","hc-middle-lon":10.093,"hc-middle-lat":49.689}},{"type":"Polygon","arcs":[[-1341,-1340,-1339,-1338,2857,2858,2859,2860]],"id":"DE.BY.09675000.09675113","properties":{"hc-group":"admin3","hc-key":"de-by-09675000-09675113","hc-a2":"BI","name":"Biebelried","hc-middle-lon":10.074,"hc-middle-lat":49.75}},{"type":"Polygon","arcs":[[-1114,2861,2862,-2020,444,-1116,-1115]],"id":"DE.BY.09575000.09575130","properties":{"hc-group":"admin3","hc-key":"de-by-09575000-09575130","hc-a2":"HE","name":"Hemmersheim","hc-middle-lon":10.119,"hc-middle-lat":49.543}},{"type":"Polygon","arcs":[[2863,2864,2865,2866]],"id":"DE.BY.09575000.09575138","properties":{"hc-group":"admin3","hc-key":"de-by-09575000-09575138","hc-a2":"LA","name":"Langenfeld","hc-middle-lon":10.511,"hc-middle-lat":49.614}},{"type":"Polygon","arcs":[[-2864,2867,2868,2869,2870,2871,2872,2873,-569,-568,2874,2875]],"id":"DE.BY.09575000.09575165","properties":{"hc-group":"admin3","hc-key":"de-by-09575000-09575165","hc-a2":"SU","name":"Sugenheim","hc-middle-lon":10.398,"hc-middle-lat":49.601}},{"type":"Polygon","arcs":[[164,-1998,2876,2877,-485,-484]],"id":"DE.BY.09677000.09677154","properties":{"hc-group":"admin3","hc-key":"de-by-09677000-09677154","hc-a2":"TR","name":"Triefenstein","hc-middle-lon":9.605,"hc-middle-lat":49.797}},{"type":"Polygon","arcs":[[-2878,2878,2879,-486]],"id":"DE.BY.09677000.09677125","properties":{"hc-group":"admin3","hc-key":"de-by-09677000-09677125","hc-a2":"EB","name":"Erlenbach b. Marktheidenfeld","hc-middle-lon":9.639,"hc-middle-lat":49.827}},{"type":"Polygon","arcs":[[-2879,-2877,-1997,2880,2881,-2139,2882,-2803,-2789,2883]],"id":"DE.BY.09677000.09677157","properties":{"hc-group":"admin3","hc-key":"de-by-09677000-09677157","hc-a2":"MA","name":"Marktheidenfeld","hc-middle-lon":9.554,"hc-middle-lat":49.825}},{"type":"Polygon","arcs":[[-2876,2884,2885,2886,2887,2888,-2865]],"id":"DE.BY.09575000.09575161","properties":{"hc-group":"admin3","hc-key":"de-by-09575000-09575161","hc-a2":"SC","name":"Scheinfeld","hc-middle-lon":10.479,"hc-middle-lat":49.676}},{"type":"Polygon","arcs":[[-2857,2889,2890,2891,2892,2893,-2425]],"id":"DE.BY.09679000.09679138","properties":{"hc-group":"admin3","hc-key":"de-by-09679000-09679138","hc-a2":"GI","name":"Giebelstadt","hc-middle-lon":9.932,"hc-middle-lat":49.641}},{"type":"Polygon","arcs":[[2894,2895,2896,2897,2898,2899,-101]],"id":"DE.BY.09679000.09679209","properties":{"hc-group":"admin3","hc-key":"de-by-09679000-09679209","hc-a2":"ZA","name":"Zell a. Main","hc-middle-lon":9.859,"hc-middle-lat":49.808}},{"type":"Polygon","arcs":[[-2895,-100,2900,-2234,2901,2902]],"id":"DE.BY.09679000.09679147","properties":{"hc-group":"admin3","hc-key":"de-by-09679000-09679147","hc-a2":"HÖ","name":"Höchberg","hc-middle-lon":9.868,"hc-middle-lat":49.776}},{"type":"Polygon","arcs":[[453,1723,-1740,2903,2904]],"id":"DE.BY.09571000.09571111","properties":{"hc-group":"admin3","hc-key":"de-by-09571000-09571111","hc-a2":"AD","name":"Adelshofen","hc-middle-lon":10.153,"hc-middle-lat":49.451}},{"type":"Polygon","arcs":[[2905,2906,2907,2908,2909,2910]],"id":"DE.BY.09678000.09678170","properties":{"hc-group":"admin3","hc-key":"de-by-09678000-09678170","hc-a2":"RÖ","name":"Röthlein","hc-middle-lon":10.212,"hc-middle-lat":49.962}},{"type":"Polygon","arcs":[[-2906,2911,-1331,2912,2913]],"id":"DE.BY.09678000.09678196","properties":{"hc-group":"admin3","hc-key":"de-by-09678000-09678196","hc-a2":"WI","name":"Wipfeld","hc-middle-lon":10.173,"hc-middle-lat":49.921}},{"type":"Polygon","arcs":[[513,-778,2914,2915,2916,-2478,2917,2918,2919]],"id":"DE.BY.09474000.09474154","properties":{"hc-group":"admin3","hc-key":"de-by-09474000-09474154","hc-a2":"NA","name":"Neunkirchen a. Brand","hc-middle-lon":11.099,"hc-middle-lat":49.617}},{"type":"Polygon","arcs":[[1177,2920,-51,-2842,2921]],"id":"DE.BY.09678000.09678123","properties":{"hc-group":"admin3","hc-key":"de-by-09678000-09678123","hc-a2":"DI","name":"Dittelbrunn","hc-middle-lon":10.202,"hc-middle-lat":50.107}},{"type":"Polygon","arcs":[[-1178,-1177,2922,2923,2924,-1179]],"id":"DE.BY.09672000.09672143","properties":{"hc-group":"admin3","hc-key":"de-by-09672000-09672143","hc-a2":"RA","name":"Rannungen","hc-middle-lon":10.203,"hc-middle-lat":50.171}},{"type":"Polygon","arcs":[[777,-2008,2925,1690,2926,776]],"id":"DE.BY.09572000.09572141","properties":{"hc-group":"admin3","hc-key":"de-by-09572000-09572141","hc-a2":"MA","name":"Marloffstein","hc-middle-lon":11.053,"hc-middle-lat":49.625}},{"type":"Polygon","arcs":[[1737,-2026,2927,2928,2929,2930,1735,1736]],"id":"DE.BY.09575000.09575124","properties":{"hc-group":"admin3","hc-key":"de-by-09575000-09575124","hc-a2":"GA","name":"Gallmersgarten","hc-middle-lon":10.267,"hc-middle-lat":49.481}},{"type":"Polygon","arcs":[[-1738,2931,-2904,-1739]],"id":"DE.BY.09571000.09571188","properties":{"hc-group":"admin3","hc-key":"de-by-09571000-09571188","hc-a2":"OH","name":"Ohrenbach","hc-middle-lon":10.218,"hc-middle-lat":49.471}},{"type":"Polygon","arcs":[[2932,2933,2934,1214,1215,2935,2936]],"id":"DE.BY.09573000.09573115","properties":{"hc-group":"admin3","hc-key":"de-by-09573000-09573115","hc-a2":"GR","name":"Großhabersdorf","hc-middle-lon":10.826,"hc-middle-lat":49.386}},{"type":"Polygon","arcs":[[-2933,2937,2938,2939,1030,2940,2941]],"id":"DE.BY.09573000.09573114","properties":{"hc-group":"admin3","hc-key":"de-by-09573000-09573114","hc-a2":"CA","name":"Cadolzburg","hc-middle-lon":10.879,"hc-middle-lat":49.472}},{"type":"Polygon","arcs":[[2942,2943,2944,2945,2946,2947,2948,2949,2950]],"id":"DE.BY.09187000.09187128","properties":{"hc-group":"admin3","hc-key":"de-by-09187000-09187128","hc-a2":"BE","name":"Bad Endorf","hc-middle-lon":12.341,"hc-middle-lat":47.905}},{"type":"Polygon","arcs":[[-2943,2951,2952,2953]],"id":"DE.BY.09187000.09187163","properties":{"hc-group":"admin3","hc-key":"de-by-09187000-09187163","hc-a2":"PR","name":"Prutting","hc-middle-lon":12.191,"hc-middle-lat":47.884}},{"type":"Polygon","arcs":[[354,-2487,2954]],"id":"DE.BY.09773000.09773113","properties":{"hc-group":"admin3","hc-key":"de-by-09773000-09773113","hc-a2":"BA","name":"Bächingen a.d. Brenz","hc-middle-lon":10.324,"hc-middle-lat":48.537}},{"type":"Polygon","arcs":[[2955,2956,2957,2958,2959]],"id":"DE.BY.09180000.09180126","properties":{"hc-group":"admin3","hc-key":"de-by-09180000-09180126","hc-a2":"OB","name":"Oberau","hc-middle-lon":11.177,"hc-middle-lat":47.562}},{"type":"Polygon","arcs":[[-2956,2960,2961,386,933,2962,2963,2964,2965]],"id":"DE.BY.09180000.09180451","properties":{"hc-group":"admin3","hc-key":"de-by-09180000-09180451","hc-a2":"EF","name":"Ettaler Forst","hc-middle-lon":10.928,"hc-middle-lat":47.522}},{"type":"Polygon","arcs":[[-2961,-2960,2966]],"id":"DE.BY.09180000.09180116","properties":{"hc-group":"admin3","hc-key":"de-by-09180000-09180116","hc-a2":"FA","name":"Farchant","hc-middle-lon":11.059,"hc-middle-lat":47.543}},{"type":"Polygon","arcs":[[288,-2128,2967,2968,-1061]],"id":"DE.BY.09171000.09171118","properties":{"hc-group":"admin3","hc-key":"de-by-09171000-09171118","hc-a2":"HA","name":"Haiming","hc-middle-lon":12.836,"hc-middle-lat":48.207}},{"type":"Polygon","arcs":[[2969,2970,1423,1424,1425,2971,2972,2973]],"id":"DE.BY.09772000.09772136","properties":{"hc-group":"admin3","hc-key":"de-by-09772000-09772136","hc-a2":"EL","name":"Ellgau","hc-middle-lon":10.865,"hc-middle-lat":48.612}},{"type":"Polygon","arcs":[[-2970,2974,2975,2976,2977]],"id":"DE.BY.09772000.09772185","properties":{"hc-group":"admin3","hc-key":"de-by-09772000-09772185","hc-a2":"NO","name":"Nordendorf","hc-middle-lon":10.829,"hc-middle-lat":48.592}},{"type":"Polygon","arcs":[[2978,-732,-731,2979,-54,2980,2981]],"id":"DE.BY.09473000.09473121","properties":{"hc-group":"admin3","hc-key":"de-by-09473000-09473121","hc-a2":"EB","name":"Ebersdorf b. Coburg","hc-middle-lon":11.063,"hc-middle-lat":50.264}},{"type":"Polygon","arcs":[[-2979,2982,362,-1390,-1389,2983]],"id":"DE.BY.09473000.09473166","properties":{"hc-group":"admin3","hc-key":"de-by-09473000-09473166","hc-a2":"SO","name":"Sonnefeld","hc-middle-lon":11.104,"hc-middle-lat":50.234}},{"type":"Polygon","arcs":[[731,732,2984,2985]],"id":"DE.BY.09478000.09478453","properties":{"hc-group":"admin3","hc-key":"de-by-09478000-09478453","hc-a2":"NF","name":"Neuensorger Forst","hc-middle-lon":11.106,"hc-middle-lat":50.197}},{"type":"Polygon","arcs":[[378,-2612,2986,2987,376,2988]],"id":"DE.BY.09473000.09473158","properties":{"hc-group":"admin3","hc-key":"de-by-09473000-09473158","hc-a2":"BR","name":"Bad Rodach","hc-middle-lon":10.739,"hc-middle-lat":50.335}},{"type":"Polygon","arcs":[[377,-2989]],"id":"DE.BY.09473000.09473453","properties":{"hc-group":"admin3","hc-key":"de-by-09473000-09473453","hc-a2":"GE","name":"Gellnhausen","hc-middle-lon":10.788,"hc-middle-lat":50.376}},{"type":"Polygon","arcs":[[-2407,2989,2990,2991,-2093,2992,-709,2993,-2095,2994,2995,-2409,2996],[-2092]],"id":"DE.BY.09472000.09472451","properties":{"hc-group":"admin3","hc-key":"de-by-09472000-09472451","hc-a2":"BF","name":"Bischofsgrüner Forst","hc-middle-lon":11.831,"hc-middle-lat":50.034}},{"type":"Polygon","arcs":[[53,54,55,56,57,58,59,60,61]],"id":"DE.BY.09463000.09463000","properties":{"hc-group":"admin3","hc-key":"de-by-09463000-09463000","hc-a2":"CO","name":"Coburg","hc-middle-lon":10.904,"hc-middle-lat":50.246}},{"type":"Polygon","arcs":[[-2997,-2408]],"id":"DE.BY.09472000.09472470","properties":{"hc-group":"admin3","hc-key":"de-by-09472000-09472470","hc-a2":"WF","name":"Warmensteinacher Forst-Nord","hc-middle-lon":11.808,"hc-middle-lat":50.03}},{"type":"Polygon","arcs":[[2997,-2633,2998,2999,3000,3001,-1645,1636,-2629,3002,-2632]],"id":"DE.BY.09475000.09475169","properties":{"hc-group":"admin3","hc-key":"de-by-09475000-09475169","hc-a2":"SA","name":"Schwarzenbach a. Wald","hc-middle-lon":11.563,"hc-middle-lat":50.273}},{"type":"MultiPolygon","arcs":[[[-2998,-2631,3003,3004,3005,3006,3007,3008,3009,-3000,-2634],[-2625]],[[2634,2998]]],"id":"DE.BY.09475000.09475156","properties":{"hc-group":"admin3","hc-key":"de-by-09475000-09475156","hc-a2":"NA","name":"Naila","hc-middle-lon":11.686,"hc-middle-lat":50.325}},{"type":"Polygon","arcs":[[375,-2988,3010,3011]],"id":"DE.BY.09473000.09473454","properties":{"hc-group":"admin3","hc-key":"de-by-09473000-09473454","hc-a2":"KÖ","name":"Köllnholz","hc-middle-lon":10.85,"hc-middle-lat":50.28}},{"type":"Polygon","arcs":[[3012,-1320,-1319,3013,3014,3015,3016,3017]],"id":"DE.BY.09178000.09178155","properties":{"hc-group":"admin3","hc-key":"de-by-09178000-09178155","hc-a2":"WA","name":"Wang","hc-middle-lon":11.876,"hc-middle-lat":48.491}},{"type":"Polygon","arcs":[[-3013,3018,3019,-890,-895,-894]],"id":"DE.BY.09178000.09178125","properties":{"hc-group":"admin3","hc-key":"de-by-09178000-09178125","hc-a2":"GA","name":"Gammelsdorf","hc-middle-lon":11.937,"hc-middle-lat":48.559}},{"type":"Polygon","arcs":[[889,890,891,3020,3021,-897,-896]],"id":"DE.BY.09273000.09273178","properties":{"hc-group":"admin3","hc-key":"de-by-09273000-09273178","hc-a2":"VO","name":"Volkenschwand","hc-middle-lon":11.862,"hc-middle-lat":48.607}},{"type":"Polygon","arcs":[[-3022,3022,3023,-898]],"id":"DE.BY.09273000.09273115","properties":{"hc-group":"admin3","hc-key":"de-by-09273000-09273115","hc-a2":"AT","name":"Attenhofen","hc-middle-lon":11.844,"hc-middle-lat":48.658}},{"type":"Polygon","arcs":[[274,3024,3025,-110,3026]],"id":"DE.BY.09475000.09475127","properties":{"hc-group":"admin3","hc-key":"de-by-09475000-09475127","hc-a2":"GA","name":"Gattendorf","hc-middle-lon":11.981,"hc-middle-lat":50.331}},{"type":"Polygon","arcs":[[-761,3027,3028,3029,3030,-762]],"id":"DE.BY.09374000.09374132","properties":{"hc-group":"admin3","hc-key":"de-by-09374000-09374132","hc-a2":"LE","name":"Leuchtenberg","hc-middle-lon":12.27,"hc-middle-lat":49.588}},{"type":"Polygon","arcs":[[760,3031,3032,3033,3034,-1208,758,759]],"id":"DE.BY.09376000.09376150","properties":{"hc-group":"admin3","hc-key":"de-by-09376000-09376150","hc-a2":"WK","name":"Wernberg-Köblitz","hc-middle-lon":12.198,"hc-middle-lat":49.558}},{"type":"Polygon","arcs":[[-760,3035,-63,3036,3037,3038,-3028]],"id":"DE.BY.09374000.09374146","properties":{"hc-group":"admin3","hc-key":"de-by-09374000-09374146","hc-a2":"PI","name":"Pirk","hc-middle-lon":12.143,"hc-middle-lat":49.627}},{"type":"Polygon","arcs":[[62,63,64,65,66,67,68,69,70,71,72,73,74,75,76]],"id":"DE.BY.09363000.09363000","properties":{"hc-group":"admin3","hc-key":"de-by-09363000-09363000","hc-a2":"WI","name":"Weiden i.d. OPf.","hc-middle-lon":12.152,"hc-middle-lat":49.698}},{"type":"Polygon","arcs":[[-69,3039,3040,3041,3042,3043]],"id":"DE.BY.09374000.09374144","properties":{"hc-group":"admin3","hc-key":"de-by-09374000-09374144","hc-a2":"PA","name":"Parkstein","hc-middle-lon":12.087,"hc-middle-lat":49.706}},{"type":"Polygon","arcs":[[3044,3045,937,938,3046]],"id":"DE.BY.09275000.09275125","properties":{"hc-group":"admin3","hc-key":"de-by-09275000-09275125","hc-a2":"HA","name":"Haarbach","hc-middle-lon":13.099,"hc-middle-lat":48.535}},{"type":"Polygon","arcs":[[-3045,3047,3048,3049,3050,3051]],"id":"DE.BY.09275000.09275138","properties":{"hc-group":"admin3","hc-key":"de-by-09275000-09275138","hc-a2":"OR","name":"Ortenburg","hc-middle-lon":13.266,"hc-middle-lat":48.549}},{"type":"Polygon","arcs":[[431,3052,-2548,3053,-2546,3054,3055,3056,-2552]],"id":"DE.BY.09272000.09272463","properties":{"hc-group":"admin3","hc-key":"de-by-09272000-09272463","hc-a2":"WA","name":"Waldhäuserwald","hc-middle-lon":13.473,"hc-middle-lat":48.955}},{"type":"Polygon","arcs":[[-906,-905,3057,3058,3059]],"id":"DE.BY.09577000.09577115","properties":{"hc-group":"admin3","hc-key":"de-by-09577000-09577115","hc-a2":"BE","name":"Bergen","hc-middle-lon":11.068,"hc-middle-lat":49.065}},{"type":"Polygon","arcs":[[905,906,907,3060,3061,3062,3063,-2163]],"id":"DE.BY.09576000.09576126","properties":{"hc-group":"admin3","hc-key":"de-by-09576000-09576126","hc-a2":"HE","name":"Heideck","hc-middle-lon":11.112,"hc-middle-lat":49.127}},{"type":"Polygon","arcs":[[3064,3065,3066,3067,3068,3069]],"id":"DE.BY.09571000.09571227","properties":{"hc-group":"admin3","hc-key":"de-by-09571000-09571227","hc-a2":"WI","name":"Wittelshofen","hc-middle-lon":10.419,"hc-middle-lat":49.046}},{"type":"Polygon","arcs":[[-3065,3070,-2602,446,3071,3072,3073,3074]],"id":"DE.BY.09571000.09571136","properties":{"hc-group":"admin3","hc-key":"de-by-09571000-09571136","hc-a2":"DI","name":"Dinkelsbühl","hc-middle-lon":10.221,"hc-middle-lat":49.094}},{"type":"Polygon","arcs":[[665,3075,3076,3077,3078]],"id":"DE.BY.09774000.09774124","properties":{"hc-group":"admin3","hc-key":"de-by-09774000-09774124","hc-a2":"DE","name":"Deisenhausen","hc-middle-lon":10.332,"hc-middle-lat":48.267}},{"type":"Polygon","arcs":[[-666,-678,3079,3080,3081,3082,-667]],"id":"DE.BY.09775000.09775455","properties":{"hc-group":"admin3","hc-key":"de-by-09775000-09775455","hc-a2":"UW","name":"Unterroggenburger Wald","hc-middle-lon":10.275,"hc-middle-lat":48.262}},{"type":"Polygon","arcs":[[1511,913,3083,3084,-3023,-3021,892]],"id":"DE.BY.09273000.09273147","properties":{"hc-group":"admin3","hc-key":"de-by-09273000-09273147","hc-a2":"MA","name":"Mainburg","hc-middle-lon":11.712,"hc-middle-lat":48.644}},{"type":"Polygon","arcs":[[-1512,1953,1954,3085,3086,3087,3088]],"id":"DE.BY.09186000.09186162","properties":{"hc-group":"admin3","hc-key":"de-by-09186000-09186162","hc-a2":"WO","name":"Wolnzach","hc-middle-lon":11.628,"hc-middle-lat":48.601}},{"type":"Polygon","arcs":[[-2976,3089,3090,-1414,-1413,3091]],"id":"DE.BY.09772000.09772166","properties":{"hc-group":"admin3","hc-key":"de-by-09772000-09772166","hc-a2":"KÜ","name":"Kühlenthal","hc-middle-lon":10.8,"hc-middle-lat":48.57}},{"type":"Polygon","arcs":[[3092,3093,3094,3095,1686]],"id":"DE.BY.09572000.09572455","properties":{"hc-group":"admin3","hc-key":"de-by-09572000-09572455","hc-a2":"FT","name":"Forst Tennenlohe","hc-middle-lon":11.055,"hc-middle-lat":49.556}},{"type":"Polygon","arcs":[[-3093,1687,3096,-2005,3097],[-2002]],"id":"DE.BY.09572000.09572452","properties":{"hc-group":"admin3","hc-key":"de-by-09572000-09572452","hc-a2":"BF","name":"Buckenhofer Forst","hc-middle-lon":11.068,"hc-middle-lat":49.578}},{"type":"Polygon","arcs":[[302,3098,3099,3100,3101,3102]],"id":"DE.BY.09182000.09182131","properties":{"hc-group":"admin3","hc-key":"de-by-09182000-09182131","hc-a2":"SC","name":"Schliersee","hc-middle-lon":11.88,"hc-middle-lat":47.679}},{"type":"Polygon","arcs":[[-71,3103,3104,3105,3106]],"id":"DE.BY.09374000.09374139","properties":{"hc-group":"admin3","hc-key":"de-by-09374000-09374139","hc-a2":"NA","name":"Neustadt a.d. Waldnaab","hc-middle-lon":12.175,"hc-middle-lat":49.729}},{"type":"Polygon","arcs":[[3107,3108,3109,-1677,-1676,3110,3111,3112]],"id":"DE.BY.09278000.09278143","properties":{"hc-group":"admin3","hc-key":"de-by-09278000-09278143","hc-a2":"KO","name":"Konzell","hc-middle-lon":12.711,"hc-middle-lat":49.076}},{"type":"Polygon","arcs":[[-3108,3113,3114,3115,3116,3117]],"id":"DE.BY.09278000.09278179","properties":{"hc-group":"admin3","hc-key":"de-by-09278000-09278179","hc-a2":"RA","name":"Rattiszell","hc-middle-lon":12.632,"hc-middle-lat":49.037}},{"type":"MultiPolygon","arcs":[[[3118,3119,3120,3121,3122,3123,3124,3125,-2786,-2807,3126,3127,3128,3129,3130,3131]],[[3132,3133,3134,3135,3136,3137]],[[3138,3138,3138]],[[3138,3138,3138]]],"id":"DE.BY.09677000.09677155","properties":{"hc-group":"admin3","hc-key":"de-by-09677000-09677155","hc-a2":"LA","name":"Lohr a. Main","hc-middle-lon":9.607,"hc-middle-lat":49.988}},{"type":"MultiPolygon","arcs":[[[3139,-3131,3140,3141,3142,3143]],[[3144,-3119,3145]],[[0,0,0]]],"id":"DE.BY.09677000.09677462","properties":{"hc-group":"admin3","hc-key":"de-by-09677000-09677462","hc-a2":"RO","name":"Rothenberg","hc-middle-lon":9.525,"hc-middle-lat":49.983}},{"type":"MultiPolygon","arcs":[[[-3145,3146,-2181,-2243,3147,3148,-3120],[-2240]],[[3149,3150,-2241,3151,3152]]],"id":"DE.BY.09677000.09677461","properties":{"hc-group":"admin3","hc-key":"de-by-09677000-09677461","hc-a2":"PF","name":"Partensteiner Forst","hc-middle-lon":9.469,"hc-middle-lat":50.02}},{"type":"Polygon","arcs":[[-2840,-2746,3153,1172,3154]],"id":"DE.BY.09678000.09678128","properties":{"hc-group":"admin3","hc-key":"de-by-09678000-09678128","hc-a2":"EU","name":"Euerbach","hc-middle-lon":10.134,"hc-middle-lat":50.051}},{"type":"Polygon","arcs":[[77,78,79,80,81,82,83,84,85]],"id":"DE.BY.09561000.09561000","properties":{"hc-group":"admin3","hc-key":"de-by-09561000-09561000","hc-a2":"AN","name":"Ansbach","hc-middle-lon":10.566,"hc-middle-lat":49.296}},{"type":"Polygon","arcs":[[-78,3155,3156,3157,3158,3159,3160,3161,3162]],"id":"DE.BY.09571000.09571174","properties":{"hc-group":"admin3","hc-key":"de-by-09571000-09571174","hc-a2":"LE","name":"Leutershausen","hc-middle-lon":10.393,"hc-middle-lat":49.304}},{"type":"Polygon","arcs":[[-3156,-86,3163,3164,3165,3166,3167]],"id":"DE.BY.09571000.09571166","properties":{"hc-group":"admin3","hc-key":"de-by-09571000-09571166","hc-a2":"HE","name":"Herrieden","hc-middle-lon":10.485,"hc-middle-lat":49.222}},{"type":"Polygon","arcs":[[-3165,3168,3169,3170,3171,3172,3173,3174]],"id":"DE.BY.09571000.09571115","properties":{"hc-group":"admin3","hc-key":"de-by-09571000-09571115","hc-a2":"BE","name":"Bechhofen","hc-middle-lon":10.611,"hc-middle-lat":49.173}},{"type":"Polygon","arcs":[[-3161,3175,3176,3177,3178,3179]],"id":"DE.BY.09571000.09571155","properties":{"hc-group":"admin3","hc-key":"de-by-09571000-09571155","hc-a2":"GE","name":"Geslau","hc-middle-lon":10.352,"hc-middle-lat":49.368}},{"type":"Polygon","arcs":[[-2046,-2012,3180,3181,3182,-525,-524,-1094,3183,3184,3185,3186,3187],[-2009]],"id":"DE.BY.09671000.09671456","properties":{"hc-group":"admin3","hc-key":"de-by-09671000-09671456","hc-a2":"RF","name":"Rohrbrunner Forst","hc-middle-lon":9.371,"hc-middle-lat":49.899}},{"type":"Polygon","arcs":[[-2537,-2740,3188,3189,3190]],"id":"DE.BY.09671000.09671153","properties":{"hc-group":"admin3","hc-key":"de-by-09671000-09671153","hc-a2":"SO","name":"Sommerkahl","hc-middle-lon":9.27,"hc-middle-lat":50.067}},{"type":"Polygon","arcs":[[-2714,-2713,-2783,3191,3192,3193]],"id":"DE.BY.09676000.09676141","properties":{"hc-group":"admin3","hc-key":"de-by-09676000-09676141","hc-a2":"MÖ","name":"Mönchberg","hc-middle-lon":9.309,"hc-middle-lat":49.798}},{"type":"Polygon","arcs":[[-1736,-1735,-1734,3194,-3179,3195,3196]],"id":"DE.BY.09571000.09571225","properties":{"hc-group":"admin3","hc-key":"de-by-09571000-09571225","hc-a2":"WI","name":"Windelsbach","hc-middle-lon":10.248,"hc-middle-lat":49.389}},{"type":"Polygon","arcs":[[3197,3198,3199,3200,3201]],"id":"DE.BY.09279000.09279125","properties":{"hc-group":"admin3","hc-key":"de-by-09279000-09279125","hc-a2":"MA","name":"Mamming","hc-middle-lon":12.624,"hc-middle-lat":48.618}},{"type":"Polygon","arcs":[[-3198,3202,3203,3204,3205,656,3206,-662,3207]],"id":"DE.BY.09279000.09279128","properties":{"hc-group":"admin3","hc-key":"de-by-09279000-09279128","hc-a2":"MO","name":"Moosthenning","hc-middle-lon":12.517,"hc-middle-lat":48.696}},{"type":"Polygon","arcs":[[-3203,-3202,3208,3209,3210]],"id":"DE.BY.09279000.09279116","properties":{"hc-group":"admin3","hc-key":"de-by-09279000-09279116","hc-a2":"GO","name":"Gottfrieding","hc-middle-lon":12.542,"hc-middle-lat":48.626}},{"type":"Polygon","arcs":[[165,3211,-2231,3212,3213,3214]],"id":"DE.BY.09679000.09679155","properties":{"hc-group":"admin3","hc-key":"de-by-09679000-09679155","hc-a2":"KL","name":"Kleinrinderfeld","hc-middle-lon":9.845,"hc-middle-lat":49.705}},{"type":"Polygon","arcs":[[3215,-2185,-2082,-1166,3216,3217,3218,3219,3220,-2187,-2084,-2184],[-2183]],"id":"DE.BY.09273000.09273454","properties":{"hc-group":"admin3","hc-key":"de-by-09273000-09273454","hc-a2":"HF","name":"Hienheimer Forst","hc-middle-lon":11.728,"hc-middle-lat":48.9}},{"type":"Polygon","arcs":[[-3219,3221,-3220]],"id":"DE.BY.09273000.09273453","properties":{"hc-group":"admin3","hc-key":"de-by-09273000-09273453","hc-a2":"HA","name":"Hacklberg","hc-middle-lon":11.784,"hc-middle-lat":48.924}},{"type":"Polygon","arcs":[[3222,985,3223,3224,3225]],"id":"DE.BY.09771000.09771111","properties":{"hc-group":"admin3","hc-key":"de-by-09771000-09771111","hc-a2":"AD","name":"Adelzhausen","hc-middle-lon":11.121,"hc-middle-lat":48.355}},{"type":"Polygon","arcs":[[-3223,3226,3227,-1515]],"id":"DE.BY.09771000.09771165","properties":{"hc-group":"admin3","hc-key":"de-by-09771000-09771165","hc-a2":"SI","name":"Sielenbach","hc-middle-lon":11.161,"hc-middle-lat":48.389}},{"type":"Polygon","arcs":[[-3227,-3226,3228,3229,3230]],"id":"DE.BY.09771000.09771122","properties":{"hc-group":"admin3","hc-key":"de-by-09771000-09771122","hc-a2":"DA","name":"Dasing","hc-middle-lon":11.023,"hc-middle-lat":48.397}},{"type":"Polygon","arcs":[[-1473,-1472,-1471,-1470,-1469,3231,3232,3233]],"id":"DE.BY.09774000.09774198","properties":{"hc-group":"admin3","hc-key":"de-by-09774000-09774198","hc-a2":"ZI","name":"Ziemetshausen","hc-middle-lon":10.514,"hc-middle-lat":48.309}},{"type":"Polygon","arcs":[[1472,1473,3234]],"id":"DE.BY.09772000.09772451","properties":{"hc-group":"admin3","hc-key":"de-by-09772000-09772451","hc-a2":"SC","name":"Schmellerforst","hc-middle-lon":10.519,"hc-middle-lat":48.32}},{"type":"Polygon","arcs":[[-1957,3235,3236,3237,3238]],"id":"DE.BY.09178000.09178156","properties":{"hc-group":"admin3","hc-key":"de-by-09178000-09178156","hc-a2":"WO","name":"Wolfersdorf","hc-middle-lon":11.707,"hc-middle-lat":48.495}},{"type":"Polygon","arcs":[[1956,1957,1958,1959,3239,3240,-3086,1955]],"id":"DE.BY.09186000.09186152","properties":{"hc-group":"admin3","hc-key":"de-by-09186000-09186152","hc-a2":"SC","name":"Schweitenkirchen","hc-middle-lon":11.567,"hc-middle-lat":48.514}},{"type":"Polygon","arcs":[[-1959,3241,3242,3243,3244]],"id":"DE.BY.09178000.09178113","properties":{"hc-group":"admin3","hc-key":"de-by-09178000-09178113","hc-a2":"AL","name":"Allershausen","hc-middle-lon":11.599,"hc-middle-lat":48.434}},{"type":"Polygon","arcs":[[-1960,-3245,3245,-1963,-1962,-1961]],"id":"DE.BY.09178000.09178150","properties":{"hc-group":"admin3","hc-key":"de-by-09178000-09178150","hc-a2":"PA","name":"Paunzhausen","hc-middle-lon":11.567,"hc-middle-lat":48.468}},{"type":"Polygon","arcs":[[-2014,1100,-2018,3246],[-2013]],"id":"DE.BY.09272000.09272462","properties":{"hc-group":"admin3","hc-key":"de-by-09272000-09272462","hc-a2":"SO","name":"Sonnenwald","hc-middle-lon":13.23,"hc-middle-lat":48.824}},{"type":"Polygon","arcs":[[-3111,-1675,-1674,-1683,-1682,3247,3248]],"id":"DE.BY.09278000.09278178","properties":{"hc-group":"admin3","hc-key":"de-by-09278000-09278178","hc-a2":"RA","name":"Rattenberg","hc-middle-lon":12.764,"hc-middle-lat":49.079}},{"type":"Polygon","arcs":[[3249,3250,3251,3252,-2550,3253,-2508,-2515]],"id":"DE.BY.09272000.09272120","properties":{"hc-group":"admin3","hc-key":"de-by-09272000-09272120","hc-a2":"GR","name":"Grafenau","hc-middle-lon":13.428,"hc-middle-lat":48.828}},{"type":"Polygon","arcs":[[-3250,-2514,3254,3255,3256,-544,-543,3257]],"id":"DE.BY.09272000.09272138","properties":{"hc-group":"admin3","hc-key":"de-by-09272000-09272138","hc-a2":"PE","name":"Perlesreut","hc-middle-lon":13.447,"hc-middle-lat":48.782}},{"type":"Polygon","arcs":[[3258,3259,3260,1469]],"id":"DE.BY.09772000.09772168","properties":{"hc-group":"admin3","hc-key":"de-by-09772000-09772168","hc-a2":"LA","name":"Langenneufnach","hc-middle-lon":10.603,"hc-middle-lat":48.258}},{"type":"Polygon","arcs":[[-3259,1470,3261,3262,3263,3264,3265,3266,3267]],"id":"DE.BY.09772000.09772141","properties":{"hc-group":"admin3","hc-key":"de-by-09772000-09772141","hc-a2":"FI","name":"Fischach","hc-middle-lon":10.66,"hc-middle-lat":48.281}},{"type":"Polygon","arcs":[[-3265,3268,3269,3270]],"id":"DE.BY.09772000.09772148","properties":{"hc-group":"admin3","hc-key":"de-by-09772000-09772148","hc-a2":"GE","name":"Gessertshausen","hc-middle-lon":10.714,"hc-middle-lat":48.302}},{"type":"Polygon","arcs":[[3271,3272,909,910,911,-641,-640,3273]],"id":"DE.BY.09576000.09576147","properties":{"hc-group":"admin3","hc-key":"de-by-09576000-09576147","hc-a2":"SP","name":"Spalt","hc-middle-lon":10.962,"hc-middle-lat":49.197}},{"type":"Polygon","arcs":[[-3272,3274,3275,3276,3277,-3062,3278]],"id":"DE.BY.09576000.09576121","properties":{"hc-group":"admin3","hc-key":"de-by-09576000-09576121","hc-a2":"GE","name":"Georgensgmünd","hc-middle-lon":11.001,"hc-middle-lat":49.217}},{"type":"Polygon","arcs":[[640,-1229,3279,3280]],"id":"DE.BY.09571000.09571178","properties":{"hc-group":"admin3","hc-key":"de-by-09571000-09571178","hc-a2":"MI","name":"Mitteleschenbach","hc-middle-lon":10.807,"hc-middle-lat":49.211}},{"type":"Polygon","arcs":[[-2849,-2428,-97,3281,3282]],"id":"DE.BY.09679000.09679206","properties":{"hc-group":"admin3","hc-key":"de-by-09679000-09679206","hc-a2":"WI","name":"Winterhausen","hc-middle-lon":10,"hc-middle-lat":49.713}},{"type":"Polygon","arcs":[[-1478,3283,3284,3285,3286,3287]],"id":"DE.BY.09774000.09774144","properties":{"hc-group":"admin3","hc-key":"de-by-09774000-09774144","hc-a2":"JS","name":"Jettingen-Scheppach","hc-middle-lon":10.417,"hc-middle-lat":48.384}},{"type":"Polygon","arcs":[[1477,1478,3288,3289,3290,3291,3292,1476]],"id":"DE.BY.09772000.09772223","properties":{"hc-group":"admin3","hc-key":"de-by-09772000-09772223","hc-a2":"ZU","name":"Zusmarshausen","hc-middle-lon":10.595,"hc-middle-lat":48.407}},{"type":"Polygon","arcs":[[-2737,-2734,-2797,3293,407,3294,3295]],"id":"DE.BY.09671000.09671143","properties":{"hc-group":"admin3","hc-key":"de-by-09671000-09671143","hc-a2":"MÖ","name":"Mömbris","hc-middle-lon":9.156,"hc-middle-lat":50.066}},{"type":"Polygon","arcs":[[-3024,-3085,3296,3297,3298,3299,3300,-899]],"id":"DE.BY.09273000.09273163","properties":{"hc-group":"admin3","hc-key":"de-by-09273000-09273163","hc-a2":"EL","name":"Elsendorf","hc-middle-lon":11.825,"hc-middle-lat":48.701}},{"type":"Polygon","arcs":[[898,899,900,3301,3302,3303,3304,896,897]],"id":"DE.BY.09274000.09274172","properties":{"hc-group":"admin3","hc-key":"de-by-09274000-09274172","hc-a2":"PF","name":"Pfeffenhausen","hc-middle-lon":11.937,"hc-middle-lat":48.659}},{"type":"Polygon","arcs":[[-2909,3305,-47,3306,3307]],"id":"DE.BY.09678000.09678136","properties":{"hc-group":"admin3","hc-key":"de-by-09678000-09678136","hc-a2":"GR","name":"Grafenrheinfeld","hc-middle-lon":10.208,"hc-middle-lat":49.997}},{"type":"Polygon","arcs":[[3308,-1503,-1502,-1501,-1500,3309,3310,3311]],"id":"DE.BY.09176000.09176160","properties":{"hc-group":"admin3","hc-key":"de-by-09176000-09176160","hc-a2":"SC","name":"Schernfeld","hc-middle-lon":11.13,"hc-middle-lat":48.939}},{"type":"Polygon","arcs":[[-3309,3312,3313,-1849,1845,1846,1847,-1505,-1504]],"id":"DE.BY.09176000.09176148","properties":{"hc-group":"admin3","hc-key":"de-by-09176000-09176148","hc-a2":"MÖ","name":"Mörnsheim","hc-middle-lon":10.996,"hc-middle-lat":48.851}},{"type":"Polygon","arcs":[[1503,3314,3315,1502]],"id":"DE.BY.09577000.09577168","properties":{"hc-group":"admin3","hc-key":"de-by-09577000-09577168","hc-a2":"SO","name":"Solnhofen","hc-middle-lon":11.006,"hc-middle-lat":48.9}},{"type":"Polygon","arcs":[[-2764,3316,-2774,-2771,-2149]],"id":"DE.BY.09678000.09678122","properties":{"hc-group":"admin3","hc-key":"de-by-09678000-09678122","hc-a2":"DI","name":"Dingolshausen","hc-middle-lon":10.401,"hc-middle-lat":49.913}},{"type":"Polygon","arcs":[[-2828,3317,3318,3319,3320]],"id":"DE.BY.09671000.09671159","properties":{"hc-group":"admin3","hc-key":"de-by-09671000-09671159","hc-a2":"WE","name":"Westerngrund","hc-middle-lon":9.239,"hc-middle-lat":50.12}},{"type":"Polygon","arcs":[[-87,3321,3322,3323]],"id":"DE.BY.09375000.09375174","properties":{"hc-group":"admin3","hc-key":"de-by-09375000-09375174","hc-a2":"NE","name":"Neutraubling","hc-middle-lon":12.206,"hc-middle-lat":48.98}},{"type":"Polygon","arcs":[[86,87,88,89,90,91,92,93,94,95]],"id":"DE.BY.09362000.09362000","properties":{"hc-group":"admin3","hc-key":"de-by-09362000-09362000","hc-a2":"RE","name":"Regensburg","hc-middle-lon":12.109,"hc-middle-lat":49.011}},{"type":"Polygon","arcs":[[-2022,-2021,-2863,3324,3325,3326]],"id":"DE.BY.09575000.09575127","properties":{"hc-group":"admin3","hc-key":"de-by-09575000-09575127","hc-a2":"GO","name":"Gollhofen","hc-middle-lon":10.177,"hc-middle-lat":49.57}},{"type":"Polygon","arcs":[[-3124,3327]],"id":"DE.BY.09677000.09677164","properties":{"hc-group":"admin3","hc-key":"de-by-09677000-09677164","hc-a2":"NE","name":"Neuendorf","hc-middle-lon":9.616,"hc-middle-lat":50.033}},{"type":"Polygon","arcs":[[-3318,-2827,412,3328]],"id":"DE.BY.09671000.09671454","properties":{"hc-group":"admin3","hc-key":"de-by-09671000-09671454","hc-a2":"HW","name":"Huckelheimer Wald","hc-middle-lon":9.264,"hc-middle-lat":50.136}},{"type":"Polygon","arcs":[[237,3329,3330,3331,-2717]],"id":"DE.BY.09676000.09676116","properties":{"hc-group":"admin3","hc-key":"de-by-09676000-09676116","hc-a2":"BÜ","name":"Bürgstadt","hc-middle-lon":9.305,"hc-middle-lat":49.725}},{"type":"Polygon","arcs":[[296,3332]],"id":"DE.BY.09679000.09679192","properties":{"hc-group":"admin3","hc-key":"de-by-09679000-09679192","hc-a2":"TA","name":"Tauberrettersheim","hc-middle-lon":9.933,"hc-middle-lat":49.497}},{"type":"Polygon","arcs":[[96,97,98,99,100,101,102,103,104,105,106]],"id":"DE.BY.09663000.09663000","properties":{"hc-group":"admin3","hc-key":"de-by-09663000-09663000","hc-a2":"WÜ","name":"Würzburg","hc-middle-lon":9.935,"hc-middle-lat":49.778}},{"type":"Polygon","arcs":[[-3197,3333,3334,452,-2905,-2932,-1737]],"id":"DE.BY.09571000.09571205","properties":{"hc-group":"admin3","hc-key":"de-by-09571000-09571205","hc-a2":"ST","name":"Steinsfeld","hc-middle-lon":10.162,"hc-middle-lat":49.41}},{"type":"Polygon","arcs":[[-2821,-102,-2900,3335,3336,3337]],"id":"DE.BY.09679000.09679202","properties":{"hc-group":"admin3","hc-key":"de-by-09679000-09679202","hc-a2":"VE","name":"Veitshöchheim","hc-middle-lon":9.886,"hc-middle-lat":49.839}},{"type":"Polygon","arcs":[[-3337,3338,3339,492,493,3340]],"id":"DE.BY.09679000.09679194","properties":{"hc-group":"admin3","hc-key":"de-by-09679000-09679194","hc-a2":"TH","name":"Thüngersheim","hc-middle-lon":9.852,"hc-middle-lat":49.872}},{"type":"Polygon","arcs":[[-2147,-2765]],"id":"DE.BY.09678000.09678454","properties":{"hc-group":"admin3","hc-key":"de-by-09678000-09678454","hc-a2":"NO","name":"Nonnenkloster","hc-middle-lon":10.432,"hc-middle-lat":49.895}},{"type":"Polygon","arcs":[[-2907,-2914,3341,-2845,3342]],"id":"DE.BY.09678000.09678190","properties":{"hc-group":"admin3","hc-key":"de-by-09678000-09678190","hc-a2":"WA","name":"Waigolshausen","hc-middle-lon":10.136,"hc-middle-lat":49.958}},{"type":"Polygon","arcs":[[170,483,3343,3344,3345]],"id":"DE.BY.09679000.09679149","properties":{"hc-group":"admin3","hc-key":"de-by-09679000-09679149","hc-a2":"HO","name":"Holzkirchen","hc-middle-lon":9.673,"hc-middle-lat":49.783}},{"type":"Polygon","arcs":[[3346,3347,3348,1243,1244,1245,1246,1247]],"id":"DE.BY.09777000.09777176","properties":{"hc-group":"admin3","hc-key":"de-by-09777000-09777176","hc-a2":"UN","name":"Untrasried","hc-middle-lon":10.367,"hc-middle-lat":47.845}},{"type":"Polygon","arcs":[[-3347,1248,1485,3349,3350]],"id":"DE.BY.09777000.09777165","properties":{"hc-group":"admin3","hc-key":"de-by-09777000-09777165","hc-a2":"RO","name":"Ronsberg","hc-middle-lon":10.427,"hc-middle-lat":47.915}},{"type":"Polygon","arcs":[[-1249,-1248,3351,3352,3353,3354,3355,3356,3357,3358]],"id":"DE.BY.09778000.09778186","properties":{"hc-group":"admin3","hc-key":"de-by-09778000-09778186","hc-a2":"OT","name":"Ottobeuren","hc-middle-lon":10.296,"hc-middle-lat":47.95}},{"type":"Polygon","arcs":[[343,1229,1234,3359,3360,3361,3362]],"id":"DE.BY.09777000.09777153","properties":{"hc-group":"admin3","hc-key":"de-by-09777000-09777153","hc-a2":"NE","name":"Nesselwang","hc-middle-lon":10.465,"hc-middle-lat":47.607}},{"type":"Polygon","arcs":[[-1230,332,3363,3364,3365,3366]],"id":"DE.BY.09780000.09780145","properties":{"hc-group":"admin3","hc-key":"de-by-09780000-09780145","hc-a2":"WE","name":"Wertach","hc-middle-lon":10.392,"hc-middle-lat":47.547}},{"type":"Polygon","arcs":[[-2908,-3343,-2844,-2743,-48,-3306]],"id":"DE.BY.09678000.09678115","properties":{"hc-group":"admin3","hc-key":"de-by-09678000-09678115","hc-a2":"BE","name":"Bergrheinfeld","hc-middle-lon":10.165,"hc-middle-lat":50.027}},{"type":"Polygon","arcs":[[-3341,494,-2170,-2822,-3338]],"id":"DE.BY.09679000.09679142","properties":{"hc-group":"admin3","hc-key":"de-by-09679000-09679142","hc-a2":"GÜ","name":"Güntersleben","hc-middle-lon":9.906,"hc-middle-lat":49.876}},{"type":"Polygon","arcs":[[481,3367,3368,3369,3370,3371]],"id":"DE.BY.09479000.09479127","properties":{"hc-group":"admin3","hc-key":"de-by-09479000-09479127","hc-a2":"HA","name":"Hohenberg a.d. Eger","hc-middle-lon":12.213,"hc-middle-lat":50.094}},{"type":"Polygon","arcs":[[3372,1730,3373,3374,3375]],"id":"DE.BY.09575000.09575133","properties":{"hc-group":"admin3","hc-key":"de-by-09575000-09575133","hc-a2":"IL","name":"Illesheim","hc-middle-lon":10.4,"hc-middle-lat":49.462}},{"type":"Polygon","arcs":[[-3373,3376,3377,1727,1728,1729]],"id":"DE.BY.09575000.09575156","properties":{"hc-group":"admin3","hc-key":"de-by-09575000-09575156","hc-a2":"OB","name":"Obernzenn","hc-middle-lon":10.531,"hc-middle-lat":49.461}},{"type":"Polygon","arcs":[[426,3378,3379,3380,3381,3382,3383]],"id":"DE.BY.09275000.09275141","properties":{"hc-group":"admin3","hc-key":"de-by-09275000-09275141","hc-a2":"PO","name":"Pocking","hc-middle-lon":13.371,"hc-middle-lat":48.403}},{"type":"Polygon","arcs":[[-1713,3384,-1709,3385,3386,3387,3388,-938]],"id":"DE.BY.09277000.09277113","properties":{"hc-group":"admin3","hc-key":"de-by-09277000-09277113","hc-a2":"BB","name":"Bad Birnbach","hc-middle-lon":13.072,"hc-middle-lat":48.438}},{"type":"Polygon","arcs":[[1712,-3046,-3052,3389,3390,3391,1711]],"id":"DE.BY.09275000.09275124","properties":{"hc-group":"admin3","hc-key":"de-by-09275000-09275124","hc-a2":"BG","name":"Bad Griesbach i. Rottal","hc-middle-lon":13.205,"hc-middle-lat":48.466}},{"type":"Polygon","arcs":[[505,506,3392,3393,3394,504]],"id":"DE.BY.09171000.09171116","properties":{"hc-group":"admin3","hc-key":"de-by-09171000-09171116","hc-a2":"FA","name":"Feichten a.d. Alz","hc-middle-lon":12.598,"hc-middle-lat":48.088}},{"type":"Polygon","arcs":[[-506,3395,3396,3397,-809,3398]],"id":"DE.BY.09189000.09189149","properties":{"hc-group":"admin3","hc-key":"de-by-09189000-09189149","hc-a2":"TA","name":"Tacherting","hc-middle-lon":12.509,"hc-middle-lat":48.081}},{"type":"Polygon","arcs":[[355,3399,3400,3401,1361,1362]],"id":"DE.BY.09374000.09374122","properties":{"hc-group":"admin3","hc-key":"de-by-09374000-09374122","hc-a2":"FL","name":"Flossenbürg","hc-middle-lon":12.357,"hc-middle-lat":49.744}},{"type":"Polygon","arcs":[[-1362,-1361,-1360,-1359,3402,3403,3404]],"id":"DE.BY.09377000.09377146","properties":{"hc-group":"admin3","hc-key":"de-by-09377000-09377146","hc-a2":"PL","name":"Plößberg","hc-middle-lon":12.34,"hc-middle-lat":49.805}},{"type":"Polygon","arcs":[[-1267,1262,3405,3406,3407,3408,3409]],"id":"DE.BY.09183000.09183132","properties":{"hc-group":"admin3","hc-key":"de-by-09183000-09183132","hc-a2":"OB","name":"Oberbergkirchen","hc-middle-lon":12.411,"hc-middle-lat":48.294}},{"type":"Polygon","arcs":[[3410,3411,3412,3413,3414,3415,3416,3417]],"id":"DE.BY.09177000.09177117","properties":{"hc-group":"admin3","hc-key":"de-by-09177000-09177117","hc-a2":"ER","name":"Erding","hc-middle-lon":11.912,"hc-middle-lat":48.311}},{"type":"Polygon","arcs":[[-3411,3418,-2321,3419,3420,3421,3422],[-2317]],"id":"DE.BY.09177000.09177120","properties":{"hc-group":"admin3","hc-key":"de-by-09177000-09177120","hc-a2":"FR","name":"Fraunberg","hc-middle-lon":11.953,"hc-middle-lat":48.36}},{"type":"Polygon","arcs":[[-3423,3423,3424,3425,3426,-3412]],"id":"DE.BY.09177000.09177113","properties":{"hc-group":"admin3","hc-key":"de-by-09177000-09177113","hc-a2":"BO","name":"Bockhorn","hc-middle-lon":11.999,"hc-middle-lat":48.309}},{"type":"Polygon","arcs":[[3427,1067,1068,1069,3428,3429,3430]],"id":"DE.BY.09277000.09277134","properties":{"hc-group":"admin3","hc-key":"de-by-09277000-09277134","hc-a2":"MI","name":"Mitterskirchen","hc-middle-lon":12.725,"hc-middle-lat":48.348}},{"type":"Polygon","arcs":[[-3428,3431,3432,3433,3434,1066]],"id":"DE.BY.09277000.09277153","properties":{"hc-group":"admin3","hc-key":"de-by-09277000-09277153","hc-a2":"WU","name":"Wurmannsquick","hc-middle-lon":12.856,"hc-middle-lat":48.358}},{"type":"Polygon","arcs":[[3435,3436,3437,3438,-1301,3439,3440]],"id":"DE.BY.09183000.09183140","properties":{"hc-group":"admin3","hc-key":"de-by-09183000-09183140","hc-a2":"RE","name":"Reichertsheim","hc-middle-lon":12.218,"hc-middle-lat":48.168}},{"type":"Polygon","arcs":[[-3436,3441,3442,3443,3444,3445]],"id":"DE.BY.09183000.09183113","properties":{"hc-group":"admin3","hc-key":"de-by-09183000-09183113","hc-a2":"AA","name":"Aschau a. Inn","hc-middle-lon":12.356,"hc-middle-lat":48.195}},{"type":"Polygon","arcs":[[3446,3447,3448,3449,3450,3451]],"id":"DE.BY.09183000.09183124","properties":{"hc-group":"admin3","hc-key":"de-by-09183000-09183124","hc-a2":"KA","name":"Kraiburg a. Inn","hc-middle-lon":12.399,"hc-middle-lat":48.171}},{"type":"Polygon","arcs":[[-3447,3452,3453,-3445,3454]],"id":"DE.BY.09183000.09183122","properties":{"hc-group":"admin3","hc-key":"de-by-09183000-09183122","hc-a2":"JE","name":"Jettenbach","hc-middle-lon":12.375,"hc-middle-lat":48.163}},{"type":"Polygon","arcs":[[-3453,-3452,3455,810,-1457,-1456,3456]],"id":"DE.BY.09183000.09183147","properties":{"hc-group":"admin3","hc-key":"de-by-09183000-09183147","hc-a2":"UN","name":"Unterreit","hc-middle-lon":12.337,"hc-middle-lat":48.127}},{"type":"Polygon","arcs":[[3457,3458,3459,3460,3461]],"id":"DE.BY.09275000.09275111","properties":{"hc-group":"admin3","hc-key":"de-by-09275000-09275111","hc-a2":"AV","name":"Aicha vorm Wald","hc-middle-lon":13.309,"hc-middle-lat":48.683}},{"type":"Polygon","arcs":[[-3458,3462,980,3463,3464,3465]],"id":"DE.BY.09275000.09275159","properties":{"hc-group":"admin3","hc-key":"de-by-09275000-09275159","hc-a2":"WI","name":"Windorf","hc-middle-lon":13.24,"hc-middle-lat":48.661}},{"type":"Polygon","arcs":[[3466,3467,3468,-1578,3469,3470]],"id":"DE.BY.09175000.09175112","properties":{"hc-group":"admin3","hc-key":"de-by-09175000-09175112","hc-a2":"Aß","name":"Aßling","hc-middle-lon":11.99,"hc-middle-lat":47.999}},{"type":"Polygon","arcs":[[-3467,3471,3472,3473]],"id":"DE.BY.09175000.09175122","properties":{"hc-group":"admin3","hc-key":"de-by-09175000-09175122","hc-a2":"GB","name":"Grafing b. München","hc-middle-lon":11.979,"hc-middle-lat":48.038}},{"type":"Polygon","arcs":[[841,3474,1798,1799,-1795,-1794,3475,3476]],"id":"DE.BY.09184000.09184130","properties":{"hc-group":"admin3","hc-key":"de-by-09184000-09184130","hc-a2":"IS","name":"Ismaning","hc-middle-lon":11.705,"hc-middle-lat":48.237}},{"type":"Polygon","arcs":[[-3477,3477,840]],"id":"DE.BY.09184000.09184147","properties":{"hc-group":"admin3","hc-key":"de-by-09184000-09184147","hc-a2":"UN","name":"Unterföhring","hc-middle-lon":11.659,"hc-middle-lat":48.194}},{"type":"Polygon","arcs":[[-2604,1481,1482,3478,3479,3480,3481]],"id":"DE.BY.09773000.09773188","properties":{"hc-group":"admin3","hc-key":"de-by-09773000-09773188","hc-a2":"ZU","name":"Zusamaltheim","hc-middle-lon":10.632,"hc-middle-lat":48.528}},{"type":"Polygon","arcs":[[3482,3483,-3019,-3018]],"id":"DE.BY.09178000.09178142","properties":{"hc-group":"admin3","hc-key":"de-by-09178000-09178142","hc-a2":"MA","name":"Mauern","hc-middle-lon":11.898,"hc-middle-lat":48.53}},{"type":"Polygon","arcs":[[-3483,-3017,3484,3485,3486,3487,3488]],"id":"DE.BY.09178000.09178144","properties":{"hc-group":"admin3","hc-key":"de-by-09178000-09178144","hc-a2":"NA","name":"Nandlstadt","hc-middle-lon":11.811,"hc-middle-lat":48.533}},{"type":"Polygon","arcs":[[3489,3490,3491,-825,-824,-823,1487]],"id":"DE.BY.09475000.09475189","properties":{"hc-group":"admin3","hc-key":"de-by-09475000-09475189","hc-a2":"ZI","name":"Zell im Fichtelgebirge","hc-middle-lon":11.866,"hc-middle-lat":50.13}},{"type":"Polygon","arcs":[[-3490,1488,950,951,-1650,3492]],"id":"DE.BY.09475000.09475175","properties":{"hc-group":"admin3","hc-key":"de-by-09475000-09475175","hc-a2":"ST","name":"Stammbach","hc-middle-lon":11.701,"hc-middle-lat":50.144}},{"type":"Polygon","arcs":[[-952,3493,3494,3495,3496,3497,3498]],"id":"DE.BY.09477000.09477163","properties":{"hc-group":"admin3","hc-key":"de-by-09477000-09477163","hc-a2":"WI","name":"Wirsberg","hc-middle-lon":11.614,"hc-middle-lat":50.116}},{"type":"Polygon","arcs":[[3499,3500,3501,1763,3502,1765,3503]],"id":"DE.BY.09574000.09574129","properties":{"hc-group":"admin3","hc-key":"de-by-09574000-09574129","hc-a2":"HA","name":"Hartenstein","hc-middle-lon":11.464,"hc-middle-lat":49.58}},{"type":"Polygon","arcs":[[-3500,3504,3505,3506,-2592,-2598,-1081,3507]],"id":"DE.BY.09574000.09574135","properties":{"hc-group":"admin3","hc-key":"de-by-09574000-09574135","hc-a2":"KI","name":"Kirchensittenbach","hc-middle-lon":11.423,"hc-middle-lat":49.571}},{"type":"Polygon","arcs":[[838,3508,3509,1585,3510]],"id":"DE.BY.09184000.09184118","properties":{"hc-group":"admin3","hc-key":"de-by-09184000-09184118","hc-a2":"FE","name":"Feldkirchen","hc-middle-lon":11.731,"hc-middle-lat":48.146}},{"type":"Polygon","arcs":[[3511,3512,-1467,-1466,-1465,3513]],"id":"DE.BY.09777000.09777114","properties":{"hc-group":"admin3","hc-key":"de-by-09777000-09777114","hc-a2":"BA","name":"Baisweil","hc-middle-lon":10.543,"hc-middle-lat":47.95}},{"type":"Polygon","arcs":[[-3512,3514,-158,3515,3516]],"id":"DE.BY.09777000.09777139","properties":{"hc-group":"admin3","hc-key":"de-by-09777000-09777139","hc-a2":"IR","name":"Irsee","hc-middle-lon":10.564,"hc-middle-lat":47.909}},{"type":"Polygon","arcs":[[-1612,-1613,-966,-968,-967,-975,-974,-973,-972,-971,-970,-969]],"id":"DE.BY.09161000.09161000","properties":{"hc-group":"admin3","hc-key":"de-by-09161000-09161000","hc-a2":"IN","name":"Ingolstadt","hc-middle-lon":11.392,"hc-middle-lat":48.769}},{"type":"Polygon","arcs":[[1611,3517,3518,-1615,-1614]],"id":"DE.BY.09176000.09176129","properties":{"hc-group":"admin3","hc-key":"de-by-09176000-09176129","hc-a2":"GR","name":"Großmehring","hc-middle-lon":11.54,"hc-middle-lat":48.78}},{"type":"Polygon","arcs":[[1141,-2039,-2038,3519,1159,1140]],"id":"DE.BY.09184000.09184141","properties":{"hc-group":"admin3","hc-key":"de-by-09184000-09184141","hc-a2":"SA","name":"Sauerlach","hc-middle-lon":11.667,"hc-middle-lat":47.975}},{"type":"Polygon","arcs":[[-1142,3520,-2032,3521,3522,-1144,-1143],[-2027]],"id":"DE.BY.09173000.09173120","properties":{"hc-group":"admin3","hc-key":"de-by-09173000-09173120","hc-a2":"EG","name":"Egling","hc-middle-lon":11.479,"hc-middle-lat":47.947}},{"type":"Polygon","arcs":[[974,-1854,3523]],"id":"DE.BY.09176000.09176122","properties":{"hc-group":"admin3","hc-key":"de-by-09176000-09176122","hc-a2":"EG","name":"Egweil","hc-middle-lon":11.219,"hc-middle-lat":48.784}},{"type":"Polygon","arcs":[[-2042,3524,3525,3526,-2034]],"id":"DE.BY.09184000.09184454","properties":{"hc-group":"admin3","hc-key":"de-by-09184000-09184454","hc-a2":"GF","name":"Grünwalder Forst","hc-middle-lon":11.567,"hc-middle-lat":48.041}},{"type":"Polygon","arcs":[[3527,3528,3529,-2958,3530,3531,3532,3533,3534,-1560,381]],"id":"DE.BY.09180000.09180114","properties":{"hc-group":"admin3","hc-key":"de-by-09180000-09180114","hc-a2":"ES","name":"Eschenlohe","hc-middle-lon":11.195,"hc-middle-lat":47.587}},{"type":"Polygon","arcs":[[-382,1559,885,3535,3536,3537,1563]],"id":"DE.BY.09173000.09173133","properties":{"hc-group":"admin3","hc-key":"de-by-09173000-09173133","hc-a2":"KA","name":"Kochel a. See","hc-middle-lon":11.365,"hc-middle-lat":47.628}},{"type":"Polygon","arcs":[[235,-2716,3538,3539]],"id":"DE.BY.09676000.09676118","properties":{"hc-group":"admin3","hc-key":"de-by-09676000-09676118","hc-a2":"DO","name":"Dorfprozelten","hc-middle-lon":9.367,"hc-middle-lat":49.793}},{"type":"Polygon","arcs":[[-2738,-3296,3540,3541]],"id":"DE.BY.09671000.09671138","properties":{"hc-group":"admin3","hc-key":"de-by-09671000-09671138","hc-a2":"KR","name":"Krombach","hc-middle-lon":9.195,"hc-middle-lat":50.084}},{"type":"Polygon","arcs":[[3542,3543,3544,-151]],"id":"DE.BY.09471000.09471137","properties":{"hc-group":"admin3","hc-key":"de-by-09471000-09471137","hc-a2":"GU","name":"Gundelsheim","hc-middle-lon":10.923,"hc-middle-lat":49.936}},{"type":"Polygon","arcs":[[-3543,-150,3545,3546,3547,3548]],"id":"DE.BY.09471000.09471140","properties":{"hc-group":"admin3","hc-key":"de-by-09471000-09471140","hc-a2":"HA","name":"Hallstadt","hc-middle-lon":10.871,"hc-middle-lat":49.93}},{"type":"Polygon","arcs":[[3549,3550,3551,3552,-1189]],"id":"DE.BY.09677000.09677149","properties":{"hc-group":"admin3","hc-key":"de-by-09677000-09677149","hc-a2":"KA","name":"Karsbach","hc-middle-lon":9.79,"hc-middle-lat":50.063}},{"type":"Polygon","arcs":[[-3550,-1188,-2174,3553,3554]],"id":"DE.BY.09677000.09677127","properties":{"hc-group":"admin3","hc-key":"de-by-09677000-09677127","hc-a2":"EU","name":"Eußenheim","hc-middle-lon":9.844,"hc-middle-lat":50.01}},{"type":"Polygon","arcs":[[-2047,-3188,3555,-1087,3556],[-2043]],"id":"DE.BY.09671000.09671141","properties":{"hc-group":"admin3","hc-key":"de-by-09671000-09671141","hc-a2":"ME","name":"Mespelbrunn","hc-middle-lon":9.299,"hc-middle-lat":49.917}},{"type":"Polygon","arcs":[[484,485,486,487,3557,3558,-3344]],"id":"DE.BY.09679000.09679177","properties":{"hc-group":"admin3","hc-key":"de-by-09679000-09679177","hc-a2":"RE","name":"Remlingen","hc-middle-lon":9.689,"hc-middle-lat":49.811}},{"type":"Polygon","arcs":[[-3121,-3149,3559,-3150,3560,3561,3562]],"id":"DE.BY.09677000.09677170","properties":{"hc-group":"admin3","hc-key":"de-by-09677000-09677170","hc-a2":"PA","name":"Partenstein","hc-middle-lon":9.514,"hc-middle-lat":50.042}},{"type":"MultiPolygon","arcs":[[[-3563,3563,3564,3565,-3133,3566,-3137,3567,-3122]],[[-3135,3568,3569,3570,3571,3572,3573]]],"id":"DE.BY.09677000.09677463","properties":{"hc-group":"admin3","hc-key":"de-by-09677000-09677463","hc-a2":"RF","name":"Ruppertshüttener Forst","hc-middle-lon":9.57,"hc-middle-lat":50.085}},{"type":"Polygon","arcs":[[-3083,3574,3575,3576,-671,-670,-669,-668]],"id":"DE.BY.09775000.09775454","properties":{"hc-group":"admin3","hc-key":"de-by-09775000-09775454","hc-a2":"SF","name":"Stoffenrieder Forst","hc-middle-lon":10.261,"hc-middle-lat":48.32}},{"type":"Polygon","arcs":[[-1103,3577,3578]],"id":"DE.BY.09271000.09271126","properties":{"hc-group":"admin3","hc-key":"de-by-09271000-09271126","hc-a2":"HU","name":"Hunding","hc-middle-lon":13.175,"hc-middle-lat":48.846}},{"type":"MultiPolygon","arcs":[[[-2709,3579,-2079,3580,3581,-2073,3582,-2520,3583,-2068,-2705],[-2053],[-2054],[-2055],[-2056],[-2057],[-2058],[-2388]],[[2400,2400,2400]]],"id":"DE.BY.09272000.09272455","properties":{"hc-group":"admin3","hc-key":"de-by-09272000-09272455","hc-a2":"LW","name":"Leopoldsreuter Wald","hc-middle-lon":13.719,"hc-middle-lat":48.843}},{"type":"Polygon","arcs":[[-3037,-77,3584]],"id":"DE.BY.09374000.09374154","properties":{"hc-group":"admin3","hc-key":"de-by-09374000-09374154","hc-a2":"SC","name":"Schirmitz","hc-middle-lon":12.18,"hc-middle-lat":49.647}},{"type":"Polygon","arcs":[[545,546,3585,3586,3587,3588,3589]],"id":"DE.BY.09275000.09275128","properties":{"hc-group":"admin3","hc-key":"de-by-09275000-09275128","hc-a2":"HU","name":"Hutthurm","hc-middle-lon":13.485,"hc-middle-lat":48.688}},{"type":"Polygon","arcs":[[-546,-545,-3257,3590]],"id":"DE.BY.09272000.09272119","properties":{"hc-group":"admin3","hc-key":"de-by-09272000-09272119","hc-a2":"FÜ","name":"Fürsteneck","hc-middle-lon":13.457,"hc-middle-lat":48.737}},{"type":"MultiPolygon","arcs":[[[3591,-1421,3592]],[[3593,3594,-1427,-1426,3595]]],"id":"DE.BY.09779000.09779187","properties":{"hc-group":"admin3","hc-key":"de-by-09779000-09779187","hc-a2":"MÜ","name":"Münster","hc-middle-lon":10.909,"hc-middle-lat":48.619}},{"type":"Polygon","arcs":[[-3592,3596,-3594,3597,-1987,-1986]],"id":"DE.BY.09779000.09779163","properties":{"hc-group":"admin3","hc-key":"de-by-09779000-09779163","hc-a2":"HO","name":"Holzheim","hc-middle-lon":10.956,"hc-middle-lat":48.622}},{"type":"Polygon","arcs":[[1986,1987,-1994,-1993,-1992,3598,3599,3600,3601,3602,3603,1434,3604]],"id":"DE.BY.09771000.09771156","properties":{"hc-group":"admin3","hc-key":"de-by-09771000-09771156","hc-a2":"PÖ","name":"Pöttmes","hc-middle-lon":11.08,"hc-middle-lat":48.595}},{"type":"Polygon","arcs":[[-1424,-1423,3605,3606,3607,3608]],"id":"DE.BY.09779000.09779196","properties":{"hc-group":"admin3","hc-key":"de-by-09779000-09779196","hc-a2":"OA","name":"Oberndorf a. Lech","hc-middle-lon":10.86,"hc-middle-lat":48.662}},{"type":"Polygon","arcs":[[-3608,3609,3610,3611,3612,3613,3614]],"id":"DE.BY.09779000.09779149","properties":{"hc-group":"admin3","hc-key":"de-by-09779000-09779149","hc-a2":"GE","name":"Genderkingen","hc-middle-lon":10.865,"hc-middle-lat":48.71}},{"type":"Polygon","arcs":[[-3368,482,1805,3615,3616]],"id":"DE.BY.09479000.09479147","properties":{"hc-group":"admin3","hc-key":"de-by-09479000-09479147","hc-a2":"SC","name":"Schirnding","hc-middle-lon":12.235,"hc-middle-lat":50.073}},{"type":"Polygon","arcs":[[1961,3617,3618,3619]],"id":"DE.BY.09186000.09186130","properties":{"hc-group":"admin3","hc-key":"de-by-09186000-09186130","hc-a2":"IL","name":"Ilmmünster","hc-middle-lon":11.505,"hc-middle-lat":48.482}},{"type":"Polygon","arcs":[[107,108,109,110,111,112,113,114]],"id":"DE.BY.09464000.09464000","properties":{"hc-group":"admin3","hc-key":"de-by-09464000-09464000","hc-a2":"HO","name":"Hof","hc-middle-lon":11.934,"hc-middle-lat":50.334}},{"type":"Polygon","arcs":[[-108,3620,3621,272,3622]],"id":"DE.BY.09475000.09475123","properties":{"hc-group":"admin3","hc-key":"de-by-09475000-09475123","hc-a2":"FE","name":"Feilitzsch","hc-middle-lon":11.943,"hc-middle-lat":50.41}},{"type":"Polygon","arcs":[[3623,3624,3625,3626,3627,3628]],"id":"DE.BY.09376000.09376122","properties":{"hc-group":"admin3","hc-key":"de-by-09376000-09376122","hc-a2":"DI","name":"Dieterskirchen","hc-middle-lon":12.418,"hc-middle-lat":49.408}},{"type":"Polygon","arcs":[[-3624,3629,747,3630]],"id":"DE.BY.09376000.09376172","properties":{"hc-group":"admin3","hc-key":"de-by-09376000-09376172","hc-a2":"TH","name":"Thanstein","hc-middle-lon":12.461,"hc-middle-lat":49.391}},{"type":"Polygon","arcs":[[230,788,3631,3632,3633]],"id":"DE.BY.09189000.09189141","properties":{"hc-group":"admin3","hc-key":"de-by-09189000-09189141","hc-a2":"SC","name":"Schleching","hc-middle-lon":12.362,"hc-middle-lat":47.695}},{"type":"MultiPolygon","arcs":[[[3634,3635,3636,3637,1571,3638]],[[3639,3640]]],"id":"DE.BY.09778000.09778177","properties":{"hc-group":"admin3","hc-key":"de-by-09778000-09778177","hc-a2":"NI","name":"Niederrieden","hc-middle-lon":10.2,"hc-middle-lat":48.057}},{"type":"Polygon","arcs":[[-3635,3641,394,3642,3643]],"id":"DE.BY.09778000.09778139","properties":{"hc-group":"admin3","hc-key":"de-by-09778000-09778139","hc-a2":"FE","name":"Fellheim","hc-middle-lon":10.152,"hc-middle-lat":48.077}},{"type":"Polygon","arcs":[[-3639,1572,393,-3642]],"id":"DE.BY.09778000.09778150","properties":{"hc-group":"admin3","hc-key":"de-by-09778000-09778150","hc-a2":"HE","name":"Heimertingen","hc-middle-lon":10.166,"hc-middle-lat":48.037}},{"type":"Polygon","arcs":[[3644,3645,3646,3647,1273,1274,3648]],"id":"DE.BY.09774000.09774192","properties":{"hc-group":"admin3","hc-key":"de-by-09774000-09774192","hc-a2":"WA","name":"Waltenhausen","hc-middle-lon":10.347,"hc-middle-lat":48.183}},{"type":"Polygon","arcs":[[-3645,3649,3650,3651,3652,3653,3654]],"id":"DE.BY.09774000.09774451","properties":{"hc-group":"admin3","hc-key":"de-by-09774000-09774451","hc-a2":"EN","name":"Ebershauser-Nattenhauser Wald","hc-middle-lon":10.334,"hc-middle-lat":48.212}},{"type":"Polygon","arcs":[[-3080,-677,-1287,3655]],"id":"DE.BY.09775000.09775452","properties":{"hc-group":"admin3","hc-key":"de-by-09775000-09775452","hc-a2":"OW","name":"Oberroggenburger Wald","hc-middle-lon":10.255,"hc-middle-lat":48.238}},{"type":"Polygon","arcs":[[3656,3657,-351,-2302,3658,3659,3660]],"id":"DE.BY.09775000.09775129","properties":{"hc-group":"admin3","hc-key":"de-by-09775000-09775129","hc-a2":"IL","name":"Illertissen","hc-middle-lon":10.118,"hc-middle-lat":48.229}},{"type":"Polygon","arcs":[[-3657,3661,-1285,3662,3663]],"id":"DE.BY.09775000.09775161","properties":{"hc-group":"admin3","hc-key":"de-by-09775000-09775161","hc-a2":"UN","name":"Unterroth","hc-middle-lon":10.191,"hc-middle-lat":48.195}},{"type":"Polygon","arcs":[[295,-3333,297,3664,3665,3666]],"id":"DE.BY.09679000.09679182","properties":{"hc-group":"admin3","hc-key":"de-by-09679000-09679182","hc-a2":"RÖ","name":"Röttingen","hc-middle-lon":9.965,"hc-middle-lat":49.518}},{"type":"Polygon","arcs":[[-3035,3667,3668,-2580,3669,-1210,-1209]],"id":"DE.BY.09376000.09376159","properties":{"hc-group":"admin3","hc-key":"de-by-09376000-09376159","hc-a2":"SC","name":"Schmidgaden","hc-middle-lon":12.07,"hc-middle-lat":49.449}},{"type":"Polygon","arcs":[[3670,3671,3672,-2607,3673]],"id":"DE.BY.09772000.09772126","properties":{"hc-group":"admin3","hc-key":"de-by-09772000-09772126","hc-a2":"BO","name":"Bonstetten","hc-middle-lon":10.718,"hc-middle-lat":48.441}},{"type":"Polygon","arcs":[[-3671,3674,3675,3676,-1429,1040,3677,3678,3679]],"id":"DE.BY.09772000.09772147","properties":{"hc-group":"admin3","hc-key":"de-by-09772000-09772147","hc-a2":"GE","name":"Gersthofen","hc-middle-lon":10.814,"hc-middle-lat":48.43}},{"type":"Polygon","arcs":[[186,3680,3681]],"id":"DE.BY.09172000.09172118","properties":{"hc-group":"admin3","hc-key":"de-by-09172000-09172118","hc-a2":"FR","name":"Freilassing","hc-middle-lon":12.975,"hc-middle-lat":47.847}},{"type":"Polygon","arcs":[[3682,3683,-3659,-2301]],"id":"DE.BY.09775000.09775115","properties":{"hc-group":"admin3","hc-key":"de-by-09775000-09775115","hc-a2":"BE","name":"Bellenberg","hc-middle-lon":10.096,"hc-middle-lat":48.263}},{"type":"Polygon","arcs":[[-3683,-2300,213,3684,3685]],"id":"DE.BY.09775000.09775162","properties":{"hc-group":"admin3","hc-key":"de-by-09775000-09775162","hc-a2":"VÖ","name":"Vöhringen","hc-middle-lon":10.084,"hc-middle-lat":48.287}},{"type":"Polygon","arcs":[[3686,3687,3688,3689,3690]],"id":"DE.BY.09278000.09278171","properties":{"hc-group":"admin3","hc-key":"de-by-09278000-09278171","hc-a2":"PE","name":"Perasdorf","hc-middle-lon":12.811,"hc-middle-lat":48.956}},{"type":"Polygon","arcs":[[-3687,3691,-1679,-1372,-1371,3692,3693]],"id":"DE.BY.09278000.09278187","properties":{"hc-group":"admin3","hc-key":"de-by-09278000-09278187","hc-a2":"SC","name":"Schwarzach","hc-middle-lon":12.848,"hc-middle-lat":48.927}},{"type":"Polygon","arcs":[[-3693,-1370,3694,-1367,3695,3696]],"id":"DE.BY.09278000.09278159","properties":{"hc-group":"admin3","hc-key":"de-by-09278000-09278159","hc-a2":"NI","name":"Niederwinkling","hc-middle-lon":12.791,"hc-middle-lat":48.871}},{"type":"Polygon","arcs":[[473,3697,3698,3699]],"id":"DE.BY.09779000.09779177","properties":{"hc-group":"admin3","hc-key":"de-by-09779000-09779177","hc-a2":"MA","name":"Marktoffingen","hc-middle-lon":10.472,"hc-middle-lat":48.929}},{"type":"Polygon","arcs":[[456,3700,3701,3702,3703]],"id":"DE.BY.09673000.09673129","properties":{"hc-group":"admin3","hc-key":"de-by-09673000-09673129","hc-a2":"HA","name":"Hausen","hc-middle-lon":10.044,"hc-middle-lat":50.495}},{"type":"Polygon","arcs":[[201,3704,3705,3706,3707,-2429]],"id":"DE.BY.09776000.09776126","properties":{"hc-group":"admin3","hc-key":"de-by-09776000-09776126","hc-a2":"SI","name":"Sigmarszell","hc-middle-lon":9.739,"hc-middle-lat":47.573}},{"type":"Polygon","arcs":[[-1246,3708,3709,3710,-1233,-1232,-1231]],"id":"DE.BY.09780000.09780119","properties":{"hc-group":"admin3","hc-key":"de-by-09780000-09780119","hc-a2":"DI","name":"Dietmannsried","hc-middle-lon":10.265,"hc-middle-lat":47.837}},{"type":"Polygon","arcs":[[3711,3712,3713,3714,-2868,-2867,3715,3716]],"id":"DE.BY.09575000.09575153","properties":{"hc-group":"admin3","hc-key":"de-by-09575000-09575153","hc-a2":"NA","name":"Neustadt a.d. Aisch","hc-middle-lon":10.566,"hc-middle-lat":49.57}},{"type":"Polygon","arcs":[[-3712,3717,3718,-1125,3719,-1123,-1122,-1121,1747,1748,3720,1750,1751,3721]],"id":"DE.BY.09575000.09575121","properties":{"hc-group":"admin3","hc-key":"de-by-09575000-09575121","hc-a2":"EM","name":"Emskirchen","hc-middle-lon":10.728,"hc-middle-lat":49.549}},{"type":"Polygon","arcs":[[-3719,3722,3723,3724,-1127,-1126]],"id":"DE.BY.09575000.09575125","properties":{"hc-group":"admin3","hc-key":"de-by-09575000-09575125","hc-a2":"GE","name":"Gerhardshofen","hc-middle-lon":10.712,"hc-middle-lat":49.619}},{"type":"Polygon","arcs":[[-3707,3725,208,3726,3727]],"id":"DE.BY.09776000.09776115","properties":{"hc-group":"admin3","hc-key":"de-by-09776000-09776115","hc-a2":"HE","name":"Hergensweiler","hc-middle-lon":9.753,"hc-middle-lat":47.597}},{"type":"Polygon","arcs":[[-1748,1697,3728,3729,3730]],"id":"DE.BY.09573000.09573124","properties":{"hc-group":"admin3","hc-key":"de-by-09573000-09573124","hc-a2":"PU","name":"Puschendorf","hc-middle-lon":10.828,"hc-middle-lat":49.527}},{"type":"Polygon","arcs":[[-1845,-1844,3731,3732,3733,-1830]],"id":"DE.BY.09472000.09472115","properties":{"hc-group":"admin3","hc-key":"de-by-09472000-09472115","hc-a2":"AU","name":"Aufseß","hc-middle-lon":11.201,"hc-middle-lat":49.879}},