{"type":"Topology","objects":{"default":{"type":"GeometryCollection","geometries":[{"type":"MultiPolygon","arcs":[[[119,1042,1043,1044]],[[121,1045]]],"id":"DE.BW.08136000.08136071","properties":{"hc-group":"admin3","hc-key":"de-bw-08136000-08136071","hc-a2":"TA","name":"Tannhausen","hc-middle-lon":10.383,"hc-middle-lat":48.983}},{"type":"Polygon","arcs":[[132,1046,1047,488]],"id":"DE.BW.08215000.08215102","properties":{"hc-group":"admin3","hc-key":"de-bw-08215000-08215102","hc-a2":"EL","name":"Eggenstein-Leopoldshafen","hc-middle-lon":8.371,"hc-middle-lat":49.117}},{"type":"Polygon","arcs":[[144,-577,1048,1049]],"id":"DE.BW.08216000.08216002","properties":{"hc-group":"admin3","hc-key":"de-bw-08216000-08216002","hc-a2":"AA","name":"Au am Rhein","hc-middle-lon":8.204,"hc-middle-lat":48.943}},{"type":"MultiPolygon","arcs":[[[1050]],[[1051,1052,1053],[1054]]],"id":"DE.BW.08117000.08117020","properties":{"hc-group":"admin3","hc-key":"de-bw-08117000-08117020","hc-a2":"ES","name":"Eschenbach","hc-middle-lon":9.674,"hc-middle-lat":48.661}},{"type":"MultiPolygon","arcs":[[[-1055]],[[-1052,1055,1056,1057,1058,1059],[-1051]]],"id":"DE.BW.08117000.08117030","properties":{"hc-group":"admin3","hc-key":"de-bw-08117000-08117030","hc-a2":"HE","name":"Heiningen","hc-middle-lon":9.682,"hc-middle-lat":48.638}},{"type":"Polygon","arcs":[[88,1060,1061,1062,1063]],"id":"DE.BW.08337000.08337066","properties":{"hc-group":"admin3","hc-key":"de-bw-08337000-08337066","hc-a2":"L(","name":"Laufenburg (Baden)","hc-middle-lon":8.103,"hc-middle-lat":47.574}},{"type":"Polygon","arcs":[[-294,1064,1065,1066,1067,1068]],"id":"DE.BW.08225000.08225082","properties":{"hc-group":"admin3","hc-key":"de-bw-08225000-08225082","hc-a2":"RO","name":"Rosenberg","hc-middle-lon":9.445,"hc-middle-lat":49.461}},{"type":"Polygon","arcs":[[293,296,1069,1070,1071,295]],"id":"DE.BW.08128000.08128138","properties":{"hc-group":"admin3","hc-key":"de-bw-08128000-08128138","hc-a2":"AH","name":"Ahorn","hc-middle-lon":9.543,"hc-middle-lat":49.476}},{"type":"Polygon","arcs":[[-296,-295,-628,-627,1072,1073,-1065]],"id":"DE.BW.08225000.08225114","properties":{"hc-group":"admin3","hc-key":"de-bw-08225000-08225114","hc-a2":"RA","name":"Ravenstein","hc-middle-lon":9.538,"hc-middle-lat":49.408}},{"type":"Polygon","arcs":[[-300,-605,1074,1075,189]],"id":"DE.BW.08335000.08335080","properties":{"hc-group":"admin3","hc-key":"de-bw-08335000-08335080","hc-a2":"TE","name":"Tengen","hc-middle-lon":8.634,"hc-middle-lat":47.76}},{"type":"Polygon","arcs":[[299,70,290,291,1076,597]],"id":"DE.BW.08326000.08326005","properties":{"hc-group":"admin3","hc-key":"de-bw-08326000-08326005","hc-a2":"BL","name":"Blumberg","hc-middle-lon":8.557,"hc-middle-lat":47.85}},{"type":"Polygon","arcs":[[1077,1078,1079,1080,1081,1082]],"id":"DE.BW.08317000.08317047","properties":{"hc-group":"admin3","hc-key":"de-bw-08317000-08317047","hc-a2":"HO","name":"Hohberg","hc-middle-lon":7.878,"hc-middle-lat":48.413}},{"type":"Polygon","arcs":[[-1078,1083,1084,1085]],"id":"DE.BW.08317000.08317122","properties":{"hc-group":"admin3","hc-key":"de-bw-08317000-08317122","hc-a2":"SC","name":"Schutterwald","hc-middle-lon":7.894,"hc-middle-lat":48.451}},{"type":"Polygon","arcs":[[1086,224]],"id":"DE.BW.08226000.08226040","properties":{"hc-group":"admin3","hc-key":"de-bw-08226000-08226040","hc-a2":"LA","name":"Laudenbach","hc-middle-lon":8.646,"hc-middle-lat":49.609}},{"type":"Polygon","arcs":[[-1087,225,1087,148]],"id":"DE.BW.08226000.08226031","properties":{"hc-group":"admin3","hc-key":"de-bw-08226000-08226031","hc-a2":"HE","name":"Hemsbach","hc-middle-lon":8.645,"hc-middle-lat":49.594}},{"type":"Polygon","arcs":[[140,1088,1089,1090,142,1091,532,1092,1093]],"id":"DE.BW.08226000.08226009","properties":{"hc-group":"admin3","hc-key":"de-bw-08226000-08226009","hc-a2":"BR","name":"Brühl","hc-middle-lon":8.474,"hc-middle-lat":49.384}},{"type":"MultiPolygon","arcs":[[[1094]],[[1095,1096,1097,1098,-468,-467,1099,1100,1101]]],"id":"DE.BW.08326000.08326006","properties":{"hc-group":"admin3","hc-key":"de-bw-08326000-08326006","hc-a2":"BR","name":"Bräunlingen","hc-middle-lon":8.418,"hc-middle-lat":47.93}},{"type":"Polygon","arcs":[[1102,1103,1104,85,-339]],"id":"DE.BW.08426000.08426117","properties":{"hc-group":"admin3","hc-key":"de-bw-08426000-08426117","hc-a2":"TA","name":"Tannheim","hc-middle-lon":10.119,"hc-middle-lat":48.022}},{"type":"Polygon","arcs":[[-1103,-338,-337,1105,1106,1107,1108]],"id":"DE.BW.08426000.08426100","properties":{"hc-group":"admin3","hc-key":"de-bw-08426000-08426100","hc-a2":"RA","name":"Rot an der Rot","hc-middle-lon":9.989,"hc-middle-lat":48.003}},{"type":"MultiPolygon","arcs":[[[1109]],[[1110,1111,1112,-977,-657,-656,1113,1114]],[[1115,1116]],[[1117,1118,1119,762]]],"id":"DE.BW.08426000.08426097","properties":{"hc-group":"admin3","hc-key":"de-bw-08426000-08426097","hc-a2":"RI","name":"Riedlingen","hc-middle-lon":9.462,"hc-middle-lat":48.19}},{"type":"Polygon","arcs":[[-1079,-1086,1120,1121,1122,1123,1124,1125,1126,1127,1128,1129]],"id":"DE.BW.08317000.08317096","properties":{"hc-group":"admin3","hc-key":"de-bw-08317000-08317096","hc-a2":"OF","name":"Offenburg","hc-middle-lon":7.956,"hc-middle-lat":48.504}},{"type":"Polygon","arcs":[[188,-1076,1130,1131,1132,1133,1134]],"id":"DE.BW.08335000.08335035","properties":{"hc-group":"admin3","hc-key":"de-bw-08335000-08335035","hc-a2":"HI","name":"Hilzingen","hc-middle-lon":8.724,"hc-middle-lat":47.788}},{"type":"Polygon","arcs":[[101,1135,1136,1137]],"id":"DE.BW.08436000.08436003","properties":{"hc-group":"admin3","hc-key":"de-bw-08436000-08436003","hc-a2":"AI","name":"Aichstetten","hc-middle-lon":10.086,"hc-middle-lat":47.892}},{"type":"Polygon","arcs":[[86,-1138,1138,337,338]],"id":"DE.BW.08436000.08436004","properties":{"hc-group":"admin3","hc-key":"de-bw-08436000-08436004","hc-a2":"AI","name":"Aitrach","hc-middle-lon":10.091,"hc-middle-lat":47.947}},{"type":"MultiPolygon","arcs":[[[15]],[[16]],[[17,18,19,20,21,22,23,24,25,26,27,28,29,30],[-5],[-6],[-7]],[[31,32]]],"id":"DE.BW.08211000.08211000","properties":{"hc-group":"admin3","hc-key":"de-bw-08211000-08211000","hc-a2":"BB","name":"Baden-Baden","hc-middle-lon":8.234,"hc-middle-lat":48.762}},{"type":"MultiPolygon","arcs":[[[1139]],[[1140]],[[1141]],[[-22,1142]],[[-20,1143]],[[1144,1145,1146]]],"id":"DE.BW.08216000.08216008","properties":{"hc-group":"admin3","hc-key":"de-bw-08216000-08216008","hc-a2":"BÜ","name":"Bühlertal","hc-middle-lon":8.212,"hc-middle-lat":48.663}},{"type":"Polygon","arcs":[[-18,1147,1148,-614,-622,-621,300,301,1149,-1146,1150]],"id":"DE.BW.08216000.08216013","properties":{"hc-group":"admin3","hc-key":"de-bw-08216000-08216013","hc-a2":"FO","name":"Forbach","hc-middle-lon":8.324,"hc-middle-lat":48.647}},{"type":"Polygon","arcs":[[1151,-272,1152,485,1153]],"id":"DE.BW.08215000.08215101","properties":{"hc-group":"admin3","hc-key":"de-bw-08215000-08215101","hc-a2":"PF","name":"Pfinztal","hc-middle-lon":8.536,"hc-middle-lat":48.993}},{"type":"MultiPolygon","arcs":[[[-1152,1154,1155,1156,1157,55,-274,-273]],[[1158,1158,1158]]],"id":"DE.BW.08215000.08215089","properties":{"hc-group":"admin3","hc-key":"de-bw-08215000-08215089","hc-a2":"WA","name":"Walzbachtal","hc-middle-lon":8.602,"hc-middle-lat":49.017}},{"type":"Polygon","arcs":[[1159,524,1160]],"id":"DE.BW.08136000.08136050","properties":{"hc-group":"admin3","hc-key":"de-bw-08136000-08136050","hc-a2":"OB","name":"Oberkochen","hc-middle-lon":10.129,"hc-middle-lat":48.769}},{"type":"Polygon","arcs":[[-1160,1161,1162,1163,1164,1165,1166,1167,1168,1169,1170,1171,522,523],[1172]],"id":"DE.BW.08136000.08136088","properties":{"hc-group":"admin3","hc-key":"de-bw-08136000-08136088","hc-a2":"AA","name":"Aalen","hc-middle-lon":10.116,"hc-middle-lat":48.837}},{"type":"MultiPolygon","arcs":[[[1173]],[[1174,1175,1176,-344,1177,1178]]],"id":"DE.BW.08118000.08118053","properties":{"hc-group":"admin3","hc-key":"de-bw-08118000-08118053","hc-a2":"MU","name":"Mundelsheim","hc-middle-lon":9.221,"hc-middle-lat":49.004}},{"type":"MultiPolygon","arcs":[[[1179]],[[-655,1180,1181,-1114]]],"id":"DE.BW.08426000.08426121","properties":{"hc-group":"admin3","hc-key":"de-bw-08426000-08426121","hc-a2":"UN","name":"Unlingen","hc-middle-lon":9.586,"hc-middle-lat":48.17}},{"type":"MultiPolygon","arcs":[[[1182]],[[-799,789,790,1183,1184,1185,1186,1187,1188,1189]]],"id":"DE.BW.08335000.08335079","properties":{"hc-group":"admin3","hc-key":"de-bw-08335000-08335079","hc-a2":"ST","name":"Stockach","hc-middle-lon":9.031,"hc-middle-lat":47.845}},{"type":"MultiPolygon","arcs":[[[1190]],[[1191,1192,1193,1194]],[[1195,1196,1197,1198]],[[1199,1200]]],"id":"DE.BW.08326000.08326065","properties":{"hc-group":"admin3","hc-key":"de-bw-08326000-08326065","hc-a2":"UN","name":"Unterkirnach","hc-middle-lon":8.365,"hc-middle-lat":48.09}},{"type":"Polygon","arcs":[[67,1201,1202,1203,1204,1205,1206,1207,1208]],"id":"DE.BW.08337000.08337126","properties":{"hc-group":"admin3","hc-key":"de-bw-08337000-08337126","hc-a2":"WT","name":"Waldshut-Tiengen","hc-middle-lon":8.227,"hc-middle-lat":47.624}},{"type":"Polygon","arcs":[[194,1209,-1084,-1083,1210,1211]],"id":"DE.BW.08317000.08317151","properties":{"hc-group":"admin3","hc-key":"de-bw-08317000-08317151","hc-a2":"NE","name":"Neuried","hc-middle-lon":7.786,"hc-middle-lat":48.471}},{"type":"Polygon","arcs":[[974,975,948,1212,951,1213,1214,1215,-49,1216,1217,1218,-943]],"id":"DE.BW.08125000.08125006","properties":{"hc-group":"admin3","hc-key":"de-bw-08125000-08125006","hc-a2":"BR","name":"Bad Rappenau","hc-middle-lon":9.095,"hc-middle-lat":49.234}},{"type":"Polygon","arcs":[[-975,1219,1220,1221]],"id":"DE.BW.08226000.08226055","properties":{"hc-group":"admin3","hc-key":"de-bw-08226000-08226055","hc-a2":"NE","name":"Neckarbischofsheim","hc-middle-lon":9.019,"hc-middle-lat":49.277}},{"type":"MultiPolygon","arcs":[[[1222]],[[-1124,1223]],[[1224,-1122,1225,1226]]],"id":"DE.BW.08317000.08317141","properties":{"hc-group":"admin3","hc-key":"de-bw-08317000-08317141","hc-a2":"WI","name":"Willstätt","hc-middle-lon":7.893,"hc-middle-lat":48.551}},{"type":"MultiPolygon","arcs":[[[-1173]],[[1227,1228,1229,-1164,1230,1231,1232,1233,-250,1234,1235]]],"id":"DE.BW.08136000.08136002","properties":{"hc-group":"admin3","hc-key":"de-bw-08136000-08136002","hc-a2":"AB","name":"Abtsgmünd","hc-middle-lon":9.967,"hc-middle-lat":48.912}},{"type":"Polygon","arcs":[[152,1236,1237,1238,1239,1240,1241]],"id":"DE.BW.08425000.08425066","properties":{"hc-group":"admin3","hc-key":"de-bw-08425000-08425066","hc-a2":"IL","name":"Illerrieden","hc-middle-lon":10.056,"hc-middle-lat":48.255}},{"type":"MultiPolygon","arcs":[[[1242]],[[1243,1244,1245,1246,1247,1248]]],"id":"DE.BW.08425000.08425130","properties":{"hc-group":"admin3","hc-key":"de-bw-08425000-08425130","hc-a2":"WE","name":"Weidenstetten","hc-middle-lon":9.974,"hc-middle-lat":48.558}},{"type":"MultiPolygon","arcs":[[[1249]],[[1250]],[[-738,411,412,1251,414,415,1252,1253,1254,1255,1256,1257,-1035,1258,-384]]],"id":"DE.BW.08416000.08416036","properties":{"hc-group":"admin3","hc-key":"de-bw-08416000-08416036","hc-a2":"RA","name":"Rottenburg am Neckar","hc-middle-lon":8.925,"hc-middle-lat":48.467}},{"type":"MultiPolygon","arcs":[[[33]],[[1259,-931,1260]]],"id":"DE.BW.08116000.08116006","properties":{"hc-group":"admin3","hc-key":"de-bw-08116000-08116006","hc-a2":"AL","name":"Altenriet","hc-middle-lon":9.214,"hc-middle-lat":48.592}},{"type":"MultiPolygon","arcs":[[[34]],[[1261,1262,1263,1264,1265,1021,1022,1023,1266,1026,1267,980,981]],[[1028,1268]]],"id":"DE.BW.08415000.08415061","properties":{"hc-group":"admin3","hc-key":"de-bw-08415000-08415061","hc-a2":"RE","name":"Reutlingen","hc-middle-lon":9.171,"hc-middle-lat":48.457}},{"type":"MultiPolygon","arcs":[[[1269]],[[1270,1271,1272,1273,1274,1275]],[[1276,1277,-393]],[[1278,1279]]],"id":"DE.BW.08336000.08336103","properties":{"hc-group":"admin3","hc-key":"de-bw-08336000-08336103","hc-a2":"ZI","name":"Zell im Wiesental","hc-middle-lon":7.853,"hc-middle-lat":47.721}},{"type":"Polygon","arcs":[[1280,-267,-266,-265,-264,-1158,1281,1282,1283]],"id":"DE.BW.08215000.08215007","properties":{"hc-group":"admin3","hc-key":"de-bw-08215000-08215007","hc-a2":"BR","name":"Bretten","hc-middle-lon":8.741,"hc-middle-lat":49.062}},{"type":"Polygon","arcs":[[-1281,1284,1285,1286,-262,-261]],"id":"DE.BW.08215000.08215059","properties":{"hc-group":"admin3","hc-key":"de-bw-08215000-08215059","hc-a2":"OB","name":"Oberderdingen","hc-middle-lon":8.793,"hc-middle-lat":49.071}},{"type":"Polygon","arcs":[[260,1287,1288,1289,266]],"id":"DE.BW.08236000.08236033","properties":{"hc-group":"admin3","hc-key":"de-bw-08236000-08236033","hc-a2":"KN","name":"Knittlingen","hc-middle-lon":8.748,"hc-middle-lat":49.018}},{"type":"Polygon","arcs":[[1290,1291,1292,-675,-674,1293,1294,1295]],"id":"DE.BW.08125000.08125013","properties":{"hc-group":"admin3","hc-key":"de-bw-08125000-08125013","hc-a2":"BR","name":"Brackenheim","hc-middle-lon":9.06,"hc-middle-lat":49.082}},{"type":"Polygon","arcs":[[-1291,1296,1297,1298,-1217,-48,1299,1300]],"id":"DE.BW.08125000.08125086","properties":{"hc-group":"admin3","hc-key":"de-bw-08125000-08125086","hc-a2":"SC","name":"Schwaigern","hc-middle-lon":9.078,"hc-middle-lat":49.139}},{"type":"MultiPolygon","arcs":[[[4]],[[5]],[[6]],[[1301,-33,1302,1303,1304,1305,1306,-24]]],"id":"DE.BW.08216000.08216049","properties":{"hc-group":"admin3","hc-key":"de-bw-08216000-08216049","hc-a2":"SI","name":"Sinzheim","hc-middle-lon":8.138,"hc-middle-lat":48.763}},{"type":"Polygon","arcs":[[1307,1308,1309,1310,1311,1312,1313]],"id":"DE.BW.08317000.08317088","properties":{"hc-group":"admin3","hc-key":"de-bw-08317000-08317088","hc-a2":"OB","name":"Oberharmersbach","hc-middle-lon":8.152,"hc-middle-lat":48.384}},{"type":"Polygon","arcs":[[-1308,1314,1315,1316,1317]],"id":"DE.BW.08317000.08317085","properties":{"hc-group":"admin3","hc-key":"de-bw-08317000-08317085","hc-a2":"NO","name":"Nordrach","hc-middle-lon":8.108,"hc-middle-lat":48.413}},{"type":"MultiPolygon","arcs":[[[1318]],[[1319,1320,1321,1322,1323]]],"id":"DE.BW.08115000.08115024","properties":{"hc-group":"admin3","hc-key":"de-bw-08115000-08115024","hc-a2":"HO","name":"Holzgerlingen","hc-middle-lon":9.022,"hc-middle-lat":48.638}},{"type":"MultiPolygon","arcs":[[[8]],[[1324,1325,1326,1327,1328,1329,-312,-311,1330,1331,1332,1333]],[[1334,1335,1336,1337]],[[-301,1338]],[[1339,-309]]],"id":"DE.BW.08317000.08317001","properties":{"hc-group":"admin3","hc-key":"de-bw-08317000-08317001","hc-a2":"AC","name":"Achern","hc-middle-lon":8.045,"hc-middle-lat":48.633}},{"type":"MultiPolygon","arcs":[[[1340]],[[1341]],[[1342]],[[1343,1344,1345,1346,1347,1348,1349,1350,1351]],[[1352,1353,1354,1355]],[[1356,1357,1358]],[[-399,1359]],[[-396,1360]],[[38,38,38]]],"id":"DE.BW.08336000.08336079","properties":{"hc-group":"admin3","hc-key":"de-bw-08336000-08336079","hc-a2":"SI","name":"Schönau im Schwarzwald","hc-middle-lon":7.89,"hc-middle-lat":47.777}},{"type":"Polygon","arcs":[[1361,1362,1363,1364]],"id":"DE.BW.08315000.08315089","properties":{"hc-group":"admin3","hc-key":"de-bw-08315000-08315089","hc-a2":"PF","name":"Pfaffenweiler","hc-middle-lon":7.761,"hc-middle-lat":47.937}},{"type":"Polygon","arcs":[[1365,-1363,1366,1367,848,1368,1369,1364]],"id":"DE.BW.08315000.08315098","properties":{"hc-group":"admin3","hc-key":"de-bw-08315000-08315098","hc-a2":"SC","name":"Schallstadt","hc-middle-lon":7.733,"hc-middle-lat":47.962}},{"type":"Polygon","arcs":[[1370,1371,483]],"id":"DE.BW.08215000.08215110","properties":{"hc-group":"admin3","hc-key":"de-bw-08215000-08215110","hc-a2":"WA","name":"Waldbronn","hc-middle-lon":8.471,"hc-middle-lat":48.924}},{"type":"Polygon","arcs":[[-1371,484,-1153,-271,-270,-269,1372,1373]],"id":"DE.BW.08215000.08215096","properties":{"hc-group":"admin3","hc-key":"de-bw-08215000-08215096","hc-a2":"KA","name":"Karlsbad","hc-middle-lon":8.503,"hc-middle-lat":48.912}},{"type":"Polygon","arcs":[[172,1374,1375,1376,1377,170,1378]],"id":"DE.BW.08335000.08335043","properties":{"hc-group":"admin3","hc-key":"de-bw-08335000-08335043","hc-a2":"KO","name":"Konstanz","hc-middle-lon":9.199,"hc-middle-lat":47.68}},{"type":"Polygon","arcs":[[1379,1380]],"id":"DE.BW.08435000.08435010","properties":{"hc-group":"admin3","hc-key":"de-bw-08435000-08435010","hc-a2":"DA","name":"Daisendorf","hc-middle-lon":9.269,"hc-middle-lat":47.713}},{"type":"Polygon","arcs":[[-1380,1381,165,1382,1383,1384]],"id":"DE.BW.08435000.08435066","properties":{"hc-group":"admin3","hc-key":"de-bw-08435000-08435066","hc-a2":"UM","name":"Uhldingen-Mühlhofen","hc-middle-lon":9.261,"hc-middle-lat":47.721}},{"type":"Polygon","arcs":[[-1192,1385,1386,1387,-1100,-466,-465,1388,1389,1390]],"id":"DE.BW.08326000.08326068","properties":{"hc-group":"admin3","hc-key":"de-bw-08326000-08326068","hc-a2":"VÖ","name":"Vöhrenbach","hc-middle-lon":8.286,"hc-middle-lat":48.026}},{"type":"Polygon","arcs":[[-957,-956,-955,1391,1392,1393,1394,-958]],"id":"DE.BW.08225000.08225009","properties":{"hc-group":"admin3","hc-key":"de-bw-08225000-08225009","hc-a2":"BI","name":"Billigheim","hc-middle-lon":9.246,"hc-middle-lat":49.348}},{"type":"Polygon","arcs":[[956,1395,960,1396,1397,1398]],"id":"DE.BW.08125000.08125063","properties":{"hc-group":"admin3","hc-key":"de-bw-08125000-08125063","hc-a2":"MÖ","name":"Möckmühl","hc-middle-lon":9.347,"hc-middle-lat":49.328}},{"type":"Polygon","arcs":[[-996,856,1399,1400,1401,1402,-997]],"id":"DE.BW.08315000.08315132","properties":{"hc-group":"admin3","hc-key":"de-bw-08315000-08315132","hc-a2":"MA","name":"March","hc-middle-lon":7.752,"hc-middle-lat":48.076}},{"type":"Polygon","arcs":[[995,1403,1404,1405,-822,-829]],"id":"DE.BW.08316000.08316045","properties":{"hc-group":"admin3","hc-key":"de-bw-08316000-08316045","hc-a2":"VÖ","name":"Vörstetten","hc-middle-lon":7.858,"hc-middle-lat":48.062}},{"type":"Polygon","arcs":[[1406,1407,243,1408]],"id":"DE.BW.08316000.08316049","properties":{"hc-group":"admin3","hc-key":"de-bw-08316000-08316049","hc-a2":"WE","name":"Weisweil","hc-middle-lon":7.639,"hc-middle-lat":48.197}},{"type":"Polygon","arcs":[[-1407,1409,1410,1411,1412]],"id":"DE.BW.08316000.08316013","properties":{"hc-group":"admin3","hc-key":"de-bw-08316000-08316013","hc-a2":"FO","name":"Forchheim","hc-middle-lon":7.685,"hc-middle-lat":48.157}},{"type":"Polygon","arcs":[[1413,1414,534,-324,1415,-322]],"id":"DE.BW.08226000.08226063","properties":{"hc-group":"admin3","hc-key":"de-bw-08226000-08226063","hc-a2":"PL","name":"Plankstadt","hc-middle-lon":8.596,"hc-middle-lat":49.398}},{"type":"Polygon","arcs":[[-1414,-321,1416,1417,1418,1419]],"id":"DE.BW.08226000.08226062","properties":{"hc-group":"admin3","hc-key":"de-bw-08226000-08226062","hc-a2":"OF","name":"Oftersheim","hc-middle-lon":8.573,"hc-middle-lat":49.375}},{"type":"Polygon","arcs":[[208,1420,1421,1422,206,1423]],"id":"DE.BW.08128000.08128137","properties":{"hc-group":"admin3","hc-key":"de-bw-08128000-08128137","hc-a2":"WI","name":"Wittighausen","hc-middle-lon":9.832,"hc-middle-lat":49.609}},{"type":"Polygon","arcs":[[1424,1425,1426,1427,1428,1429,1430]],"id":"DE.BW.08226000.08226095","properties":{"hc-group":"admin3","hc-key":"de-bw-08226000-08226095","hc-a2":"WA","name":"Walldorf","hc-middle-lon":8.604,"hc-middle-lat":49.313}},{"type":"Polygon","arcs":[[-1425,1431,-1417,-320,1432]],"id":"DE.BW.08226000.08226076","properties":{"hc-group":"admin3","hc-key":"de-bw-08226000-08226076","hc-a2":"SA","name":"Sandhausen","hc-middle-lon":8.651,"hc-middle-lat":49.34}},{"type":"Polygon","arcs":[[1433,1434,1435,1436,1437,1438,1439]],"id":"DE.BW.08127000.08127032","properties":{"hc-group":"admin3","hc-key":"de-bw-08127000-08127032","hc-a2":"GE","name":"Gerabronn","hc-middle-lon":9.892,"hc-middle-lat":49.227}},{"type":"Polygon","arcs":[[-1434,1440,1441,1442,1443,1444]],"id":"DE.BW.08127000.08127046","properties":{"hc-group":"admin3","hc-key":"de-bw-08127000-08127046","hc-a2":"KA","name":"Kirchberg an der Jagst","hc-middle-lon":10.014,"hc-middle-lat":49.209}},{"type":"Polygon","arcs":[[-1412,1445,1446,1000,1447,1448]],"id":"DE.BW.08316000.08316012","properties":{"hc-group":"admin3","hc-key":"de-bw-08316000-08316012","hc-a2":"EA","name":"Endingen am Kaiserstuhl","hc-middle-lon":7.682,"hc-middle-lat":48.135}},{"type":"Polygon","arcs":[[1449,1450,1451,1452,1453]],"id":"DE.BW.08327000.08327010","properties":{"hc-group":"admin3","hc-key":"de-bw-08327000-08327010","hc-a2":"DE","name":"Denkingen","hc-middle-lon":8.767,"hc-middle-lat":48.122}},{"type":"Polygon","arcs":[[-1450,1454,507,508,1455]],"id":"DE.BW.08327000.08327017","properties":{"hc-group":"admin3","hc-key":"de-bw-08327000-08327017","hc-a2":"FR","name":"Frittlingen","hc-middle-lon":8.715,"hc-middle-lat":48.129}},{"type":"Polygon","arcs":[[-1455,-1454,1456,1457,505,506]],"id":"DE.BW.08327000.08327002","properties":{"hc-group":"admin3","hc-key":"de-bw-08327000-08327002","hc-a2":"AL","name":"Aldingen","hc-middle-lon":8.668,"hc-middle-lat":48.111}},{"type":"Polygon","arcs":[[480,-848,1458,1459,612]],"id":"DE.BW.08437000.08437102","properties":{"hc-group":"admin3","hc-key":"de-bw-08437000-08437102","hc-a2":"SC","name":"Schwenningen","hc-middle-lon":8.957,"hc-middle-lat":48.102}},{"type":"Polygon","arcs":[[-481,470,471,472,473,1460,1461]],"id":"DE.BW.08417000.08417045","properties":{"hc-group":"admin3","hc-key":"de-bw-08417000-08417045","hc-a2":"NU","name":"Nusplingen","hc-middle-lon":8.929,"hc-middle-lat":48.108}},{"type":"Polygon","arcs":[[244,-821,-820,1462,1463,-1409]],"id":"DE.BW.08316000.08316053","properties":{"hc-group":"admin3","hc-key":"de-bw-08316000-08316053","hc-a2":"RH","name":"Rheinhausen","hc-middle-lon":7.695,"hc-middle-lat":48.25}},{"type":"Polygon","arcs":[[214,1464,-1439,1465,714,1466]],"id":"DE.BW.08127000.08127008","properties":{"hc-group":"admin3","hc-key":"de-bw-08127000-08127008","hc-a2":"BL","name":"Blaufelden","hc-middle-lon":9.982,"hc-middle-lat":49.301}},{"type":"Polygon","arcs":[[-315,1467,1468,1469,231,232,1470]],"id":"DE.BW.08226000.08226080","properties":{"hc-group":"admin3","hc-key":"de-bw-08226000-08226080","hc-a2":"SC","name":"Schönau","hc-middle-lon":8.812,"hc-middle-lat":49.472}},{"type":"Polygon","arcs":[[314,315,316,317,318,319,320,321,322,323,-329,324,325,326,327]],"id":"DE.BW.08221000.08221000","properties":{"hc-group":"admin3","hc-key":"de-bw-08221000-08221000","hc-a2":"HE","name":"Heidelberg","hc-middle-lon":8.688,"hc-middle-lat":49.403}},{"type":"Polygon","arcs":[[1471,1472,1473,1474,1475]],"id":"DE.BW.08226000.08226101","properties":{"hc-group":"admin3","hc-key":"de-bw-08226000-08226101","hc-a2":"ZU","name":"Zuzenhausen","hc-middle-lon":8.792,"hc-middle-lat":49.291}},{"type":"Polygon","arcs":[[-1472,1476,1477,1478,1479,1480,1481,1482]],"id":"DE.BW.08226000.08226049","properties":{"hc-group":"admin3","hc-key":"de-bw-08226000-08226049","hc-a2":"ME","name":"Meckesheim","hc-middle-lon":8.849,"hc-middle-lat":49.342}},{"type":"Polygon","arcs":[[1483,1484,1485,-1215]],"id":"DE.BW.08125000.08125079","properties":{"hc-group":"admin3","hc-key":"de-bw-08125000-08125079","hc-a2":"OF","name":"Offenau","hc-middle-lon":9.172,"hc-middle-lat":49.247}},{"type":"Polygon","arcs":[[-1484,-1214,952,953,954,1486,1487]],"id":"DE.BW.08125000.08125039","properties":{"hc-group":"admin3","hc-key":"de-bw-08125000-08125039","hc-a2":"GU","name":"Gundelsheim","hc-middle-lon":9.185,"hc-middle-lat":49.29}},{"type":"Polygon","arcs":[[1488,1489,1490,1491,-372,-371,1492]],"id":"DE.BW.08127000.08127062","properties":{"hc-group":"admin3","hc-key":"de-bw-08127000-08127062","hc-a2":"OB","name":"Oberrot","hc-middle-lon":9.65,"hc-middle-lat":49.022}},{"type":"Polygon","arcs":[[-1489,1493,1494,707,708,1495,1496,1497,1498,1499,1500,1501,1502]],"id":"DE.BW.08127000.08127076","properties":{"hc-group":"admin3","hc-key":"de-bw-08127000-08127076","hc-a2":"SH","name":"Schwäbisch Hall","hc-middle-lon":9.802,"hc-middle-lat":49.104}},{"type":"Polygon","arcs":[[89,1503,1504,-1061]],"id":"DE.BW.08337000.08337076","properties":{"hc-group":"admin3","hc-key":"de-bw-08337000-08337076","hc-a2":"MU","name":"Murg","hc-middle-lon":8.024,"hc-middle-lat":47.564}},{"type":"Polygon","arcs":[[1505,1506,1507,-1187,1508]],"id":"DE.BW.08335000.08335099","properties":{"hc-group":"admin3","hc-key":"de-bw-08335000-08335099","hc-a2":"ON","name":"Orsingen-Nenzingen","hc-middle-lon":8.962,"hc-middle-lat":47.847}},{"type":"Polygon","arcs":[[-1506,1509,1510,1511,1512]],"id":"DE.BW.08335000.08335081","properties":{"hc-group":"admin3","hc-key":"de-bw-08335000-08335081","hc-a2":"VO","name":"Volkertshausen","hc-middle-lon":8.871,"hc-middle-lat":47.822}},{"type":"Polygon","arcs":[[-1067,1513,1514,1515,1516,81,1517]],"id":"DE.BW.08225000.08225014","properties":{"hc-group":"admin3","hc-key":"de-bw-08225000-08225014","hc-a2":"B(","name":"Buchen (Odenwald)","hc-middle-lon":9.332,"hc-middle-lat":49.52}},{"type":"Polygon","arcs":[[-1516,1518,1519,1520,1521,1522,1523,1524]],"id":"DE.BW.08225000.08225052","properties":{"hc-group":"admin3","hc-key":"de-bw-08225000-08225052","hc-a2":"LI","name":"Limbach","hc-middle-lon":9.194,"hc-middle-lat":49.475}},{"type":"Polygon","arcs":[[-1522,1525,1526]],"id":"DE.BW.08225000.08225024","properties":{"hc-group":"admin3","hc-key":"de-bw-08225000-08225024","hc-a2":"FA","name":"Fahrenbach","hc-middle-lon":9.157,"hc-middle-lat":49.438}},{"type":"Polygon","arcs":[[-1108,1527,1528,1529,1530]],"id":"DE.BW.08426000.08426043","properties":{"hc-group":"admin3","hc-key":"de-bw-08426000-08426043","hc-a2":"ER","name":"Erlenmoos","hc-middle-lon":10.032,"hc-middle-lat":48.07}},{"type":"Polygon","arcs":[[855,1531,1532,1533,1534,1535,773,1536]],"id":"DE.BW.08315000.08315084","properties":{"hc-group":"admin3","hc-key":"de-bw-08315000-08315084","hc-a2":"OB","name":"Oberried","hc-middle-lon":7.977,"hc-middle-lat":47.915}},{"type":"Polygon","arcs":[[-856,-855,-854,-853,-852,-851,-850,-849,-862,-861,-860,-859,-858,-857,828,-833,-832,-831,-830]],"id":"DE.BW.08311000.08311000","properties":{"hc-group":"admin3","hc-key":"de-bw-08311000-08311000","hc-a2":"FI","name":"Freiburg im Breisgau","hc-middle-lon":7.839,"hc-middle-lat":48.002}},{"type":"Polygon","arcs":[[852,1537,1538,1539]],"id":"DE.BW.08315000.08315056","properties":{"hc-group":"admin3","hc-key":"de-bw-08315000-08315056","hc-a2":"HO","name":"Horben","hc-middle-lon":7.855,"hc-middle-lat":47.93}},{"type":"MultiPolygon","arcs":[[[1540,1541,1542,1543]],[[1544,1545]],[[1546,1547,345,346,347,1548,1549,1550,1551]]],"id":"DE.BW.08119000.08119079","properties":{"hc-group":"admin3","hc-key":"de-bw-08119000-08119079","hc-a2":"WA","name":"Waiblingen","hc-middle-lon":9.292,"hc-middle-lat":48.835}},{"type":"Polygon","arcs":[[-1541,1552,1553,-1545,1554,1555,1556,1557]],"id":"DE.BW.08119000.08119090","properties":{"hc-group":"admin3","hc-key":"de-bw-08119000-08119090","hc-a2":"RE","name":"Remshalden","hc-middle-lon":9.435,"hc-middle-lat":48.816}},{"type":"Polygon","arcs":[[-1557,1558,-289,-288,1559]],"id":"DE.BW.08119000.08119086","properties":{"hc-group":"admin3","hc-key":"de-bw-08119000-08119086","hc-a2":"WI","name":"Winterbach","hc-middle-lon":9.474,"hc-middle-lat":48.796}},{"type":"Polygon","arcs":[[854,-1537,774,775,776,777,778,1560,1561,1562,1563,1564]],"id":"DE.BW.08315000.08315130","properties":{"hc-group":"admin3","hc-key":"de-bw-08315000-08315130","hc-a2":"MÜ","name":"Münstertal/Schwarzwald","hc-middle-lon":7.828,"hc-middle-lat":47.852}},{"type":"Polygon","arcs":[[-1564,1565,1566,-1367,-1362,1567]],"id":"DE.BW.08315000.08315131","properties":{"hc-group":"admin3","hc-key":"de-bw-08315000-08315131","hc-a2":"EH","name":"Ehrenkirchen","hc-middle-lon":7.786,"hc-middle-lat":47.896}},{"type":"Polygon","arcs":[[-1473,-1483,1568,1569,1570,1571]],"id":"DE.BW.08226000.08226020","properties":{"hc-group":"admin3","hc-key":"de-bw-08226000-08226020","hc-a2":"ES","name":"Eschelbronn","hc-middle-lon":8.863,"hc-middle-lat":49.318}},{"type":"Polygon","arcs":[[209,1572,1573,1574,-1071,1575,1576,1577,-1421]],"id":"DE.BW.08128000.08128139","properties":{"hc-group":"admin3","hc-key":"de-bw-08128000-08128139","hc-a2":"LK","name":"Lauda-Königshofen","hc-middle-lon":9.731,"hc-middle-lat":49.556}},{"type":"Polygon","arcs":[[957,958,959,-1396]],"id":"DE.BW.08125000.08125084","properties":{"hc-group":"admin3","hc-key":"de-bw-08125000-08125084","hc-a2":"RO","name":"Roigheim","hc-middle-lon":9.334,"hc-middle-lat":49.361}},{"type":"Polygon","arcs":[[-1547,1578,-688,-687,896,1579]],"id":"DE.BW.08119000.08119093","properties":{"hc-group":"admin3","hc-key":"de-bw-08119000-08119093","hc-a2":"KI","name":"Kernen im Remstal","hc-middle-lon":9.329,"hc-middle-lat":48.791}},{"type":"Polygon","arcs":[[139,-1094,1580,1581]],"id":"DE.BW.08226000.08226037","properties":{"hc-group":"admin3","hc-key":"de-bw-08226000-08226037","hc-a2":"KE","name":"Ketsch","hc-middle-lon":8.525,"hc-middle-lat":49.369}},{"type":"Polygon","arcs":[[167,-793,1582]],"id":"DE.BW.08435000.08435053","properties":{"hc-group":"admin3","hc-key":"de-bw-08435000-08435053","hc-a2":"SI","name":"Sipplingen","hc-middle-lon":9.1,"hc-middle-lat":47.801}},{"type":"Polygon","arcs":[[547,548,1583,-1429,1584,1585,1586,546]],"id":"DE.BW.08226000.08226103","properties":{"hc-group":"admin3","hc-key":"de-bw-08226000-08226103","hc-a2":"SL","name":"St. Leon-Rot","hc-middle-lon":8.581,"hc-middle-lat":49.273}},{"type":"Polygon","arcs":[[-548,1587,1588]],"id":"DE.BW.08215000.08215039","properties":{"hc-group":"admin3","hc-key":"de-bw-08215000-08215039","hc-a2":"KR","name":"Kronau","hc-middle-lon":8.618,"hc-middle-lat":49.226}},{"type":"Polygon","arcs":[[-485,-484,-483,-482,107,-489,-488,-487,-486]],"id":"DE.BW.08212000.08212000","properties":{"hc-group":"admin3","hc-key":"de-bw-08212000-08212000","hc-a2":"KA","name":"Karlsruhe","hc-middle-lon":8.394,"hc-middle-lat":49.007}},{"type":"Polygon","arcs":[[1589,1590,1591,1592,1593,1594,1595,1596,1597]],"id":"DE.BW.08437000.08437065","properties":{"hc-group":"admin3","hc-key":"de-bw-08437000-08437065","hc-a2":"KR","name":"Krauchenwies","hc-middle-lon":9.237,"hc-middle-lat":48.005}},{"type":"Polygon","arcs":[[-1590,1598,1599,1600,1601,1602]],"id":"DE.BW.08437000.08437078","properties":{"hc-group":"admin3","hc-key":"de-bw-08437000-08437078","hc-a2":"ME","name":"Meßkirch","hc-middle-lon":9.121,"hc-middle-lat":48.009}},{"type":"Polygon","arcs":[[1603,1604,1605,1606,1607,1608,1609,1610,1611]],"id":"DE.BW.08118000.08118078","properties":{"hc-group":"admin3","hc-key":"de-bw-08118000-08118078","hc-a2":"FA","name":"Freiberg am Neckar","hc-middle-lon":9.222,"hc-middle-lat":48.934}},{"type":"MultiPolygon","arcs":[[[1612,1613,1614,-1175,1615,1616,-1612]],[[-1604,1603,1617]]],"id":"DE.BW.08118000.08118077","properties":{"hc-group":"admin3","hc-key":"de-bw-08118000-08118077","hc-a2":"IN","name":"Ingersheim","hc-middle-lon":9.181,"hc-middle-lat":48.969}},{"type":"MultiPolygon","arcs":[[[-1546,-1554,1618,1619,1620,1621,1622,-1555]],[[1623,1624]]],"id":"DE.BW.08119000.08119089","properties":{"hc-group":"admin3","hc-key":"de-bw-08119000-08119089","hc-a2":"BE","name":"Berglen","hc-middle-lon":9.505,"hc-middle-lat":48.85}},{"type":"Polygon","arcs":[[-959,-1395,1625,-1520,1626,1627]],"id":"DE.BW.08225000.08225115","properties":{"hc-group":"admin3","hc-key":"de-bw-08225000-08225115","hc-a2":"SC","name":"Schefflenz","hc-middle-lon":9.292,"hc-middle-lat":49.402}},{"type":"Polygon","arcs":[[-1524,1628,1629,1630,-964,1631]],"id":"DE.BW.08225000.08225118","properties":{"hc-group":"admin3","hc-key":"de-bw-08225000-08225118","hc-a2":"WA","name":"Waldbrunn","hc-middle-lon":9.073,"hc-middle-lat":49.451}},{"type":"Polygon","arcs":[[57,1632,1633,1634,1635]],"id":"DE.BW.08337000.08337124","properties":{"hc-group":"admin3","hc-key":"de-bw-08337000-08337124","hc-a2":"EG","name":"Eggingen","hc-middle-lon":8.388,"hc-middle-lat":47.703}},{"type":"Polygon","arcs":[[-1633,58,1636,64,1637,1638,1639,1640]],"id":"DE.BW.08337000.08337062","properties":{"hc-group":"admin3","hc-key":"de-bw-08337000-08337062","hc-a2":"KL","name":"Klettgau","hc-middle-lon":8.43,"hc-middle-lat":47.634}},{"type":"Polygon","arcs":[[-496,-495,-494,-493,-492,-491,-490,-497,-502,-501,-500,-499,-498]],"id":"DE.BW.08231000.08231000","properties":{"hc-group":"admin3","hc-key":"de-bw-08231000-08231000","hc-a2":"PF","name":"Pforzheim","hc-middle-lon":8.715,"hc-middle-lat":48.873}},{"type":"Polygon","arcs":[[495,1641,1642,1643,264,1644,1645]],"id":"DE.BW.08236000.08236073","properties":{"hc-group":"admin3","hc-key":"de-bw-08236000-08236073","hc-a2":"NE","name":"Neulingen","hc-middle-lon":8.716,"hc-middle-lat":48.964}},{"type":"Polygon","arcs":[[91,386,387,388,389,1646,1647,1648]],"id":"DE.BW.08337000.08337116","properties":{"hc-group":"admin3","hc-key":"de-bw-08337000-08337116","hc-a2":"WE","name":"Wehr","hc-middle-lon":7.911,"hc-middle-lat":47.606}},{"type":"Polygon","arcs":[[-389,1649]],"id":"DE.BW.08336000.08336034","properties":{"hc-group":"admin3","hc-key":"de-bw-08336000-08336034","hc-a2":"HA","name":"Hasel","hc-middle-lon":7.888,"hc-middle-lat":47.645}},{"type":"Polygon","arcs":[[1650,1651,832,821,822]],"id":"DE.BW.08315000.08315047","properties":{"hc-group":"admin3","hc-key":"de-bw-08315000-08315047","hc-a2":"GU","name":"Gundelfingen","hc-middle-lon":7.886,"hc-middle-lat":48.035}},{"type":"Polygon","arcs":[[-1651,823,1652]],"id":"DE.BW.08315000.08315051","properties":{"hc-group":"admin3","hc-key":"de-bw-08315000-08315051","hc-a2":"HE","name":"Heuweiler","hc-middle-lon":7.902,"hc-middle-lat":48.044}},{"type":"Polygon","arcs":[[836,1653,1654,1655,835]],"id":"DE.BW.08417000.08417078","properties":{"hc-group":"admin3","hc-key":"de-bw-08417000-08417078","hc-a2":"ZU","name":"Zimmern unter der Burg","hc-middle-lon":8.719,"hc-middle-lat":48.221}},{"type":"Polygon","arcs":[[-837,1656,1657,1658,1007]],"id":"DE.BW.08325000.08325011","properties":{"hc-group":"admin3","hc-key":"de-bw-08325000-08325011","hc-a2":"DI","name":"Dietingen","hc-middle-lon":8.637,"hc-middle-lat":48.21}},{"type":"Polygon","arcs":[[1659,-601,-600,1660,-1188,-1508,1661,1662],[-1183]],"id":"DE.BW.08335000.08335021","properties":{"hc-group":"admin3","hc-key":"de-bw-08335000-08335021","hc-a2":"EI","name":"Eigeltingen","hc-middle-lon":8.957,"hc-middle-lat":47.891}},{"type":"Polygon","arcs":[[-1660,1663,-1131,-1075,-604,-603,-602]],"id":"DE.BW.08335000.08335022","properties":{"hc-group":"admin3","hc-key":"de-bw-08335000-08335022","hc-a2":"EN","name":"Engen","hc-middle-lon":8.779,"hc-middle-lat":47.865}},{"type":"MultiPolygon","arcs":[[[-508,-507,1664,1665,1666,-1657,-836,-835,1667]],[[1668,1669,1670]]],"id":"DE.BW.08325000.08325049","properties":{"hc-group":"admin3","hc-key":"de-bw-08325000-08325049","hc-a2":"RO","name":"Rottweil","hc-middle-lon":8.653,"hc-middle-lat":48.17}},{"type":"Polygon","arcs":[[1671,1672,-1576,-1070,297]],"id":"DE.BW.08128000.08128061","properties":{"hc-group":"admin3","hc-key":"de-bw-08128000-08128061","hc-a2":"KÖ","name":"Königheim","hc-middle-lon":9.564,"hc-middle-lat":49.595}},{"type":"Polygon","arcs":[[-1672,298,200,1673,1674,1675]],"id":"DE.BW.08128000.08128064","properties":{"hc-group":"admin3","hc-key":"de-bw-08128000-08128064","hc-a2":"KÜ","name":"Külsheim","hc-middle-lon":9.505,"hc-middle-lat":49.676}},{"type":"Polygon","arcs":[[-1675,1676,204,1677,1678]],"id":"DE.BW.08128000.08128128","properties":{"hc-group":"admin3","hc-key":"de-bw-08128000-08128128","hc-a2":"WE","name":"Werbach","hc-middle-lon":9.642,"hc-middle-lat":49.686}},{"type":"Polygon","arcs":[[294,-1072,-1575,1679,1680,540]],"id":"DE.BW.08128000.08128014","properties":{"hc-group":"admin3","hc-key":"de-bw-08128000-08128014","hc-a2":"BO","name":"Boxberg","hc-middle-lon":9.637,"hc-middle-lat":49.492}},{"type":"Polygon","arcs":[[1681,-950,-949,-974,1682]],"id":"DE.BW.08225000.08225042","properties":{"hc-group":"admin3","hc-key":"de-bw-08225000-08225042","hc-a2":"HÜ","name":"Hüffenhardt","hc-middle-lon":9.079,"hc-middle-lat":49.302}},{"type":"Polygon","arcs":[[-1682,1683,1684,1685,-953,-952,-951]],"id":"DE.BW.08225000.08225033","properties":{"hc-group":"admin3","hc-key":"de-bw-08225000-08225033","hc-a2":"HA","name":"Haßmersheim","hc-middle-lon":9.121,"hc-middle-lat":49.307}},{"type":"Polygon","arcs":[[950,-1213,949]],"id":"DE.BW.08125000.08125087","properties":{"hc-group":"admin3","hc-key":"de-bw-08125000-08125087","hc-a2":"SI","name":"Siegelsbach","hc-middle-lon":9.088,"hc-middle-lat":49.269}},{"type":"Polygon","arcs":[[63,-1637,59,1686]],"id":"DE.BW.08337000.08337030","properties":{"hc-group":"admin3","hc-key":"de-bw-08337000-08337030","hc-a2":"DE","name":"Dettighofen","hc-middle-lon":8.523,"hc-middle-lat":47.64}},{"type":"Polygon","arcs":[[-1640,1687,-1208,1688]],"id":"DE.BW.08337000.08337065","properties":{"hc-group":"admin3","hc-key":"de-bw-08337000-08337065","hc-a2":"LA","name":"Lauchringen","hc-middle-lon":8.298,"hc-middle-lat":47.633}},{"type":"Polygon","arcs":[[160,1689,1690,1691]],"id":"DE.BW.08336000.08336043","properties":{"hc-group":"admin3","hc-key":"de-bw-08336000-08336043","hc-a2":"IN","name":"Inzlingen","hc-middle-lon":7.705,"hc-middle-lat":47.588}},{"type":"Polygon","arcs":[[-1690,161,1692,1693,1694,1695,1696,1697,1698,1699]],"id":"DE.BW.08336000.08336050","properties":{"hc-group":"admin3","hc-key":"de-bw-08336000-08336050","hc-a2":"LÖ","name":"Lörrach","hc-middle-lon":7.677,"hc-middle-lat":47.631}},{"type":"Polygon","arcs":[[-1642,497,1700,1701]],"id":"DE.BW.08236000.08236030","properties":{"hc-group":"admin3","hc-key":"de-bw-08236000-08236030","hc-a2":"IS","name":"Ispringen","hc-middle-lon":8.676,"hc-middle-lat":48.927}},{"type":"MultiPolygon","arcs":[[[1702,1703,1704,642,643,1705,1706,1707,1708,1709,1710,-666,-665,1711,1712,1713,1714,1715]],[[1716,1717,639,640,1718]]],"id":"DE.BW.08425000.08425033","properties":{"hc-group":"admin3","hc-key":"de-bw-08425000-08425033","hc-a2":"E(","name":"Ehingen (Donau)","hc-middle-lon":9.638,"hc-middle-lat":48.285}},{"type":"MultiPolygon","arcs":[[[-1716,1719,1720,1721,1722]],[[1723,-1714]]],"id":"DE.BW.08425000.08425004","properties":{"hc-group":"admin3","hc-key":"de-bw-08425000-08425004","hc-a2":"AL","name":"Altheim","hc-middle-lon":9.775,"hc-middle-lat":48.332}},{"type":"MultiPolygon","arcs":[[[1724,-1345,1725,-1352,-1357,1726,1727,-1273,1728,1729,1730,1731,-1347]],[[38,38,38]],[[38,38,38]],[[38,38,38]]],"id":"DE.BW.08336000.08336025","properties":{"hc-group":"admin3","hc-key":"de-bw-08336000-08336025","hc-a2":"FR","name":"Fröhnd","hc-middle-lon":7.862,"hc-middle-lat":47.78}},{"type":"MultiPolygon","arcs":[[[-1725,-1346]],[[-1726,-1344]],[[-1730,1732,1733]]],"id":"DE.BW.08336000.08336094","properties":{"hc-group":"admin3","hc-key":"de-bw-08336000-08336094","hc-a2":"WE","name":"Wembach","hc-middle-lon":7.884,"hc-middle-lat":47.773}},{"type":"Polygon","arcs":[[1734,1735,1736,1737,1738]],"id":"DE.BW.08316000.08316011","properties":{"hc-group":"admin3","hc-key":"de-bw-08316000-08316011","hc-a2":"EM","name":"Emmendingen","hc-middle-lon":7.892,"hc-middle-lat":48.121}},{"type":"Polygon","arcs":[[-1735,1739,-1405,1740]],"id":"DE.BW.08316000.08316036","properties":{"hc-group":"admin3","hc-key":"de-bw-08316000-08316036","hc-a2":"RE","name":"Reute","hc-middle-lon":7.821,"hc-middle-lat":48.087}},{"type":"Polygon","arcs":[[-1411,1741,1742,1743,1744,-1446]],"id":"DE.BW.08316000.08316037","properties":{"hc-group":"admin3","hc-key":"de-bw-08316000-08316037","hc-a2":"RA","name":"Riegel am Kaiserstuhl","hc-middle-lon":7.742,"hc-middle-lat":48.155}},{"type":"Polygon","arcs":[[1745,1746,-475,-474,1747]],"id":"DE.BW.08327000.08327040","properties":{"hc-group":"admin3","hc-key":"de-bw-08327000-08327040","hc-a2":"RA","name":"Reichenbach am Heuberg","hc-middle-lon":8.844,"hc-middle-lat":48.137}},{"type":"Polygon","arcs":[[-1746,1748,1749,1750,1751,1752]],"id":"DE.BW.08327000.08327007","properties":{"hc-group":"admin3","hc-key":"de-bw-08327000-08327007","hc-a2":"BU","name":"Bubsheim","hc-middle-lon":8.823,"hc-middle-lat":48.119}},{"type":"Polygon","arcs":[[-1749,-1748,-473,1753,1754]],"id":"DE.BW.08327000.08327013","properties":{"hc-group":"admin3","hc-key":"de-bw-08327000-08327013","hc-a2":"EG","name":"Egesheim","hc-middle-lon":8.865,"hc-middle-lat":48.11}},{"type":"Polygon","arcs":[[1755,1756,1757,909,1758,490]],"id":"DE.BW.08236000.08236062","properties":{"hc-group":"admin3","hc-key":"de-bw-08236000-08236062","hc-a2":"TI","name":"Tiefenbronn","hc-middle-lon":8.807,"hc-middle-lat":48.822}},{"type":"Polygon","arcs":[[-1756,491,1759,1760,1761,1762,1763]],"id":"DE.BW.08236000.08236067","properties":{"hc-group":"admin3","hc-key":"de-bw-08236000-08236067","hc-a2":"WI","name":"Wimsheim","hc-middle-lon":8.812,"hc-middle-lat":48.854}},{"type":"Polygon","arcs":[[1764,-742,1765]],"id":"DE.BW.08237000.08237072","properties":{"hc-group":"admin3","hc-key":"de-bw-08237000-08237072","hc-a2":"WÖ","name":"Wörnersberg","hc-middle-lon":8.564,"hc-middle-lat":48.561}},{"type":"Polygon","arcs":[[-1765,1766,1767,748,749]],"id":"DE.BW.08237000.08237032","properties":{"hc-group":"admin3","hc-key":"de-bw-08237000-08237032","hc-a2":"GR","name":"Grömbach","hc-middle-lon":8.55,"hc-middle-lat":48.575}},{"type":"Polygon","arcs":[[1768,1769,362,-368,366,688,1770,1771]],"id":"DE.BW.08119000.08119069","properties":{"hc-group":"admin3","hc-key":"de-bw-08119000-08119069","hc-a2":"SP","name":"Spiegelberg","hc-middle-lon":9.446,"hc-middle-lat":49.043}},{"type":"Polygon","arcs":[[-1769,1772,1773,1774]],"id":"DE.BW.08119000.08119053","properties":{"hc-group":"admin3","hc-key":"de-bw-08119000-08119053","hc-a2":"OP","name":"Oppenweiler","hc-middle-lon":9.457,"hc-middle-lat":48.996}},{"type":"Polygon","arcs":[[1775,1776,1777,-893,-892]],"id":"DE.BW.08425000.08425112","properties":{"hc-group":"admin3","hc-key":"de-bw-08425000-08425112","hc-a2":"SE","name":"Setzingen","hc-middle-lon":10.117,"hc-middle-lat":48.547}},{"type":"Polygon","arcs":[[-1776,-891,1778,1779,1780]],"id":"DE.BW.08425000.08425092","properties":{"hc-group":"admin3","hc-key":"de-bw-08425000-08425092","hc-a2":"ÖL","name":"Öllingen","hc-middle-lon":10.148,"hc-middle-lat":48.532}},{"type":"Polygon","arcs":[[1781,1782,1783,1784,-422,-421]],"id":"DE.BW.08115000.08115054","properties":{"hc-group":"admin3","hc-key":"de-bw-08115000-08115054","hc-a2":"GR","name":"Grafenau","hc-middle-lon":8.93,"hc-middle-lat":48.714}},{"type":"Polygon","arcs":[[-1782,-420,-419,-430,-911,-910,-909,1785,1786]],"id":"DE.BW.08115000.08115050","properties":{"hc-group":"admin3","hc-key":"de-bw-08115000-08115050","hc-a2":"WD","name":"Weil der Stadt","hc-middle-lon":8.823,"hc-middle-lat":48.769}},{"type":"MultiPolygon","arcs":[[[418,1787,1788,1789]],[[1790,1791]]],"id":"DE.BW.08235000.08235067","properties":{"hc-group":"admin3","hc-key":"de-bw-08235000-08235067","hc-a2":"SI","name":"Simmozheim","hc-middle-lon":8.811,"hc-middle-lat":48.751}},{"type":"Polygon","arcs":[[910,502,503,489,-1759]],"id":"DE.BW.08236000.08236044","properties":{"hc-group":"admin3","hc-key":"de-bw-08236000-08236044","hc-a2":"NE","name":"Neuhausen","hc-middle-lon":8.805,"hc-middle-lat":48.803}},{"type":"Polygon","arcs":[[-504,1792,1793,-561,496]],"id":"DE.BW.08235000.08235073","properties":{"hc-group":"admin3","hc-key":"de-bw-08235000-08235073","hc-a2":"UN","name":"Unterreichenbach","hc-middle-lon":8.675,"hc-middle-lat":48.809}},{"type":"Polygon","arcs":[[1794,1795,1796,1797,512,1798,1799,1800]],"id":"DE.BW.08425000.08425031","properties":{"hc-group":"admin3","hc-key":"de-bw-08425000-08425031","hc-a2":"DO","name":"Dornstadt","hc-middle-lon":9.889,"hc-middle-lat":48.484}},{"type":"Polygon","arcs":[[-1795,1801,-377,-376,-375,1802,1803]],"id":"DE.BW.08425000.08425084","properties":{"hc-group":"admin3","hc-key":"de-bw-08425000-08425084","hc-a2":"NE","name":"Nellingen","hc-middle-lon":9.781,"hc-middle-lat":48.541}},{"type":"Polygon","arcs":[[1804,1805,1806,-259,-258,-257]],"id":"DE.BW.08136000.08136035","properties":{"hc-group":"admin3","hc-key":"de-bw-08136000-08136035","hc-a2":"JA","name":"Jagstzell","hc-middle-lon":10.156,"hc-middle-lat":49.032}},{"type":"Polygon","arcs":[[-1805,-256,1807,1808,1809]],"id":"DE.BW.08136000.08136018","properties":{"hc-group":"admin3","hc-key":"de-bw-08136000-08136018","hc-a2":"EL","name":"Ellenberg","hc-middle-lon":10.173,"hc-middle-lat":49.021}},{"type":"Polygon","arcs":[[-1480,1810,1811,1812,1813]],"id":"DE.BW.08226000.08226097","properties":{"hc-group":"admin3","hc-key":"de-bw-08226000-08226097","hc-a2":"WI","name":"Wiesenbach","hc-middle-lon":8.827,"hc-middle-lat":49.366}},{"type":"Polygon","arcs":[[-547,-546,-545,1814,1815,1816,1817,-1588]],"id":"DE.BW.08215000.08215100","properties":{"hc-group":"admin3","hc-key":"de-bw-08215000-08215100","hc-a2":"BS","name":"Bad Schönborn","hc-middle-lon":8.668,"hc-middle-lat":49.209}},{"type":"Polygon","arcs":[[1818,1819,1820,1821,1822]],"id":"DE.BW.08215000.08215103","properties":{"hc-group":"admin3","hc-key":"de-bw-08215000-08215103","hc-a2":"KN","name":"Karlsdorf-Neuthard","hc-middle-lon":8.573,"hc-middle-lat":49.149}},{"type":"Polygon","arcs":[[-1819,1823,1824,1825,1826,1827]],"id":"DE.BW.08215000.08215099","properties":{"hc-group":"admin3","hc-key":"de-bw-08215000-08215099","hc-a2":"GN","name":"Graben-Neudorf","hc-middle-lon":8.481,"hc-middle-lat":49.16}},{"type":"Polygon","arcs":[[-1048,1828,-1824,-1823,1829,1830,487]],"id":"DE.BW.08215000.08215109","properties":{"hc-group":"admin3","hc-key":"de-bw-08215000-08215109","hc-a2":"ST","name":"Stutensee","hc-middle-lon":8.451,"hc-middle-lat":49.098}},{"type":"Polygon","arcs":[[-1479,1831,1832,1833,-1811]],"id":"DE.BW.08226000.08226048","properties":{"hc-group":"admin3","hc-key":"de-bw-08226000-08226048","hc-a2":"MA","name":"Mauer","hc-middle-lon":8.777,"hc-middle-lat":49.326}},{"type":"MultiPolygon","arcs":[[[1834,1835,1836,1837,1838]],[[1839,1840,1841,1842]],[[1843,1844,1845,1846]],[[1847,1848,1849]]],"id":"DE.BW.08436000.08436040","properties":{"hc-group":"admin3","hc-key":"de-bw-08436000-08436040","hc-a2":"GU","name":"Guggenhausen","hc-middle-lon":9.456,"hc-middle-lat":47.893}},{"type":"Polygon","arcs":[[-1835,1850,-1840,1851,-1845,1852]],"id":"DE.BW.08436000.08436077","properties":{"hc-group":"admin3","hc-key":"de-bw-08436000-08436077","hc-a2":"UN","name":"Unterwaldhausen","hc-middle-lon":9.468,"hc-middle-lat":47.904}},{"type":"Polygon","arcs":[[1853,1854,-1709,1855]],"id":"DE.BW.08425000.08425123","properties":{"hc-group":"admin3","hc-key":"de-bw-08425000-08425123","hc-a2":"UN","name":"Untermarchtal","hc-middle-lon":9.611,"hc-middle-lat":48.242}},{"type":"Polygon","arcs":[[-1854,1856,1857,653,654,655,1858,1859,1860]],"id":"DE.BW.08425000.08425090","properties":{"hc-group":"admin3","hc-key":"de-bw-08425000-08425090","hc-a2":"OB","name":"Obermarchtal","hc-middle-lon":9.544,"hc-middle-lat":48.208}},{"type":"Polygon","arcs":[[242,-1408,-1413,-1449,1861]],"id":"DE.BW.08316000.08316051","properties":{"hc-group":"admin3","hc-key":"de-bw-08316000-08316051","hc-a2":"WA","name":"Wyhl am Kaiserstuhl","hc-middle-lon":7.649,"hc-middle-lat":48.169}},{"type":"Polygon","arcs":[[-1423,1862,1863,-1678,205]],"id":"DE.BW.08128000.08128045","properties":{"hc-group":"admin3","hc-key":"de-bw-08128000-08128045","hc-a2":"GR","name":"Großrinderfeld","hc-middle-lon":9.796,"hc-middle-lat":49.69}},{"type":"Polygon","arcs":[[-434,-433,-432,1864,-435]],"id":"DE.BW.08435000.08435042","properties":{"hc-group":"admin3","hc-key":"de-bw-08435000-08435042","hc-a2":"NE","name":"Neukirch","hc-middle-lon":9.705,"hc-middle-lat":47.661}},{"type":"Polygon","arcs":[[433,1865,1866,1867,1868]],"id":"DE.BW.08436000.08436006","properties":{"hc-group":"admin3","hc-key":"de-bw-08436000-08436006","hc-a2":"AM","name":"Amtzell","hc-middle-lon":9.733,"hc-middle-lat":47.716}},{"type":"Polygon","arcs":[[1869,1870,1871,1872,1873]],"id":"DE.BW.08119000.08119083","properties":{"hc-group":"admin3","hc-key":"de-bw-08119000-08119083","hc-a2":"WI","name":"Weissach im Tal","hc-middle-lon":9.495,"hc-middle-lat":48.918}},{"type":"Polygon","arcs":[[-1870,1874,1875,1876,1877]],"id":"DE.BW.08119000.08119006","properties":{"hc-group":"admin3","hc-key":"de-bw-08119000-08119006","hc-a2":"AU","name":"Auenwald","hc-middle-lon":9.557,"hc-middle-lat":48.929}},{"type":"Polygon","arcs":[[1878,1879,1880,1881]],"id":"DE.BW.08415000.08415027","properties":{"hc-group":"admin3","hc-key":"de-bw-08415000-08415027","hc-a2":"GO","name":"Gomadingen","hc-middle-lon":9.395,"hc-middle-lat":48.39}},{"type":"Polygon","arcs":[[-1879,1882,1883,1884,1885,1886]],"id":"DE.BW.08415000.08415089","properties":{"hc-group":"admin3","hc-key":"de-bw-08415000-08415089","hc-a2":"EN","name":"Engstingen","hc-middle-lon":9.325,"hc-middle-lat":48.397}},{"type":"Polygon","arcs":[[1887,1888,1889,1890,1891,1892,423,424,425,426]],"id":"DE.BW.08235000.08235080","properties":{"hc-group":"admin3","hc-key":"de-bw-08235000-08235080","hc-a2":"WI","name":"Wildberg","hc-middle-lon":8.73,"hc-middle-lat":48.643}},{"type":"Polygon","arcs":[[-1888,427,428,737,742,743,1893,1894,1895]],"id":"DE.BW.08235000.08235046","properties":{"hc-group":"admin3","hc-key":"de-bw-08235000-08235046","hc-a2":"NA","name":"Nagold","hc-middle-lon":8.755,"hc-middle-lat":48.545}},{"type":"Polygon","arcs":[[-1894,744,745,156,157,738,1896,1897,1898]],"id":"DE.BW.08235000.08235032","properties":{"hc-group":"admin3","hc-key":"de-bw-08235000-08235032","hc-a2":"HA","name":"Haiterbach","hc-middle-lon":8.647,"hc-middle-lat":48.532}},{"type":"Polygon","arcs":[[-746,1899,1900,1901,1902,157,155]],"id":"DE.BW.08237000.08237074","properties":{"hc-group":"admin3","hc-key":"de-bw-08237000-08237074","hc-a2":"WA","name":"Waldachtal","hc-middle-lon":8.598,"hc-middle-lat":48.474}},{"type":"Polygon","arcs":[[-1899,1903,1904,-1895]],"id":"DE.BW.08235000.08235060","properties":{"hc-group":"admin3","hc-key":"de-bw-08235000-08235060","hc-a2":"RO","name":"Rohrdorf","hc-middle-lon":8.687,"hc-middle-lat":48.568}},{"type":"Polygon","arcs":[[-1482,1905,1906,-1569]],"id":"DE.BW.08226000.08226086","properties":{"hc-group":"admin3","hc-key":"de-bw-08226000-08226086","hc-a2":"SP","name":"Spechbach","hc-middle-lon":8.887,"hc-middle-lat":49.349}},{"type":"MultiPolygon","arcs":[[[-1097,1907]],[[-469,-1099,1908,596,-1077,292]]],"id":"DE.BW.08326000.08326027","properties":{"hc-group":"admin3","hc-key":"de-bw-08326000-08326027","hc-a2":"HÜ","name":"Hüfingen","hc-middle-lon":8.512,"hc-middle-lat":47.911}},{"type":"Polygon","arcs":[[-969,1909,1910]],"id":"DE.BW.08225000.08225116","properties":{"hc-group":"admin3","hc-key":"de-bw-08225000-08225116","hc-a2":"SC","name":"Schwarzach","hc-middle-lon":8.98,"hc-middle-lat":49.386}},{"type":"Polygon","arcs":[[968,969,1911,1912,1913,234,1914,1915,966,967]],"id":"DE.BW.08226000.08226081","properties":{"hc-group":"admin3","hc-key":"de-bw-08226000-08226081","hc-a2":"SC","name":"Schönbrunn","hc-middle-lon":8.916,"hc-middle-lat":49.435}},{"type":"MultiPolygon","arcs":[[[-1915,235,962,963,964,965,966,1916]],[[79,-330]],[[1917,229]]],"id":"DE.BW.08226000.08226013","properties":{"hc-group":"admin3","hc-key":"de-bw-08226000-08226013","hc-a2":"EB","name":"Eberbach","hc-middle-lon":8.973,"hc-middle-lat":49.49}},{"type":"Polygon","arcs":[[-1402,1918,1919,1920,1921]],"id":"DE.BW.08315000.08315013","properties":{"hc-group":"admin3","hc-key":"de-bw-08315000-08315013","hc-a2":"BÖ","name":"Bötzingen","hc-middle-lon":7.716,"hc-middle-lat":48.072}},{"type":"Polygon","arcs":[[792,168,1922,1923,-1184,791]],"id":"DE.BW.08335000.08335098","properties":{"hc-group":"admin3","hc-key":"de-bw-08335000-08335098","hc-a2":"BL","name":"Bodman-Ludwigshafen","hc-middle-lon":9.03,"hc-middle-lat":47.807}},{"type":"Polygon","arcs":[[-1906,-1481,-1814,1924,-1913,1925,1926]],"id":"DE.BW.08226000.08226104","properties":{"hc-group":"admin3","hc-key":"de-bw-08226000-08226104","hc-a2":"LO","name":"Lobbach","hc-middle-lon":8.907,"hc-middle-lat":49.389}},{"type":"Polygon","arcs":[[-1926,-1912,970,1927,1928]],"id":"DE.BW.08226000.08226066","properties":{"hc-group":"admin3","hc-key":"de-bw-08226000-08226066","hc-a2":"RE","name":"Reichartshausen","hc-middle-lon":8.954,"hc-middle-lat":49.346}},{"type":"Polygon","arcs":[[-1927,-1929,1929,1930,-1570,-1907]],"id":"DE.BW.08226000.08226017","properties":{"hc-group":"admin3","hc-key":"de-bw-08226000-08226017","hc-a2":"EP","name":"Epfenbach","hc-middle-lon":8.924,"hc-middle-lat":49.347}},{"type":"Polygon","arcs":[[-1930,-1928,971,972,973,-976,-1222,1931,1932]],"id":"DE.BW.08226000.08226106","properties":{"hc-group":"admin3","hc-key":"de-bw-08226000-08226106","hc-a2":"HB","name":"Helmstadt-Bargen","hc-middle-lon":8.998,"hc-middle-lat":49.317}},{"type":"Polygon","arcs":[[859,1933,1934,1935]],"id":"DE.BW.08315000.08315072","properties":{"hc-group":"admin3","hc-key":"de-bw-08315000-08315072","hc-a2":"ME","name":"Merdingen","hc-middle-lon":7.687,"hc-middle-lat":48.024}},{"type":"Polygon","arcs":[[-991,-990,-1032,1936,-37,1937]],"id":"DE.BW.08416000.08416009","properties":{"hc-group":"admin3","hc-key":"de-bw-08416000-08416009","hc-a2":"DE","name":"Dettenhausen","hc-middle-lon":9.103,"hc-middle-lat":48.601}},{"type":"MultiPolygon","arcs":[[[990,991,1938,-1320,1939,1940]],[[1941,1942,1943]]],"id":"DE.BW.08115000.08115051","properties":{"hc-group":"admin3","hc-key":"de-bw-08115000-08115051","hc-a2":"WI","name":"Weil im Schönbuch","hc-middle-lon":9.09,"hc-middle-lat":48.611}},{"type":"Polygon","arcs":[[1944,1945,1946,1947,-867]],"id":"DE.BW.08325000.08325071","properties":{"hc-group":"admin3","hc-key":"de-bw-08325000-08325071","hc-a2":"ES","name":"Eschbronn","hc-middle-lon":8.422,"hc-middle-lat":48.196}},{"type":"Polygon","arcs":[[-1945,-866,1948]],"id":"DE.BW.08325000.08325024","properties":{"hc-group":"admin3","hc-key":"de-bw-08325000-08325024","hc-a2":"HA","name":"Hardt","hc-middle-lon":8.397,"hc-middle-lat":48.195}},{"type":"MultiPolygon","arcs":[[[-1908,-1096,-1387,1949,1950,1951,595,-1909,-1098],[-1095]],[[1952,-1101,-1388]],[[1953,1953,1953]]],"id":"DE.BW.08326000.08326012","properties":{"hc-group":"admin3","hc-key":"de-bw-08326000-08326012","hc-a2":"DO","name":"Donaueschingen","hc-middle-lon":8.502,"hc-middle-lat":47.967}},{"type":"Polygon","arcs":[[-1073,-626,-962,-961,-960,-1628,1954,1955]],"id":"DE.BW.08225000.08225001","properties":{"hc-group":"admin3","hc-key":"de-bw-08225000-08225001","hc-a2":"AD","name":"Adelsheim","hc-middle-lon":9.397,"hc-middle-lat":49.391}},{"type":"MultiPolygon","arcs":[[[-1573,210,1956,1957]],[[207,-1424]]],"id":"DE.BW.08128000.08128058","properties":{"hc-group":"admin3","hc-key":"de-bw-08128000-08128058","hc-a2":"IG","name":"Igersheim","hc-middle-lon":9.884,"hc-middle-lat":49.574}},{"type":"Polygon","arcs":[[-1933,1958,-1571,-1931]],"id":"DE.BW.08226000.08226058","properties":{"hc-group":"admin3","hc-key":"de-bw-08226000-08226058","hc-a2":"NE","name":"Neidenstein","hc-middle-lon":8.901,"hc-middle-lat":49.314}},{"type":"Polygon","arcs":[[-1890,1959,-1904,-1898,1960,740,741,-750,1961,1962,1963]],"id":"DE.BW.08235000.08235006","properties":{"hc-group":"admin3","hc-key":"de-bw-08235000-08235006","hc-a2":"AL","name":"Altensteig","hc-middle-lon":8.599,"hc-middle-lat":48.603}},{"type":"Polygon","arcs":[[-1932,-1221,1964,-1474,-1572,-1959]],"id":"DE.BW.08226000.08226091","properties":{"hc-group":"admin3","hc-key":"de-bw-08226000-08226091","hc-a2":"WA","name":"Waibstadt","hc-middle-lon":8.907,"hc-middle-lat":49.29}},{"type":"Polygon","arcs":[[576,145,481,1965,575]],"id":"DE.BW.08215000.08215108","properties":{"hc-group":"admin3","hc-key":"de-bw-08215000-08215108","hc-a2":"RH","name":"Rheinstetten","hc-middle-lon":8.287,"hc-middle-lat":48.974}},{"type":"Polygon","arcs":[[1966,159,-1692]],"id":"DE.BW.08336000.08336105","properties":{"hc-group":"admin3","hc-key":"de-bw-08336000-08336105","hc-a2":"GW","name":"Grenzach-Wyhlen","hc-middle-lon":7.681,"hc-middle-lat":47.551}},{"type":"Polygon","arcs":[[-1967,-1691,-1700,1967,1968,1969,1970,158]],"id":"DE.BW.08336000.08336069","properties":{"hc-group":"admin3","hc-key":"de-bw-08336000-08336069","hc-a2":"R(","name":"Rheinfelden (Baden)","hc-middle-lon":7.775,"hc-middle-lat":47.584}},{"type":"Polygon","arcs":[[-1062,-1505,1971,-1648,1972,1973]],"id":"DE.BW.08337000.08337090","properties":{"hc-group":"admin3","hc-key":"de-bw-08337000-08337090","hc-a2":"RI","name":"Rickenbach","hc-middle-lon":7.94,"hc-middle-lat":47.623}},{"type":"Polygon","arcs":[[1974,1975,1976,1977,1978,1979,1980]],"id":"DE.BW.08327000.08327055","properties":{"hc-group":"admin3","hc-key":"de-bw-08327000-08327055","hc-a2":"SO","name":"Seitingen-Oberflacht","hc-middle-lon":8.698,"hc-middle-lat":48.033}},{"type":"Polygon","arcs":[[-1975,1981,1982,1983,1984]],"id":"DE.BW.08327000.08327020","properties":{"hc-group":"admin3","hc-key":"de-bw-08327000-08327020","hc-a2":"GU","name":"Gunningen","hc-middle-lon":8.697,"hc-middle-lat":48.05}},{"type":"Polygon","arcs":[[1985,1986,-305,1987,1988,1989,-1332]],"id":"DE.BW.08317000.08317118","properties":{"hc-group":"admin3","hc-key":"de-bw-08317000-08317118","hc-a2":"SA","name":"Sasbachwalden","hc-middle-lon":8.165,"hc-middle-lat":48.613}},{"type":"MultiPolygon","arcs":[[[-1986,-1331,-310,-1340,-308,1990]],[[1991,9,10]],[[-304,-303,-302,-1339,-885,1992,-1338,1993,-1988]],[[1994,-1336]]],"id":"DE.BW.08317000.08317116","properties":{"hc-group":"admin3","hc-key":"de-bw-08317000-08317116","hc-a2":"SA","name":"Sasbach","hc-middle-lon":8.112,"hc-middle-lat":48.632}},{"type":"MultiPolygon","arcs":[[[-1992,11,12]],[[-307,-306,-1987,-1991]]],"id":"DE.BW.08317000.08317068","properties":{"hc-group":"admin3","hc-key":"de-bw-08317000-08317068","hc-a2":"LA","name":"Lauf","hc-middle-lon":8.185,"hc-middle-lat":48.624}},{"type":"Polygon","arcs":[[985,986,1995,1996,983,984]],"id":"DE.BW.08415000.08415029","properties":{"hc-group":"admin3","hc-key":"de-bw-08415000-08415029","hc-a2":"GR","name":"Grafenberg","hc-middle-lon":9.306,"hc-middle-lat":48.568}},{"type":"Polygon","arcs":[[-986,1997,1998,1999,2000,2001]],"id":"DE.BW.08116000.08116020","properties":{"hc-group":"admin3","hc-key":"de-bw-08116000-08116020","hc-a2":"FR","name":"Frickenhausen","hc-middle-lon":9.391,"hc-middle-lat":48.59}},{"type":"MultiPolygon","arcs":[[[-1998,-985,2002,2003,2004]],[[2005,2006]]],"id":"DE.BW.08116000.08116022","properties":{"hc-group":"admin3","hc-key":"de-bw-08116000-08116022","hc-a2":"GR","name":"Großbettlingen","hc-middle-lon":9.306,"hc-middle-lat":48.588}},{"type":"Polygon","arcs":[[2007,2008,2009,2010,2011,2012]],"id":"DE.BW.08336000.08336075","properties":{"hc-group":"admin3","hc-key":"de-bw-08336000-08336075","hc-a2":"SC","name":"Schallbach","hc-middle-lon":7.628,"hc-middle-lat":47.657}},{"type":"Polygon","arcs":[[-2008,2013,2014,2015,2016,2017,2018]],"id":"DE.BW.08336000.08336024","properties":{"hc-group":"admin3","hc-key":"de-bw-08336000-08336024","hc-a2":"FI","name":"Fischingen","hc-middle-lon":7.603,"hc-middle-lat":47.65}},{"type":"Polygon","arcs":[[-1821,2019,2020,2021]],"id":"DE.BW.08215000.08215021","properties":{"hc-group":"admin3","hc-key":"de-bw-08215000-08215021","hc-a2":"FO","name":"Forst","hc-middle-lon":8.586,"hc-middle-lat":49.162}},{"type":"MultiPolygon","arcs":[[[-2022,2022,2023,-1283,2024,-1156,2025,-1830,-1822]],[[-2020,-1820,-1828,2026,2027,2028]]],"id":"DE.BW.08215000.08215009","properties":{"hc-group":"admin3","hc-key":"de-bw-08215000-08215009","hc-a2":"BR","name":"Bruchsal","hc-middle-lon":8.598,"hc-middle-lat":49.106}},{"type":"MultiPolygon","arcs":[[[2029,2030,2031,787,788,236,2032,2033,2034,2035]],[[785,2036]]],"id":"DE.BW.08315000.08315076","properties":{"hc-group":"admin3","hc-key":"de-bw-08315000-08315076","hc-a2":"NA","name":"Neuenburg am Rhein","hc-middle-lon":7.548,"hc-middle-lat":47.783}},{"type":"Polygon","arcs":[[-2030,2037,2038,2039,2040]],"id":"DE.BW.08315000.08315022","properties":{"hc-group":"admin3","hc-key":"de-bw-08315000-08315022","hc-a2":"BU","name":"Buggingen","hc-middle-lon":7.635,"hc-middle-lat":47.852}},{"type":"Polygon","arcs":[[850,2041,2042]],"id":"DE.BW.08315000.08315073","properties":{"hc-group":"admin3","hc-key":"de-bw-08315000-08315073","hc-a2":"ME","name":"Merzhausen","hc-middle-lon":7.826,"hc-middle-lat":47.964}},{"type":"Polygon","arcs":[[-2043,2043,2044,2045,2046,2047,-1369,849]],"id":"DE.BW.08315000.08315028","properties":{"hc-group":"admin3","hc-key":"de-bw-08315000-08315028","hc-a2":"EB","name":"Ebringen","hc-middle-lon":7.793,"hc-middle-lat":47.952}},{"type":"Polygon","arcs":[[-1669,2048,2049,-1947,2050,2051]],"id":"DE.BW.08325000.08325014","properties":{"hc-group":"admin3","hc-key":"de-bw-08325000-08325014","hc-a2":"DU","name":"Dunningen","hc-middle-lon":8.453,"hc-middle-lat":48.235}},{"type":"Polygon","arcs":[[2052,-1607,2053,2054,2055,2056,2057,2058,2059,2060,2061]],"id":"DE.BW.08118000.08118048","properties":{"hc-group":"admin3","hc-key":"de-bw-08118000-08118048","hc-a2":"LU","name":"Ludwigsburg","hc-middle-lon":9.164,"hc-middle-lat":48.899}},{"type":"Polygon","arcs":[[-2053,2062,2063,2064,-1610,2065,-1608]],"id":"DE.BW.08118000.08118071","properties":{"hc-group":"admin3","hc-key":"de-bw-08118000-08118071","hc-a2":"TA","name":"Tamm","hc-middle-lon":9.154,"hc-middle-lat":48.934}},{"type":"Polygon","arcs":[[-2063,-2062,2066,2067]],"id":"DE.BW.08118000.08118003","properties":{"hc-group":"admin3","hc-key":"de-bw-08118000-08118003","hc-a2":"AS","name":"Asperg","hc-middle-lon":9.141,"hc-middle-lat":48.907}},{"type":"Polygon","arcs":[[-1068,-1518,82,2068,2069,2070]],"id":"DE.BW.08225000.08225109","properties":{"hc-group":"admin3","hc-key":"de-bw-08225000-08225109","hc-a2":"WA","name":"Walldürn","hc-middle-lon":9.334,"hc-middle-lat":49.606}},{"type":"Polygon","arcs":[[108,109,-514,-513,-512,-511,110,-519,-518,-517,-516,-515]],"id":"DE.BW.08421000.08421000","properties":{"hc-group":"admin3","hc-key":"de-bw-08421000-08421000","hc-a2":"UL","name":"Ulm","hc-middle-lon":9.97,"hc-middle-lat":48.362}},{"type":"Polygon","arcs":[[197,2071,2072]],"id":"DE.BW.08135000.08135021","properties":{"hc-group":"admin3","hc-key":"de-bw-08135000-08135021","hc-a2":"HE","name":"Hermaringen","hc-middle-lon":10.296,"hc-middle-lat":48.596}},{"type":"Polygon","arcs":[[-897,-901,-900,-899,-898,-531,-530,-685,-684,-683,-682,-681,-680,-686]],"id":"DE.BW.08111000.08111000","properties":{"hc-group":"admin3","hc-key":"de-bw-08111000-08111000","hc-a2":"ST","name":"Stuttgart","hc-middle-lon":9.158,"hc-middle-lat":48.789}},{"type":"Polygon","arcs":[[683,2073,912,913,914,2074,2075,2076]],"id":"DE.BW.08118000.08118011","properties":{"hc-group":"admin3","hc-key":"de-bw-08118000-08118011","hc-a2":"DI","name":"Ditzingen","hc-middle-lon":9.022,"hc-middle-lat":48.838}},{"type":"Polygon","arcs":[[328,-535,-534,-533,-532,149,622,623,624]],"id":"DE.BW.08222000.08222000","properties":{"hc-group":"admin3","hc-key":"de-bw-08222000-08222000","hc-a2":"MA","name":"Mannheim","hc-middle-lon":8.47,"hc-middle-lat":49.52}},{"type":"Polygon","arcs":[[-1106,-336,-335,2077,2078,2079,2080,2081]],"id":"DE.BW.08426000.08426038","properties":{"hc-group":"admin3","hc-key":"de-bw-08426000-08426038","hc-a2":"EB","name":"Eberhardzell","hc-middle-lon":9.832,"hc-middle-lat":47.991}},{"type":"Polygon","arcs":[[-2081,2082,2083,2084,2085,2086,-1529,2087]],"id":"DE.BW.08426000.08426087","properties":{"hc-group":"admin3","hc-key":"de-bw-08426000-08426087","hc-a2":"OC","name":"Ochsenhausen","hc-middle-lon":9.92,"hc-middle-lat":48.074}},{"type":"Polygon","arcs":[[-1111,2088,-1116,2089,2090,-1118,763,764,2091],[-1110]],"id":"DE.BW.08426000.08426045","properties":{"hc-group":"admin3","hc-key":"de-bw-08426000-08426045","hc-a2":"ER","name":"Ertingen","hc-middle-lon":9.471,"hc-middle-lat":48.101}},{"type":"Polygon","arcs":[[-1844,2092,-454,2093,-452,2094,-1836,-1853]],"id":"DE.BW.08436000.08436067","properties":{"hc-group":"admin3","hc-key":"de-bw-08436000-08436067","hc-a2":"RI","name":"Riedhausen","hc-middle-lon":9.429,"hc-middle-lat":47.908}},{"type":"Polygon","arcs":[[-1859,656,-668,-667,-1711,2095,2096]],"id":"DE.BW.08425000.08425035","properties":{"hc-group":"admin3","hc-key":"de-bw-08425000-08425035","hc-a2":"EM","name":"Emeringen","hc-middle-lon":9.513,"hc-middle-lat":48.236}},{"type":"MultiPolygon","arcs":[[[-1415,-1420,2097,-1581,-1093,533]],[[-1090,2098]]],"id":"DE.BW.08226000.08226084","properties":{"hc-group":"admin3","hc-key":"de-bw-08226000-08226084","hc-a2":"SC","name":"Schwetzingen","hc-middle-lon":8.563,"hc-middle-lat":49.378}},{"type":"MultiPolygon","arcs":[[[-1613,-1611,-2065,2099,2100,2101,2102]],[[-2066,-1609]]],"id":"DE.BW.08118000.08118079","properties":{"hc-group":"admin3","hc-key":"de-bw-08118000-08118079","hc-a2":"BB","name":"Bietigheim-Bissingen","hc-middle-lon":9.15,"hc-middle-lat":48.954}},{"type":"Polygon","arcs":[[-1615,2103,2104,2105,-1176]],"id":"DE.BW.08118000.08118028","properties":{"hc-group":"admin3","hc-key":"de-bw-08118000-08118028","hc-a2":"HE","name":"Hessigheim","hc-middle-lon":9.182,"hc-middle-lat":49}},{"type":"Polygon","arcs":[[-53,2106,2107,-695,2108,2109,2110,2111,40,2112]],"id":"DE.BW.08125000.08125102","properties":{"hc-group":"admin3","hc-key":"de-bw-08125000-08125102","hc-a2":"WE","name":"Weinsberg","hc-middle-lon":9.351,"hc-middle-lat":49.157}},{"type":"Polygon","arcs":[[39,40,41,42,43,44,45,46,47,48,49,50,51,52]],"id":"DE.BW.08121000.08121000","properties":{"hc-group":"admin3","hc-key":"de-bw-08121000-08121000","hc-a2":"HE","name":"Heilbronn","hc-middle-lon":9.193,"hc-middle-lat":49.141}},{"type":"Polygon","arcs":[[-43,2113,2114]],"id":"DE.BW.08125000.08125030","properties":{"hc-group":"admin3","hc-key":"de-bw-08125000-08125030","hc-a2":"FL","name":"Flein","hc-middle-lon":9.257,"hc-middle-lat":49.094}},{"type":"Polygon","arcs":[[2115,2116,2117,805,806,807,808,809,2118]],"id":"DE.BW.08317000.08317078","properties":{"hc-group":"admin3","hc-key":"de-bw-08317000-08317078","hc-a2":"MÜ","name":"Mühlenbach","hc-middle-lon":8.122,"hc-middle-lat":48.24}},{"type":"Polygon","arcs":[[-2116,2119,2120,2121,2122,2123]],"id":"DE.BW.08317000.08317040","properties":{"hc-group":"admin3","hc-key":"de-bw-08317000-08317040","hc-a2":"HI","name":"Haslach im Kinzigtal","hc-middle-lon":8.088,"hc-middle-lat":48.284}},{"type":"Polygon","arcs":[[-2123,2124,-1313,2125]],"id":"DE.BW.08317000.08317029","properties":{"hc-group":"admin3","hc-key":"de-bw-08317000-08317029","hc-a2":"FI","name":"Fischerbach","hc-middle-lon":8.125,"hc-middle-lat":48.31}},{"type":"Polygon","arcs":[[2126,2127,2128,2129,2130,2131,2132]],"id":"DE.BW.08136000.08136070","properties":{"hc-group":"admin3","hc-key":"de-bw-08136000-08136070","hc-a2":"TÄ","name":"Täferrot","hc-middle-lon":9.839,"hc-middle-lat":48.859}},{"type":"Polygon","arcs":[[-2127,2133,2134]],"id":"DE.BW.08136000.08136040","properties":{"hc-group":"admin3","hc-key":"de-bw-08136000-08136040","hc-a2":"LE","name":"Leinzell","hc-middle-lon":9.87,"hc-middle-lat":48.85}},{"type":"Polygon","arcs":[[-1771,689,369,370,2135,2136]],"id":"DE.BW.08119000.08119024","properties":{"hc-group":"admin3","hc-key":"de-bw-08119000-08119024","hc-a2":"GR","name":"Großerlach","hc-middle-lon":9.549,"hc-middle-lat":49.042}},{"type":"Polygon","arcs":[[-1491,2137,2138,2139,2140,252,2141]],"id":"DE.BW.08127000.08127025","properties":{"hc-group":"admin3","hc-key":"de-bw-08127000-08127025","hc-a2":"GA","name":"Gaildorf","hc-middle-lon":9.767,"hc-middle-lat":48.999}},{"type":"Polygon","arcs":[[-2138,-1490,-1503,2142]],"id":"DE.BW.08127000.08127100","properties":{"hc-group":"admin3","hc-key":"de-bw-08127000-08127100","hc-a2":"RO","name":"Rosengarten","hc-middle-lon":9.729,"hc-middle-lat":49.066}},{"type":"Polygon","arcs":[[-1877,2143,-2136,371,372,-934,220,221,2144,2145,2146]],"id":"DE.BW.08119000.08119044","properties":{"hc-group":"admin3","hc-key":"de-bw-08119000-08119044","hc-a2":"MU","name":"Murrhardt","hc-middle-lon":9.615,"hc-middle-lat":48.969}},{"type":"Polygon","arcs":[[-2144,-1876,2147,-1773,-1772,-2137]],"id":"DE.BW.08119000.08119075","properties":{"hc-group":"admin3","hc-key":"de-bw-08119000-08119075","hc-a2":"SA","name":"Sulzbach an der Murr","hc-middle-lon":9.538,"hc-middle-lat":49.007}},{"type":"MultiPolygon","arcs":[[[-942,2148,2149,2150,2151,-2146,2152,221]],[[2153,2154]],[[2155,2156]]],"id":"DE.BW.08119000.08119037","properties":{"hc-group":"admin3","hc-key":"de-bw-08119000-08119037","hc-a2":"KA","name":"Kaisersbach","hc-middle-lon":9.643,"hc-middle-lat":48.922}},{"type":"MultiPolygon","arcs":[[[2157,2158,2159,2160,2161]],[[2162,-2163,2163]]],"id":"DE.BW.08116000.08116071","properties":{"hc-group":"admin3","hc-key":"de-bw-08116000-08116071","hc-a2":"WA","name":"Wendlingen am Neckar","hc-middle-lon":9.388,"hc-middle-lat":48.67}},{"type":"Polygon","arcs":[[-2158,2164,2165,2166,2167,2168,2169]],"id":"DE.BW.08116000.08116068","properties":{"hc-group":"admin3","hc-key":"de-bw-08116000-08116068","hc-a2":"UN","name":"Unterensingen","hc-middle-lon":9.336,"hc-middle-lat":48.662}},{"type":"Polygon","arcs":[[-2167,2170,2171,2172,2173]],"id":"DE.BW.08116000.08116073","properties":{"hc-group":"admin3","hc-key":"de-bw-08116000-08116073","hc-a2":"WO","name":"Wolfschlugen","hc-middle-lon":9.291,"hc-middle-lat":48.654}},{"type":"Polygon","arcs":[[2174,2175,2176,-698,-697]],"id":"DE.BW.08125000.08125113","properties":{"hc-group":"admin3","hc-key":"de-bw-08125000-08125113","hc-a2":"LA","name":"Langenbrettach","hc-middle-lon":9.411,"hc-middle-lat":49.227}},{"type":"Polygon","arcs":[[-2175,-696,-2108,2177,2178,2179]],"id":"DE.BW.08125000.08125021","properties":{"hc-group":"admin3","hc-key":"de-bw-08125000-08125021","hc-a2":"EB","name":"Eberstadt","hc-middle-lon":9.331,"hc-middle-lat":49.185}},{"type":"MultiPolygon","arcs":[[[-625,2180,2181,2182,-325]],[[-1089,141,-1091,-2099]],[[143,531,-1092]]],"id":"DE.BW.08226000.08226105","properties":{"hc-group":"admin3","hc-key":"de-bw-08226000-08226105","hc-a2":"EN","name":"Edingen-Neckarhausen","hc-middle-lon":8.602,"hc-middle-lat":49.452}},{"type":"Polygon","arcs":[[-2183,2183,2184,-326]],"id":"DE.BW.08226000.08226012","properties":{"hc-group":"admin3","hc-key":"de-bw-08226000-08226012","hc-a2":"DO","name":"Dossenheim","hc-middle-lon":8.682,"hc-middle-lat":49.453}},{"type":"Polygon","arcs":[[2185,2186,2187,-1333,-1990,2188,2189,2190]],"id":"DE.BW.08317000.08317056","properties":{"hc-group":"admin3","hc-key":"de-bw-08317000-08317056","hc-a2":"KA","name":"Kappelrodeck","hc-middle-lon":8.111,"hc-middle-lat":48.58}},{"type":"Polygon","arcs":[[-2186,2191,2192,2193,2194]],"id":"DE.BW.08317000.08317067","properties":{"hc-group":"admin3","hc-key":"de-bw-08317000-08317067","hc-a2":"LA","name":"Lautenbach","hc-middle-lon":8.147,"hc-middle-lat":48.507}},{"type":"Polygon","arcs":[[-741,-740,-739,-158,-1903,2195,2196,-1767,-1766]],"id":"DE.BW.08237000.08237054","properties":{"hc-group":"admin3","hc-key":"de-bw-08237000-08237054","hc-a2":"PF","name":"Pfalzgrafenweiler","hc-middle-lon":8.551,"hc-middle-lat":48.527}},{"type":"Polygon","arcs":[[-2194,2197,2198,-883,2199,-1309,-1318,2200]],"id":"DE.BW.08317000.08317098","properties":{"hc-group":"admin3","hc-key":"de-bw-08317000-08317098","hc-a2":"OP","name":"Oppenau","hc-middle-lon":8.166,"hc-middle-lat":48.472}},{"type":"MultiPolygon","arcs":[[[-914,2201,2202,-907,2203]],[[2204,-905]]],"id":"DE.BW.08115000.08115042","properties":{"hc-group":"admin3","hc-key":"de-bw-08115000-08115042","hc-a2":"RU","name":"Rutesheim","hc-middle-lon":8.962,"hc-middle-lat":48.81}},{"type":"Polygon","arcs":[[-2076,2205,2206,2207]],"id":"DE.BW.08118000.08118027","properties":{"hc-group":"admin3","hc-key":"de-bw-08118000-08118027","hc-a2":"HE","name":"Hemmingen","hc-middle-lon":8.992,"hc-middle-lat":48.868}},{"type":"Polygon","arcs":[[2208,-426,2209,2210,2211,2212,2213,-418,2214]],"id":"DE.BW.08115000.08115021","properties":{"hc-group":"admin3","hc-key":"de-bw-08115000-08115021","hc-a2":"HE","name":"Herrenberg","hc-middle-lon":8.876,"hc-middle-lat":48.596}},{"type":"Polygon","arcs":[[-2209,2215,2216,-428,-427]],"id":"DE.BW.08115000.08115053","properties":{"hc-group":"admin3","hc-key":"de-bw-08115000-08115053","hc-a2":"JE","name":"Jettingen","hc-middle-lon":8.761,"hc-middle-lat":48.6}},{"type":"Polygon","arcs":[[-2217,2217,2218,-412,-429]],"id":"DE.BW.08115000.08115034","properties":{"hc-group":"admin3","hc-key":"de-bw-08115000-08115034","hc-a2":"MÖ","name":"Mötzingen","hc-middle-lon":8.782,"hc-middle-lat":48.535}},{"type":"Polygon","arcs":[[-1349,2219,-777,2220,2221]],"id":"DE.BW.08336000.08336004","properties":{"hc-group":"admin3","hc-key":"de-bw-08336000-08336004","hc-a2":"AI","name":"Aitern","hc-middle-lon":7.899,"hc-middle-lat":47.806}},{"type":"MultiPolygon","arcs":[[[191,2222,2223,2224,2225,2226,2227]],[[2228,2229,2230]]],"id":"DE.BW.08317000.08317152","properties":{"hc-group":"admin3","hc-key":"de-bw-08317000-08317152","hc-a2":"KG","name":"Kappel-Grafenhausen","hc-middle-lon":7.743,"hc-middle-lat":48.311}},{"type":"Polygon","arcs":[[2231,2232,2233,2234,2235,2236]],"id":"DE.BW.08216000.08216039","properties":{"hc-group":"admin3","hc-key":"de-bw-08216000-08216039","hc-a2":"ÖT","name":"Ötigheim","hc-middle-lon":8.238,"hc-middle-lat":48.886}},{"type":"Polygon","arcs":[[-2232,2237,77,2238,2239]],"id":"DE.BW.08216000.08216052","properties":{"hc-group":"admin3","hc-key":"de-bw-08216000-08216052","hc-a2":"ST","name":"Steinmauern","hc-middle-lon":8.165,"hc-middle-lat":48.921}},{"type":"MultiPolygon","arcs":[[[2240,2241,2242,2243]],[[-360,2244,2245]]],"id":"DE.BW.08118000.08118054","properties":{"hc-group":"admin3","hc-key":"de-bw-08118000-08118054","hc-a2":"MU","name":"Murr","hc-middle-lon":9.251,"hc-middle-lat":48.964}},{"type":"MultiPolygon","arcs":[[[-2241,2246,2247,-2055,2248]],[[-2058,2249,-347,2250]],[[2251,2252,2253,2254,-353]],[[2255,-356,-355]]],"id":"DE.BW.08118000.08118049","properties":{"hc-group":"admin3","hc-key":"de-bw-08118000-08118049","hc-a2":"MA","name":"Marbach am Neckar","hc-middle-lon":9.262,"hc-middle-lat":48.938}},{"type":"MultiPolygon","arcs":[[[2256,2257,2258,2259,-1774,-2148,-1875,-1874,2260,2261,2262]],[[2263,2263,2263]]],"id":"DE.BW.08119000.08119008","properties":{"hc-group":"admin3","hc-key":"de-bw-08119000-08119008","hc-a2":"BA","name":"Backnang","hc-middle-lon":9.433,"hc-middle-lat":48.949}},{"type":"Polygon","arcs":[[-2263,2264,-2262,2265,2266,-1619,-1553,-1544,2267,2268,2269]],"id":"DE.BW.08119000.08119085","properties":{"hc-group":"admin3","hc-key":"de-bw-08119000-08119085","hc-a2":"WI","name":"Winnenden","hc-middle-lon":9.445,"hc-middle-lat":48.878}},{"type":"Polygon","arcs":[[-2269,2270,-1550,2271]],"id":"DE.BW.08119000.08119068","properties":{"hc-group":"admin3","hc-key":"de-bw-08119000-08119068","hc-a2":"SC","name":"Schwaikheim","hc-middle-lon":9.355,"hc-middle-lat":48.874}},{"type":"MultiPolygon","arcs":[[[-2252,-352,2272,-2056,-2248,2273]],[[-2255,2274,-357,-2256,-354]]],"id":"DE.BW.08118000.08118014","properties":{"hc-group":"admin3","hc-key":"de-bw-08118000-08118014","hc-a2":"ER","name":"Erdmannhausen","hc-middle-lon":9.297,"hc-middle-lat":48.937}},{"type":"Polygon","arcs":[[937,2275,2276]],"id":"DE.BW.08136000.08136044","properties":{"hc-group":"admin3","hc-key":"de-bw-08136000-08136044","hc-a2":"MU","name":"Mutlangen","hc-middle-lon":9.784,"hc-middle-lat":48.833}},{"type":"Polygon","arcs":[[-938,-937,-936,2277,2278,2279,2280,2281,2282,-2155,2283,-2149,-941,-940,-939]],"id":"DE.BW.08119000.08119001","properties":{"hc-group":"admin3","hc-key":"de-bw-08119000-08119001","hc-a2":"AL","name":"Alfdorf","hc-middle-lon":9.692,"hc-middle-lat":48.86}},{"type":"Polygon","arcs":[[-2279,2284,2285,2286,2287]],"id":"DE.BW.08119000.08119076","properties":{"hc-group":"admin3","hc-key":"de-bw-08119000-08119076","hc-a2":"UR","name":"Urbach","hc-middle-lon":9.584,"hc-middle-lat":48.825}},{"type":"Polygon","arcs":[[-2184,-2182,2288,2289,2290,2291]],"id":"DE.BW.08226000.08226038","properties":{"hc-group":"admin3","hc-key":"de-bw-08226000-08226038","hc-a2":"LA","name":"Ladenburg","hc-middle-lon":8.612,"hc-middle-lat":49.472}},{"type":"Polygon","arcs":[[1024,1025,-1267]],"id":"DE.BW.08415000.08415080","properties":{"hc-group":"admin3","hc-key":"de-bw-08415000-08415080","hc-a2":"WA","name":"Wannweil","hc-middle-lon":9.155,"hc-middle-lat":48.513}},{"type":"Polygon","arcs":[[-1025,-1024,2292,2293,2294]],"id":"DE.BW.08416000.08416023","properties":{"hc-group":"admin3","hc-key":"de-bw-08416000-08416023","hc-a2":"KU","name":"Kusterdingen","hc-middle-lon":9.118,"hc-middle-lat":48.5}},{"type":"Polygon","arcs":[[-2290,2295,-623,146,2296,2297]],"id":"DE.BW.08226000.08226028","properties":{"hc-group":"admin3","hc-key":"de-bw-08226000-08226028","hc-a2":"HE","name":"Heddesheim","hc-middle-lon":8.606,"hc-middle-lat":49.512}},{"type":"Polygon","arcs":[[-2293,-1023,2298,2299,2300,2301]],"id":"DE.BW.08416000.08416015","properties":{"hc-group":"admin3","hc-key":"de-bw-08416000-08416015","hc-a2":"GO","name":"Gomaringen","hc-middle-lon":9.135,"hc-middle-lat":48.466}},{"type":"Polygon","arcs":[[-2296,-2289,-2181,-624]],"id":"DE.BW.08226000.08226036","properties":{"hc-group":"admin3","hc-key":"de-bw-08226000-08226036","hc-a2":"IL","name":"Ilvesheim","hc-middle-lon":8.564,"hc-middle-lat":49.476}},{"type":"Polygon","arcs":[[-2299,-1022,-1021,-1040,-1039,2302,2303,2304]],"id":"DE.BW.08416000.08416025","properties":{"hc-group":"admin3","hc-key":"de-bw-08416000-08416025","hc-a2":"MÖ","name":"Mössingen","hc-middle-lon":9.076,"hc-middle-lat":48.395}},{"type":"Polygon","arcs":[[2305,2306,2307,2308,2309,2310]],"id":"DE.BW.08425000.08425022","properties":{"hc-group":"admin3","hc-key":"de-bw-08425000-08425022","hc-a2":"BÖ","name":"Börslingen","hc-middle-lon":10.059,"hc-middle-lat":48.545}},{"type":"Polygon","arcs":[[-2306,2311,-1245,2312,-895,2313]],"id":"DE.BW.08425000.08425005","properties":{"hc-group":"admin3","hc-key":"de-bw-08425000-08425005","hc-a2":"A(","name":"Altheim (Alb)","hc-middle-lon":10.043,"hc-middle-lat":48.573}},{"type":"Polygon","arcs":[[-1635,2314,-1206,2315,2316,-406,2317,2318,2319]],"id":"DE.BW.08337000.08337128","properties":{"hc-group":"admin3","hc-key":"de-bw-08337000-08337128","hc-a2":"ÜB","name":"Ühlingen-Birkendorf","hc-middle-lon":8.267,"hc-middle-lat":47.712}},{"type":"Polygon","arcs":[[-2319,2320,-404,-403,-402,2321,2322]],"id":"DE.BW.08337000.08337022","properties":{"hc-group":"admin3","hc-key":"de-bw-08337000-08337022","hc-a2":"BI","name":"Bonndorf im Schwarzwald","hc-middle-lon":8.33,"hc-middle-lat":47.816}},{"type":"MultiPolygon","arcs":[[[2323,2324,-1533,2325,2326,2327,2328]],[[2329,2330]]],"id":"DE.BW.08315000.08315020","properties":{"hc-group":"admin3","hc-key":"de-bw-08315000-08315020","hc-a2":"BU","name":"Buchenbach","hc-middle-lon":8.012,"hc-middle-lat":47.945}},{"type":"Polygon","arcs":[[-1534,-2325,2331,2332,2333]],"id":"DE.BW.08315000.08315016","properties":{"hc-group":"admin3","hc-key":"de-bw-08315000-08315016","hc-a2":"BR","name":"Breitnau","hc-middle-lon":8.085,"hc-middle-lat":47.941}},{"type":"Polygon","arcs":[[542,2334,2335]],"id":"DE.BW.08226000.08226102","properties":{"hc-group":"admin3","hc-key":"de-bw-08226000-08226102","hc-a2":"AN","name":"Angelbachtal","hc-middle-lon":8.742,"hc-middle-lat":49.238}},{"type":"Polygon","arcs":[[-543,-542,-560,2336,2337,-1815,-544]],"id":"DE.BW.08215000.08215064","properties":{"hc-group":"admin3","hc-key":"de-bw-08215000-08215064","hc-a2":"ÖS","name":"Östringen","hc-middle-lon":8.748,"hc-middle-lat":49.189}},{"type":"Polygon","arcs":[[2338,2339,-2079,2340]],"id":"DE.BW.08426000.08426058","properties":{"hc-group":"admin3","hc-key":"de-bw-08426000-08426058","hc-a2":"HO","name":"Hochdorf","hc-middle-lon":9.81,"hc-middle-lat":48.042}},{"type":"Polygon","arcs":[[-2339,2341,2342,2343,2344,2345,2346,2347,2348,2349,2350,-2084,2351]],"id":"DE.BW.08426000.08426021","properties":{"hc-group":"admin3","hc-key":"de-bw-08426000-08426021","hc-a2":"BA","name":"Biberach an der Riß","hc-middle-lon":9.819,"hc-middle-lat":48.092}},{"type":"Polygon","arcs":[[529,2352,2353,2354,-2202,-913,-912]],"id":"DE.BW.08115000.08115028","properties":{"hc-group":"admin3","hc-key":"de-bw-08115000-08115028","hc-a2":"LE","name":"Leonberg","hc-middle-lon":9.038,"hc-middle-lat":48.792}},{"type":"Polygon","arcs":[[-1733,-1729,-1272,2355,2356,2357,-780,-779,2358,2359]],"id":"DE.BW.08336000.08336107","properties":{"hc-group":"admin3","hc-key":"de-bw-08336000-08336107","hc-a2":"KW","name":"Kleines Wiesental","hc-middle-lon":7.797,"hc-middle-lat":47.771}},{"type":"Polygon","arcs":[[-2360,2360,-1731,-1734]],"id":"DE.BW.08336000.08336010","properties":{"hc-group":"admin3","hc-key":"de-bw-08336000-08336010","hc-a2":"BÖ","name":"Böllen","hc-middle-lon":7.847,"hc-middle-lat":47.797}},{"type":"Polygon","arcs":[[-2110,2361,-693,2362,2363,2364]],"id":"DE.BW.08125000.08125110","properties":{"hc-group":"admin3","hc-key":"de-bw-08125000-08125110","hc-a2":"OB","name":"Obersulm","hc-middle-lon":9.422,"hc-middle-lat":49.127}},{"type":"Polygon","arcs":[[-1843,2365,-1848,2366,2367,-1846,-1852]],"id":"DE.BW.08436000.08436032","properties":{"hc-group":"admin3","hc-key":"de-bw-08436000-08436032","hc-a2":"FL","name":"Fleischwangen","hc-middle-lon":9.478,"hc-middle-lat":47.881}},{"type":"Polygon","arcs":[[-2366,-1842,2368,2369,2370,2371,-1849]],"id":"DE.BW.08436000.08436024","properties":{"hc-group":"admin3","hc-key":"de-bw-08436000-08436024","hc-a2":"EB","name":"Ebenweiler","hc-middle-lon":9.511,"hc-middle-lat":47.903}},{"type":"Polygon","arcs":[[535,2372,2373,2374,-932]],"id":"DE.BW.08128000.08128082","properties":{"hc-group":"admin3","hc-key":"de-bw-08128000-08128082","hc-a2":"NI","name":"Niederstetten","hc-middle-lon":9.91,"hc-middle-lat":49.403}},{"type":"Polygon","arcs":[[-536,-716,-715,-714,2375,2376,2377,-537]],"id":"DE.BW.08126000.08126056","properties":{"hc-group":"admin3","hc-key":"de-bw-08126000-08126056","hc-a2":"MU","name":"Mulfingen","hc-middle-lon":9.795,"hc-middle-lat":49.345}},{"type":"Polygon","arcs":[[713,-1466,-1438,2378,2379,712]],"id":"DE.BW.08127000.08127047","properties":{"hc-group":"admin3","hc-key":"de-bw-08127000-08127047","hc-a2":"LA","name":"Langenburg","hc-middle-lon":9.872,"hc-middle-lat":49.275}},{"type":"Polygon","arcs":[[2380,2381,2382,2383,2384]],"id":"DE.BW.08436000.08436013","properties":{"hc-group":"admin3","hc-key":"de-bw-08436000-08436013","hc-a2":"BE","name":"Berg","hc-middle-lon":9.553,"hc-middle-lat":47.839}},{"type":"Polygon","arcs":[[-2381,2385,2386,2387,2388,2389]],"id":"DE.BW.08436000.08436011","properties":{"hc-group":"admin3","hc-key":"de-bw-08436000-08436011","hc-a2":"BA","name":"Baienfurt","hc-middle-lon":9.669,"hc-middle-lat":47.826}},{"type":"Polygon","arcs":[[715,931,932,213,-1467]],"id":"DE.BW.08127000.08127075","properties":{"hc-group":"admin3","hc-key":"de-bw-08127000-08127075","hc-a2":"SC","name":"Schrozberg","hc-middle-lon":10.019,"hc-middle-lat":49.348}},{"type":"Polygon","arcs":[[2390,-1707,2391]],"id":"DE.BW.08425000.08425104","properties":{"hc-group":"admin3","hc-key":"de-bw-08425000-08425104","hc-a2":"RO","name":"Rottenacker","hc-middle-lon":9.687,"hc-middle-lat":48.234}},{"type":"Polygon","arcs":[[-2391,2392,2393,2394,-1857,-1856,-1708]],"id":"DE.BW.08425000.08425081","properties":{"hc-group":"admin3","hc-key":"de-bw-08425000-08425081","hc-a2":"MU","name":"Munderkingen","hc-middle-lon":9.643,"hc-middle-lat":48.233}},{"type":"Polygon","arcs":[[-2393,-2392,-1706,644,2395,2396]],"id":"DE.BW.08425000.08425124","properties":{"hc-group":"admin3","hc-key":"de-bw-08425000-08425124","hc-a2":"UN","name":"Unterstadion","hc-middle-lon":9.675,"hc-middle-lat":48.205}},{"type":"Polygon","arcs":[[-645,-644,2397,2398,2399,2400,-2349,2401,-646]],"id":"DE.BW.08426000.08426134","properties":{"hc-group":"admin3","hc-key":"de-bw-08426000-08426134","hc-a2":"SC","name":"Schemmerhofen","hc-middle-lon":9.786,"hc-middle-lat":48.182}},{"type":"Polygon","arcs":[[-1847,-2368,2402,2403,442,-456,-455,-2093]],"id":"DE.BW.08436000.08436083","properties":{"hc-group":"admin3","hc-key":"de-bw-08436000-08436083","hc-a2":"WI","name":"Wilhelmsdorf","hc-middle-lon":9.418,"hc-middle-lat":47.863}},{"type":"MultiPolygon","arcs":[[[-2297,147,-1088,226,2404,2405,2406]],[[2407,2408,2409]]],"id":"DE.BW.08226000.08226096","properties":{"hc-group":"admin3","hc-key":"de-bw-08226000-08226096","hc-a2":"WE","name":"Weinheim","hc-middle-lon":8.655,"hc-middle-lat":49.56}},{"type":"Polygon","arcs":[[451,452,453,454,2410,2411,-1596,2412,-1594,2413,2414,2415,449,450]],"id":"DE.BW.08437000.08437086","properties":{"hc-group":"admin3","hc-key":"de-bw-08437000-08437086","hc-a2":"OS","name":"Ostrach","hc-middle-lon":9.349,"hc-middle-lat":47.956}},{"type":"Polygon","arcs":[[2416,-965,-1631,2417]],"id":"DE.BW.08225000.08225113","properties":{"hc-group":"admin3","hc-key":"de-bw-08225000-08225113","hc-a2":"ZW","name":"Zwingenberg","hc-middle-lon":9.035,"hc-middle-lat":49.42}},{"type":"Polygon","arcs":[[-2417,2418,2419,2420,-1910,-968,-967,-966]],"id":"DE.BW.08225000.08225068","properties":{"hc-group":"admin3","hc-key":"de-bw-08225000-08225068","hc-a2":"NE","name":"Neunkirchen","hc-middle-lon":9.016,"hc-middle-lat":49.395}},{"type":"Polygon","arcs":[[539,-1681,2421,538]],"id":"DE.BW.08128000.08128006","properties":{"hc-group":"admin3","hc-key":"de-bw-08128000-08128006","hc-a2":"AS","name":"Assamstadt","hc-middle-lon":9.707,"hc-middle-lat":49.436}},{"type":"Polygon","arcs":[[-540,2422,2423,2424,627,-541]],"id":"DE.BW.08126000.08126045","properties":{"hc-group":"admin3","hc-key":"de-bw-08126000-08126045","hc-a2":"KR","name":"Krautheim","hc-middle-lon":9.639,"hc-middle-lat":49.386}},{"type":"Polygon","arcs":[[-2425,2425,2426,2427,2428,2429,701,702,625,626]],"id":"DE.BW.08126000.08126072","properties":{"hc-group":"admin3","hc-key":"de-bw-08126000-08126072","hc-a2":"SC","name":"Schöntal","hc-middle-lon":9.531,"hc-middle-lat":49.341}},{"type":"Polygon","arcs":[[-539,-538,-2378,2430,-2423]],"id":"DE.BW.08126000.08126020","properties":{"hc-group":"admin3","hc-key":"de-bw-08126000-08126020","hc-a2":"DÖ","name":"Dörzbach","hc-middle-lon":9.72,"hc-middle-lat":49.374}},{"type":"Polygon","arcs":[[-1867,2431,2432,2433,2434]],"id":"DE.BW.08436000.08436079","properties":{"hc-group":"admin3","hc-key":"de-bw-08436000-08436079","hc-a2":"WA","name":"Waldburg","hc-middle-lon":9.75,"hc-middle-lat":47.765}},{"type":"Polygon","arcs":[[-1500,2435,2436,2437,2438]],"id":"DE.BW.08127000.08127089","properties":{"hc-group":"admin3","hc-key":"de-bw-08127000-08127089","hc-a2":"VE","name":"Vellberg","hc-middle-lon":9.904,"hc-middle-lat":49.103}},{"type":"MultiPolygon","arcs":[[[-1837,-2095,-451,2439]],[[-2094,-453]]],"id":"DE.BW.08436000.08436053","properties":{"hc-group":"admin3","hc-key":"de-bw-08436000-08436053","hc-a2":"KÖ","name":"Königseggwald","hc-middle-lon":9.428,"hc-middle-lat":47.929}},{"type":"Polygon","arcs":[[-842,2440,2441,2442,2443]],"id":"DE.BW.08437000.08437114","properties":{"hc-group":"admin3","hc-key":"de-bw-08437000-08437114","hc-a2":"VE","name":"Veringenstadt","hc-middle-lon":9.24,"hc-middle-lat":48.186}},{"type":"Polygon","arcs":[[841,842,843,2444,2445,2446,840]],"id":"DE.BW.08417000.08417075","properties":{"hc-group":"admin3","hc-key":"de-bw-08417000-08417075","hc-a2":"WI","name":"Winterlingen","hc-middle-lon":9.116,"hc-middle-lat":48.181}},{"type":"MultiPolygon","arcs":[[[-1375,173,2447]],[[178,2448,2449]],[[-1377,2450]],[[171,-1379]],[[2451,175]],[[176,2452]]],"id":"DE.BW.08335000.08335066","properties":{"hc-group":"admin3","hc-key":"de-bw-08335000-08335066","hc-a2":"RE","name":"Reichenau","hc-middle-lon":9.058,"hc-middle-lat":47.696}},{"type":"Polygon","arcs":[[2453,2454,2455,2456,-2388]],"id":"DE.BW.08436000.08436014","properties":{"hc-group":"admin3","hc-key":"de-bw-08436000-08436014","hc-a2":"BE","name":"Bergatreute","hc-middle-lon":9.772,"hc-middle-lat":47.84}},{"type":"Polygon","arcs":[[-2454,-2387,2457,2458,2459]],"id":"DE.BW.08436000.08436012","properties":{"hc-group":"admin3","hc-key":"de-bw-08436000-08436012","hc-a2":"BA","name":"Baindt","hc-middle-lon":9.684,"hc-middle-lat":47.864}},{"type":"Polygon","arcs":[[-2458,-2386,-2385,2460,-2403,-2367,-1850,-2372,2461,2462]],"id":"DE.BW.08436000.08436096","properties":{"hc-group":"admin3","hc-key":"de-bw-08436000-08436096","hc-a2":"FR","name":"Fronreute","hc-middle-lon":9.538,"hc-middle-lat":47.878}},{"type":"Polygon","arcs":[[-1478,2463,2464,-1585,-1428,2465,2466,-1832]],"id":"DE.BW.08226000.08226098","properties":{"hc-group":"admin3","hc-key":"de-bw-08226000-08226098","hc-a2":"WI","name":"Wiesloch","hc-middle-lon":8.714,"hc-middle-lat":49.301}},{"type":"Polygon","arcs":[[2467,-1134,2468,184]],"id":"DE.BW.08335000.08335100","properties":{"hc-group":"admin3","hc-key":"de-bw-08335000-08335100","hc-a2":"RW","name":"Rielasingen-Worblingen","hc-middle-lon":8.871,"hc-middle-lat":47.72}},{"type":"Polygon","arcs":[[-2468,185,2469,187,-1135]],"id":"DE.BW.08335000.08335028","properties":{"hc-group":"admin3","hc-key":"de-bw-08335000-08335028","hc-a2":"GO","name":"Gottmadingen","hc-middle-lon":8.758,"hc-middle-lat":47.732}},{"type":"Polygon","arcs":[[2470,-769,-768,2471,2472,2473]],"id":"DE.BW.08437000.08437101","properties":{"hc-group":"admin3","hc-key":"de-bw-08437000-08437101","hc-a2":"SC","name":"Scheer","hc-middle-lon":9.309,"hc-middle-lat":48.082}},{"type":"Polygon","arcs":[[-2471,2474,2475,-2443,2476,-770]],"id":"DE.BW.08437000.08437008","properties":{"hc-group":"admin3","hc-key":"de-bw-08437000-08437008","hc-a2":"BI","name":"Bingen","hc-middle-lon":9.241,"hc-middle-lat":48.128}},{"type":"Polygon","arcs":[[800,2477,-1599,-1598,2478,2479]],"id":"DE.BW.08437000.08437118","properties":{"hc-group":"admin3","hc-key":"de-bw-08437000-08437118","hc-a2":"WA","name":"Wald","hc-middle-lon":9.207,"hc-middle-lat":47.947}},{"type":"Polygon","arcs":[[-801,-800,-1190,2480,-802]],"id":"DE.BW.08335000.08335096","properties":{"hc-group":"admin3","hc-key":"de-bw-08335000-08335096","hc-a2":"HO","name":"Hohenfels","hc-middle-lon":9.07,"hc-middle-lat":47.895}},{"type":"Polygon","arcs":[[-2478,801,802,605,2481,-1600]],"id":"DE.BW.08437000.08437123","properties":{"hc-group":"admin3","hc-key":"de-bw-08437000-08437123","hc-a2":"SA","name":"Sauldorf","hc-middle-lon":9.076,"hc-middle-lat":47.948}},{"type":"MultiPolygon","arcs":[[[-2369,-1841,-1851,-1839,2482,-448,2483,2484,2485]],[[-445,2486]]],"id":"DE.BW.08436000.08436027","properties":{"hc-group":"admin3","hc-key":"de-bw-08436000-08436027","hc-a2":"EI","name":"Eichstegen","hc-middle-lon":9.479,"hc-middle-lat":47.929}},{"type":"Polygon","arcs":[[768,769,770,771,-979,-978,-1113,2487]],"id":"DE.BW.08426000.08426067","properties":{"hc-group":"admin3","hc-key":"de-bw-08426000-08426067","hc-a2":"LA","name":"Langenenslingen","hc-middle-lon":9.347,"hc-middle-lat":48.168}},{"type":"Polygon","arcs":[[-2477,-2442,2488,2489,-771]],"id":"DE.BW.08437000.08437047","properties":{"hc-group":"admin3","hc-key":"de-bw-08437000-08437047","hc-a2":"HE","name":"Hettingen","hc-middle-lon":9.266,"hc-middle-lat":48.203}},{"type":"MultiPolygon","arcs":[[[-1105,2490,2491,2492,84]],[[2493,2494]]],"id":"DE.BW.08426000.08426066","properties":{"hc-group":"admin3","hc-key":"de-bw-08426000-08426066","hc-a2":"KA","name":"Kirchdorf an der Iller","hc-middle-lon":10.119,"hc-middle-lat":48.06}},{"type":"Polygon","arcs":[[99,2495,2496,2497]],"id":"DE.BW.08435000.08435054","properties":{"hc-group":"admin3","hc-key":"de-bw-08435000-08435054","hc-a2":"ST","name":"Stetten","hc-middle-lon":9.3,"hc-middle-lat":47.693}},{"type":"Polygon","arcs":[[-2459,-2463,2498,2499,2500]],"id":"DE.BW.08436000.08436087","properties":{"hc-group":"admin3","hc-key":"de-bw-08436000-08436087","hc-a2":"WO","name":"Wolpertswende","hc-middle-lon":9.621,"hc-middle-lat":47.899}},{"type":"MultiPolygon","arcs":[[[-1592,2501,2502]],[[-2475,-2474,2503]]],"id":"DE.BW.08437000.08437105","properties":{"hc-group":"admin3","hc-key":"de-bw-08437000-08437105","hc-a2":"SI","name":"Sigmaringendorf","hc-middle-lon":9.264,"hc-middle-lat":48.071}},{"type":"Polygon","arcs":[[-2082,-2088,-1528,-1107]],"id":"DE.BW.08426000.08426113","properties":{"hc-group":"admin3","hc-key":"de-bw-08426000-08426113","hc-a2":"SA","name":"Steinhausen an der Rottum","hc-middle-lon":9.913,"hc-middle-lat":48.024}},{"type":"Polygon","arcs":[[-2501,2504,333,334,2505,2506,-2455,-2460]],"id":"DE.BW.08436000.08436009","properties":{"hc-group":"admin3","hc-key":"de-bw-08436000-08436009","hc-a2":"BW","name":"Bad Waldsee","hc-middle-lon":9.749,"hc-middle-lat":47.91}},{"type":"Polygon","arcs":[[2507,2508,2509]],"id":"DE.BW.08426000.08426109","properties":{"hc-group":"admin3","hc-key":"de-bw-08426000-08426109","hc-a2":"SE","name":"Seekirch","hc-middle-lon":9.642,"hc-middle-lat":48.109}},{"type":"Polygon","arcs":[[-2508,2510,2511,2512,2513]],"id":"DE.BW.08426000.08426005","properties":{"hc-group":"admin3","hc-key":"de-bw-08426000-08426005","hc-a2":"AL","name":"Alleshausen","hc-middle-lon":9.606,"hc-middle-lat":48.084}},{"type":"Polygon","arcs":[[-2444,-2476,-2504,-2473,2514,-2502,-1591,2515,-1602,2516,2517,2518,-843]],"id":"DE.BW.08437000.08437104","properties":{"hc-group":"admin3","hc-key":"de-bw-08437000-08437104","hc-a2":"SI","name":"Sigmaringen","hc-middle-lon":9.17,"hc-middle-lat":48.09}},{"type":"Polygon","arcs":[[-2480,2519,796,797,798,799]],"id":"DE.BW.08437000.08437124","properties":{"hc-group":"admin3","hc-key":"de-bw-08437000-08437124","hc-a2":"HS","name":"Herdwangen-Schönach","hc-middle-lon":9.191,"hc-middle-lat":47.868}},{"type":"Polygon","arcs":[[-2462,-2371,2520,-2485,2521,2522,2523,-2499]],"id":"DE.BW.08436000.08436005","properties":{"hc-group":"admin3","hc-key":"de-bw-08436000-08436005","hc-a2":"AL","name":"Altshausen","hc-middle-lon":9.553,"hc-middle-lat":47.926}},{"type":"MultiPolygon","arcs":[[[-2522,-2484,-447,2524]],[[-2521,-2370,-2486]]],"id":"DE.BW.08436000.08436019","properties":{"hc-group":"admin3","hc-key":"de-bw-08436000-08436019","hc-a2":"BO","name":"Boms","hc-middle-lon":9.527,"hc-middle-lat":47.968}},{"type":"Polygon","arcs":[[-2346,2525,2526,2527]],"id":"DE.BW.08426000.08426090","properties":{"hc-group":"admin3","hc-key":"de-bw-08426000-08426090","hc-a2":"OG","name":"Oggelshausen","hc-middle-lon":9.66,"hc-middle-lat":48.066}},{"type":"Polygon","arcs":[[-2526,-2345,2528,-332,-331,758,2529,2530]],"id":"DE.BW.08426000.08426014","properties":{"hc-group":"admin3","hc-key":"de-bw-08426000-08426014","hc-a2":"BS","name":"Bad Schussenried","hc-middle-lon":9.651,"hc-middle-lat":48.01}},{"type":"Polygon","arcs":[[-2397,2531,650,2532,2533,-2394]],"id":"DE.BW.08425000.08425036","properties":{"hc-group":"admin3","hc-key":"de-bw-08425000-08425036","hc-a2":"EM","name":"Emerkingen","hc-middle-lon":9.657,"hc-middle-lat":48.222}},{"type":"Polygon","arcs":[[-1868,-2435,2534,2535,2536,2537]],"id":"DE.BW.08436000.08436078","properties":{"hc-group":"admin3","hc-key":"de-bw-08436000-08436078","hc-a2":"VO","name":"Vogt","hc-middle-lon":9.764,"hc-middle-lat":47.781}},{"type":"Polygon","arcs":[[-2399,2538,2539,2540]],"id":"DE.BW.08426000.08426073","properties":{"hc-group":"admin3","hc-key":"de-bw-08426000-08426073","hc-a2":"MI","name":"Mietingen","hc-middle-lon":9.897,"hc-middle-lat":48.178}},{"type":"Polygon","arcs":[[-1838,-2440,-450,-449,-2483]],"id":"DE.BW.08436000.08436047","properties":{"hc-group":"admin3","hc-key":"de-bw-08436000-08436047","hc-a2":"HO","name":"Hoßkirch","hc-middle-lon":9.464,"hc-middle-lat":47.945}},{"type":"Polygon","arcs":[[-2530,759,2541]],"id":"DE.BW.08426000.08426006","properties":{"hc-group":"admin3","hc-key":"de-bw-08426000-08426006","hc-a2":"AL","name":"Allmannsweiler","hc-middle-lon":9.595,"hc-middle-lat":48.031}},{"type":"Polygon","arcs":[[-2384,2542,440,441,-2404,-2461]],"id":"DE.BW.08436000.08436095","properties":{"hc-group":"admin3","hc-key":"de-bw-08436000-08436095","hc-a2":"HO","name":"Horgenzell","hc-middle-lon":9.487,"hc-middle-lat":47.812}},{"type":"Polygon","arcs":[[-1137,2543,2544,2545,-2506,335,336,-1139]],"id":"DE.BW.08436000.08436010","properties":{"hc-group":"admin3","hc-key":"de-bw-08436000-08436010","hc-a2":"BW","name":"Bad Wurzach","hc-middle-lon":9.922,"hc-middle-lat":47.92}},{"type":"Polygon","arcs":[[106,430,431,2546]],"id":"DE.BW.08436000.08436001","properties":{"hc-group":"admin3","hc-key":"de-bw-08436000-08436001","hc-a2":"AC","name":"Achberg","hc-middle-lon":9.716,"hc-middle-lat":47.623}},{"type":"Polygon","arcs":[[-2547,432,-1869,-2538,2547,2548,105]],"id":"DE.BW.08436000.08436081","properties":{"hc-group":"admin3","hc-key":"de-bw-08436000-08436081","hc-a2":"WI","name":"Wangen im Allgäu","hc-middle-lon":9.814,"hc-middle-lat":47.66}},{"type":"Polygon","arcs":[[-431,92,2549,2550,2551,2552,-437,-436,-1865]],"id":"DE.BW.08435000.08435057","properties":{"hc-group":"admin3","hc-key":"de-bw-08435000-08435057","hc-a2":"TE","name":"Tettnang","hc-middle-lon":9.617,"hc-middle-lat":47.652}},{"type":"Polygon","arcs":[[-2550,93,2553]],"id":"DE.BW.08435000.08435029","properties":{"hc-group":"admin3","hc-key":"de-bw-08435000-08435029","hc-a2":"KA","name":"Kressbronn am Bodensee","hc-middle-lon":9.565,"hc-middle-lat":47.591}},{"type":"Polygon","arcs":[[-2512,2554,2555,2556]],"id":"DE.BW.08426000.08426078","properties":{"hc-group":"admin3","hc-key":"de-bw-08426000-08426078","hc-a2":"MO","name":"Moosburg","hc-middle-lon":9.598,"hc-middle-lat":48.092}},{"type":"Polygon","arcs":[[-56,263,-1644,2557,2558,2559,273]],"id":"DE.BW.08236000.08236076","properties":{"hc-group":"admin3","hc-key":"de-bw-08236000-08236076","hc-a2":"KS","name":"Königsbach-Stein","hc-middle-lon":8.666,"hc-middle-lat":48.978}},{"type":"Polygon","arcs":[[-2559,2560,-1701,498,2561,2562]],"id":"DE.BW.08236000.08236074","properties":{"hc-group":"admin3","hc-key":"de-bw-08236000-08236074","hc-a2":"KÄ","name":"Kämpfelbach","hc-middle-lon":8.625,"hc-middle-lat":48.934}},{"type":"Polygon","arcs":[[-630,2563,2564,-2086,2565,2566]],"id":"DE.BW.08426000.08426135","properties":{"hc-group":"admin3","hc-key":"de-bw-08426000-08426135","hc-a2":"GH","name":"Gutenzell-Hürbel","hc-middle-lon":9.984,"hc-middle-lat":48.128}},{"type":"Polygon","arcs":[[629,630,631,2567,154,628]],"id":"DE.BW.08425000.08425140","properties":{"hc-group":"admin3","hc-key":"de-bw-08425000-08425140","hc-a2":"BA","name":"Balzheim","hc-middle-lon":10.062,"hc-middle-lat":48.167}},{"type":"Polygon","arcs":[[-2561,-2558,-1643,-1702]],"id":"DE.BW.08236000.08236011","properties":{"hc-group":"admin3","hc-key":"de-bw-08236000-08236011","hc-a2":"EI","name":"Eisingen","hc-middle-lon":8.675,"hc-middle-lat":48.944}},{"type":"Polygon","arcs":[[-2562,499,2568,2569,269,2570]],"id":"DE.BW.08236000.08236070","properties":{"hc-group":"admin3","hc-key":"de-bw-08236000-08236070","hc-a2":"KE","name":"Keltern","hc-middle-lon":8.576,"hc-middle-lat":48.897}},{"type":"Polygon","arcs":[[-2517,-1601,-2482,606,607,2571]],"id":"DE.BW.08437000.08437072","properties":{"hc-group":"admin3","hc-key":"de-bw-08437000-08437072","hc-a2":"LE","name":"Leibertingen","hc-middle-lon":9.046,"hc-middle-lat":48.057}},{"type":"Polygon","arcs":[[-30,2572,2573,-618,-617,-616,-615,-1149,2574]],"id":"DE.BW.08216000.08216017","properties":{"hc-group":"admin3","hc-key":"de-bw-08216000-08216017","hc-a2":"GE","name":"Gernsbach","hc-middle-lon":8.446,"hc-middle-lat":48.736}},{"type":"Polygon","arcs":[[-32,-1302,-23,-1143,-21,-1144,-19,-1151,-1145,2575,303,304,305,2576,-10,-13,2577,2578,2579,2580,2581,-1303],[-16],[-17],[-1140],[-1141],[-1142]],"id":"DE.BW.08216000.08216007","properties":{"hc-group":"admin3","hc-key":"de-bw-08216000-08216007","hc-a2":"BÜ","name":"Bühl","hc-middle-lon":8.109,"hc-middle-lat":48.689}},{"type":"Polygon","arcs":[[-2118,2582,2583,2584,804]],"id":"DE.BW.08317000.08317039","properties":{"hc-group":"admin3","hc-key":"de-bw-08317000-08317039","hc-a2":"G(","name":"Gutach (Schwarzwaldbahn)","hc-middle-lon":8.237,"hc-middle-lat":48.235}},{"type":"Polygon","arcs":[[-2552,2585,95,2586,2587]],"id":"DE.BW.08435000.08435013","properties":{"hc-group":"admin3","hc-key":"de-bw-08435000-08435013","hc-a2":"ER","name":"Eriskirch","hc-middle-lon":9.532,"hc-middle-lat":47.638}},{"type":"Polygon","arcs":[[228,-1918,230,-1470,2588]],"id":"DE.BW.08226000.08226027","properties":{"hc-group":"admin3","hc-key":"de-bw-08226000-08226027","hc-a2":"HE","name":"Heddesbach","hc-middle-lon":8.832,"hc-middle-lat":49.484}},