{"type":"Topology","objects":{"default":{"type":"GeometryCollection","geometries":[{"type":"Polygon","arcs":[[1,434,-283]],"id":"DE.HE.06635000.06635014","properties":{"hc-group":"admin3","hc-key":"de-he-06635000-06635014","hc-a2":"H(","name":"Hatzfeld (Eder)","hc-middle-lon":8.524,"hc-middle-lat":50.995}},{"type":"Polygon","arcs":[[298,314,435,436,437,244,-397]],"id":"DE.HE.06435000.06435004","properties":{"hc-group":"admin3","hc-key":"de-he-06435000-06435004","hc-a2":"BI","name":"Birstein","hc-middle-lon":9.317,"hc-middle-lat":50.37}},{"type":"Polygon","arcs":[[-299,-434,438,439,311,440]],"id":"DE.HE.06535000.06535007","properties":{"hc-group":"admin3","hc-key":"de-he-06535000-06535007","hc-a2":"GR","name":"Grebenhain","hc-middle-lon":9.321,"hc-middle-lat":50.491}},{"type":"Polygon","arcs":[[441,-330,442,443,444]],"id":"DE.HE.06531000.06531018","properties":{"hc-group":"admin3","hc-key":"de-he-06531000-06531018","hc-a2":"WE","name":"Wettenberg","hc-middle-lon":8.662,"hc-middle-lat":50.631}},{"type":"Polygon","arcs":[[-442,445,-144,-143,-142,-141,-153]],"id":"DE.HE.06531000.06531002","properties":{"hc-group":"admin3","hc-key":"de-he-06531000-06531002","hc-a2":"BI","name":"Biebertal","hc-middle-lon":8.578,"hc-middle-lat":50.63}},{"type":"Polygon","arcs":[[11,-130,-129,446,447]],"id":"DE.HE.06635000.06635020","properties":{"hc-group":"admin3","hc-key":"de-he-06635000-06635020","hc-a2":"VO","name":"Volkmarsen","hc-middle-lon":9.09,"hc-middle-lat":51.435}},{"type":"Polygon","arcs":[[448,449,450,12,451,14,452]],"id":"DE.HE.06437000.06437002","properties":{"hc-group":"admin3","hc-key":"de-he-06437000-06437002","hc-a2":"BE","name":"Beerfelden","hc-middle-lon":8.926,"hc-middle-lat":49.554}},{"type":"Polygon","arcs":[[-449,453,454,21,455]],"id":"DE.HE.06437000.06437006","properties":{"hc-group":"admin3","hc-key":"de-he-06437000-06437006","hc-a2":"ER","name":"Erbach","hc-middle-lon":9.005,"hc-middle-lat":49.631}},{"type":"MultiPolygon","arcs":[[[456]],[[457]],[[458]],[[459]],[[460]],[[292,461,462,463,464,465]],[[398,466]]],"id":"DE.HE.06636000.06636004","properties":{"hc-group":"admin3","hc-key":"de-he-06636000-06636004","hc-a2":"GR","name":"Großalmerode","hc-middle-lon":9.828,"hc-middle-lat":51.245}},{"type":"MultiPolygon","arcs":[[[0]],[[-293,196,467,468,-400,-399,-398]]],"id":"DE.HE.06633000.06633012","properties":{"hc-group":"admin3","hc-key":"de-he-06633000-06633012","hc-a2":"HE","name":"Helsa","hc-middle-lon":9.659,"hc-middle-lat":51.241}},{"type":"Polygon","arcs":[[401,112,469,-462,397,-467,399,400],[-457],[-458],[-459],[-460],[-461],[-1],[470]],"id":"DE.HE.06636000.06636200","properties":{"hc-group":"admin3","hc-key":"de-he-06636000-06636200","hc-a2":"GK","name":"Gutsbezirk Kaufunger Wald","hc-middle-lon":9.737,"hc-middle-lat":51.292}},{"type":"Polygon","arcs":[[-402,471,472,111]],"id":"DE.HE.06633000.06633019","properties":{"hc-group":"admin3","hc-key":"de-he-06633000-06633019","hc-a2":"NI","name":"Nieste","hc-middle-lon":9.652,"hc-middle-lat":51.309}},{"type":"Polygon","arcs":[[297,220,473,474,475,476,477,478]],"id":"DE.HE.06438000.06438011","properties":{"hc-group":"admin3","hc-key":"de-he-06438000-06438011","hc-a2":"RO","name":"Rodgau","hc-middle-lon":8.92,"hc-middle-lat":50.003}},{"type":"Polygon","arcs":[[-298,295,296,63,479,480,481,482]],"id":"DE.HE.06432000.06432002","properties":{"hc-group":"admin3","hc-key":"de-he-06432000-06432002","hc-a2":"BA","name":"Babenhausen","hc-middle-lon":8.976,"hc-middle-lat":49.971}},{"type":"Polygon","arcs":[[483,484,485,486,487,488,489]],"id":"DE.HE.06534000.06534014","properties":{"hc-group":"admin3","hc-key":"de-he-06534000-06534014","hc-a2":"MA","name":"Marburg","hc-middle-lon":8.761,"hc-middle-lat":50.803}},{"type":"Polygon","arcs":[[-484,490,491,154,492,493]],"id":"DE.HE.06534000.06534010","properties":{"hc-group":"admin3","hc-key":"de-he-06534000-06534010","hc-a2":"GL","name":"Gladenbach","hc-middle-lon":8.575,"hc-middle-lat":50.778}},{"type":"Polygon","arcs":[[494,495,-175,169,496,497]],"id":"DE.HE.06632000.06632018","properties":{"hc-group":"admin3","hc-key":"de-he-06632000-06632018","hc-a2":"RA","name":"Rotenburg a.d. Fulda","hc-middle-lon":9.745,"hc-middle-lat":51.012}},{"type":"Polygon","arcs":[[-495,498,499,500,501,502,-320,503]],"id":"DE.HE.06632000.06632012","properties":{"hc-group":"admin3","hc-key":"de-he-06632000-06632012","hc-a2":"LU","name":"Ludwigsau","hc-middle-lon":9.663,"hc-middle-lat":50.946}},{"type":"Polygon","arcs":[[184,504,505,506,507,508]],"id":"DE.HE.06533000.06533014","properties":{"hc-group":"admin3","hc-key":"de-he-06533000-06533014","hc-a2":"S(","name":"Selters (Taunus)","hc-middle-lon":8.249,"hc-middle-lat":50.355}},{"type":"Polygon","arcs":[[-185,182,509,510,511,350,-186]],"id":"DE.HE.06434000.06434013","properties":{"hc-group":"admin3","hc-key":"de-he-06434000-06434013","hc-a2":"WE","name":"Weilrod","hc-middle-lon":8.395,"hc-middle-lat":50.33}},{"type":"Polygon","arcs":[[96,512,513]],"id":"DE.HE.06433000.06433013","properties":{"hc-group":"admin3","hc-key":"de-he-06433000-06433013","hc-a2":"SA","name":"Stockstadt am Rhein","hc-middle-lon":8.414,"hc-middle-lat":49.805}},{"type":"Polygon","arcs":[[301,514,515,516,517]],"id":"DE.HE.06632000.06632011","properties":{"hc-group":"admin3","hc-key":"de-he-06632000-06632011","hc-a2":"KI","name":"Kirchheim","hc-middle-lon":9.563,"hc-middle-lat":50.851}},{"type":"Polygon","arcs":[[-302,-301,518,519,520,322]],"id":"DE.HE.06634000.06634019","properties":{"hc-group":"admin3","hc-key":"de-he-06634000-06634019","hc-a2":"OB","name":"Oberaula","hc-middle-lon":9.447,"hc-middle-lat":50.869}},{"type":"Polygon","arcs":[[27,521,522,523,524]],"id":"DE.HE.06631000.06631012","properties":{"hc-group":"admin3","hc-key":"de-he-06631000-06631012","hc-a2":"HI","name":"Hilders","hc-middle-lon":10.04,"hc-middle-lat":50.568}},{"type":"MultiPolygon","arcs":[[[525]],[[199,526,527,528,-436,315,198]],[[529,530]]],"id":"DE.HE.06435000.06435028","properties":{"hc-group":"admin3","hc-key":"de-he-06435000-06435028","hc-a2":"SA","name":"Steinau an der Straße","hc-middle-lon":9.457,"hc-middle-lat":50.332}},{"type":"MultiPolygon","arcs":[[[531]],[[532,36,533,534,-530]],[[535,536,-437,-529,537,538]]],"id":"DE.HE.06435000.06435002","properties":{"hc-group":"admin3","hc-key":"de-he-06435000-06435002","hc-a2":"BS","name":"Bad Soden-Salmünster","hc-middle-lon":9.411,"hc-middle-lat":50.284}},{"type":"Polygon","arcs":[[194,195,-198,-197,-466,539,540,541]],"id":"DE.HE.06636000.06636006","properties":{"hc-group":"admin3","hc-key":"de-he-06636000-06636006","hc-a2":"HL","name":"Hessisch Lichtenau","hc-middle-lon":9.741,"hc-middle-lat":51.194}},{"type":"Polygon","arcs":[[-195,-194,174,316,542,543]],"id":"DE.HE.06634000.06634024","properties":{"hc-group":"admin3","hc-key":"de-he-06634000-06634024","hc-a2":"SP","name":"Spangenberg","hc-middle-lon":9.692,"hc-middle-lat":51.125}},{"type":"Polygon","arcs":[[89,24,-182,544,545,546]],"id":"DE.HE.06533000.06533011","properties":{"hc-group":"admin3","hc-key":"de-he-06533000-06533011","hc-a2":"ME","name":"Mengerskirchen","hc-middle-lon":8.14,"hc-middle-lat":50.565}},{"type":"Polygon","arcs":[[547,-408,-407,290,291,275,276,548]],"id":"DE.HE.06634000.06634006","properties":{"hc-group":"admin3","hc-key":"de-he-06634000-06634006","hc-a2":"GI","name":"Gilserberg","hc-middle-lon":9.066,"hc-middle-lat":50.939}},{"type":"Polygon","arcs":[[-548,549,550,551,552,-409]],"id":"DE.HE.06634000.06634022","properties":{"hc-group":"admin3","hc-key":"de-he-06634000-06634022","hc-a2":"SC","name":"Schwalmstadt","hc-middle-lon":9.191,"hc-middle-lat":50.922}},{"type":"MultiPolygon","arcs":[[[553]],[[-501,554,555,556,557,558,559,560]]],"id":"DE.HE.06632000.06632006","properties":{"hc-group":"admin3","hc-key":"de-he-06632000-06632006","hc-a2":"FR","name":"Friedewald","hc-middle-lon":9.844,"hc-middle-lat":50.871}},{"type":"Polygon","arcs":[[561,562,563,564,565,566]],"id":"DE.HE.06535000.06535011","properties":{"hc-group":"admin3","hc-key":"de-he-06535000-06535011","hc-a2":"L(","name":"Lauterbach (Hessen)","hc-middle-lon":9.368,"hc-middle-lat":50.645}},{"type":"Polygon","arcs":[[-562,567,568,569,570]],"id":"DE.HE.06535000.06535012","properties":{"hc-group":"admin3","hc-key":"de-he-06535000-06535012","hc-a2":"L(","name":"Lautertal (Vogelsberg)","hc-middle-lon":9.294,"hc-middle-lat":50.609}},{"type":"MultiPolygon","arcs":[[[-471]],[[115,571,-463,-470,113,572]]],"id":"DE.HE.06636000.06636016","properties":{"hc-group":"admin3","hc-key":"de-he-06636000-06636016","hc-a2":"WI","name":"Witzenhausen","hc-middle-lon":9.846,"hc-middle-lat":51.327}},{"type":"Polygon","arcs":[[573,-161,-160,-159,574,575,576]],"id":"DE.HE.06532000.06532009","properties":{"hc-group":"admin3","hc-key":"de-he-06532000-06532009","hc-a2":"ES","name":"Eschenburg","hc-middle-lon":8.345,"hc-middle-lat":50.827}},{"type":"Polygon","arcs":[[-574,577,78,-347]],"id":"DE.HE.06532000.06532005","properties":{"hc-group":"admin3","hc-key":"de-he-06532000-06532005","hc-a2":"DI","name":"Dietzhölztal","hc-middle-lon":8.304,"hc-middle-lat":50.852}},{"type":"Polygon","arcs":[[578,579,580,581,159]],"id":"DE.HE.06534000.06534019","properties":{"hc-group":"admin3","hc-key":"de-he-06534000-06534019","hc-a2":"ST","name":"Steffenberg","hc-middle-lon":8.482,"hc-middle-lat":50.833}},{"type":"Polygon","arcs":[[-579,160,346,79,582,583]],"id":"DE.HE.06534000.06534005","properties":{"hc-group":"admin3","hc-key":"de-he-06534000-06534005","hc-a2":"BR","name":"Breidenbach","hc-middle-lon":8.406,"hc-middle-lat":50.884}},{"type":"Polygon","arcs":[[584,16,585,586,587,588]],"id":"DE.HE.06437000.06437013","properties":{"hc-group":"admin3","hc-key":"de-he-06437000-06437013","hc-a2":"R(","name":"Reichelsheim (Odenwald)","hc-middle-lon":8.835,"hc-middle-lat":49.69}},{"type":"Polygon","arcs":[[-585,589,-454,-453,15]],"id":"DE.HE.06437000.06437012","properties":{"hc-group":"admin3","hc-key":"de-he-06437000-06437012","hc-a2":"MO","name":"Mossautal","hc-middle-lon":8.876,"hc-middle-lat":49.647}},{"type":"MultiPolygon","arcs":[[[590]],[[591]],[[51,592,593,594,55,595,57,596,597,598,599,600,601,602,603]],[[604,605]],[[606,607]]],"id":"DE.HE.06633000.06633200","properties":{"hc-group":"admin3","hc-key":"de-he-06633000-06633200","hc-a2":"GR","name":"Gutsbezirk Reinhardswald","hc-middle-lon":9.617,"hc-middle-lat":51.436}},{"type":"Polygon","arcs":[[109,-514,608,609]],"id":"DE.HE.06433000.06433001","properties":{"hc-group":"admin3","hc-key":"de-he-06433000-06433001","hc-a2":"BA","name":"Biebesheim am Rhein","hc-middle-lon":8.428,"hc-middle-lat":49.788}},{"type":"Polygon","arcs":[[90,610,611,612]],"id":"DE.HE.06439000.06439004","properties":{"hc-group":"admin3","hc-key":"de-he-06439000-06439004","hc-a2":"GE","name":"Geisenheim","hc-middle-lon":7.962,"hc-middle-lat":49.998}},{"type":"Polygon","arcs":[[130,131,613,262]],"id":"DE.HE.06438000.06438008","properties":{"hc-group":"admin3","hc-key":"de-he-06438000-06438008","hc-a2":"MA","name":"Mühlheim am Main","hc-middle-lon":8.873,"hc-middle-lat":50.1}},{"type":"Polygon","arcs":[[-131,-294,-396,614,615,616]],"id":"DE.HE.06435000.06435019","properties":{"hc-group":"admin3","hc-key":"de-he-06435000-06435019","hc-a2":"MA","name":"Maintal","hc-middle-lon":8.834,"hc-middle-lat":50.156}},{"type":"Polygon","arcs":[[617,618,619,620,621]],"id":"DE.HE.06635000.06635010","properties":{"hc-group":"admin3","hc-key":"de-he-06635000-06635010","hc-a2":"FR","name":"Frankenau","hc-middle-lon":8.919,"hc-middle-lat":51.1}},{"type":"Polygon","arcs":[[-618,622,-279,-278,-277,623,624,625]],"id":"DE.HE.06635000.06635013","properties":{"hc-group":"admin3","hc-key":"de-he-06635000-06635013","hc-a2":"H(","name":"Haina (Kloster)","hc-middle-lon":8.986,"hc-middle-lat":51.04}},{"type":"Polygon","arcs":[[-384,-383,626,210,627,-385]],"id":"DE.HE.06432000.06432008","properties":{"hc-group":"admin3","hc-key":"de-he-06432000-06432008","hc-a2":"GR","name":"Griesheim","hc-middle-lon":8.541,"hc-middle-lat":49.849}},{"type":"Polygon","arcs":[[383,628,629,630,631,632]],"id":"DE.HE.06433000.06433006","properties":{"hc-group":"admin3","hc-key":"de-he-06433000-06433006","hc-a2":"GG","name":"Groß-Gerau","hc-middle-lon":8.473,"hc-middle-lat":49.897}},{"type":"Polygon","arcs":[[100,633,-359]],"id":"DE.HE.06439000.06439017","properties":{"hc-group":"admin3","hc-key":"de-he-06439000-06439017","hc-a2":"WA","name":"Walluf","hc-middle-lon":8.147,"hc-middle-lat":50.046}},{"type":"Polygon","arcs":[[-126,634,635,636,637,638,-127]],"id":"DE.HE.06635000.06635021","properties":{"hc-group":"admin3","hc-key":"de-he-06635000-06635021","hc-a2":"WA","name":"Waldeck","hc-middle-lon":9.026,"hc-middle-lat":51.244}},{"type":"Polygon","arcs":[[125,639,640,274,124]],"id":"DE.HE.06633000.06633018","properties":{"hc-group":"admin3","hc-key":"de-he-06633000-06633018","hc-a2":"NA","name":"Naumburg","hc-middle-lon":9.184,"hc-middle-lat":51.228}},{"type":"Polygon","arcs":[[213,641,642,643]],"id":"DE.HE.06432000.06432014","properties":{"hc-group":"admin3","hc-key":"de-he-06432000-06432014","hc-a2":"MÜ","name":"Mühltal","hc-middle-lon":8.69,"hc-middle-lat":49.81}},{"type":"Polygon","arcs":[[-214,-213,-212,-211,-210,-209,-216,-215,-220,-219,-218,-217]],"id":"DE.HE.06411000.06411000","properties":{"hc-group":"admin3","hc-key":"de-he-06411000-06411000","hc-a2":"DA","name":"Darmstadt","hc-middle-lon":8.676,"hc-middle-lat":49.9}},{"type":"Polygon","arcs":[[43,644,-134,-133,-132,-617,645,646,647,648]],"id":"DE.HE.06435000.06435014","properties":{"hc-group":"admin3","hc-key":"de-he-06435000-06435014","hc-a2":"HA","name":"Hanau","hc-middle-lon":8.942,"hc-middle-lat":50.125}},{"type":"Polygon","arcs":[[321,-521,649,650,651,652]],"id":"DE.HE.06634000.06634023","properties":{"hc-group":"admin3","hc-key":"de-he-06634000-06634023","hc-a2":"SC","name":"Schwarzenborn","hc-middle-lon":9.475,"hc-middle-lat":50.906}},{"type":"Polygon","arcs":[[-653,653,654,655,318,319,320]],"id":"DE.HE.06634000.06634011","properties":{"hc-group":"admin3","hc-key":"de-he-06634000-06634011","hc-a2":"KN","name":"Knüllwald","hc-middle-lon":9.514,"hc-middle-lat":50.992}},{"type":"Polygon","arcs":[[278,279,656,657,658,659]],"id":"DE.HE.06634000.06634027","properties":{"hc-group":"admin3","hc-key":"de-he-06634000-06634027","hc-a2":"BZ","name":"Bad Zwesten","hc-middle-lon":9.155,"hc-middle-lat":51.038}},{"type":"Polygon","arcs":[[65,161,162,660,661,662,663,-481,664]],"id":"DE.HE.06432000.06432010","properties":{"hc-group":"admin3","hc-key":"de-he-06432000-06432010","hc-a2":"GU","name":"Groß-Umstadt","hc-middle-lon":8.944,"hc-middle-lat":49.871}},{"type":"Polygon","arcs":[[-663,665,666,667]],"id":"DE.HE.06432000.06432004","properties":{"hc-group":"admin3","hc-key":"de-he-06432000-06432004","hc-a2":"DI","name":"Dieburg","hc-middle-lon":8.82,"hc-middle-lat":49.908}},{"type":"Polygon","arcs":[[-358,668,669,670,671,-207,672,673]],"id":"DE.HE.06436000.06436007","properties":{"hc-group":"admin3","hc-key":"de-he-06436000-06436007","hc-a2":"HA","name":"Hofheim am Taunus","hc-middle-lon":8.414,"hc-middle-lat":50.092}},{"type":"Polygon","arcs":[[357,371,372,373,374,375,-379,-378,-377,245,246,394,395,294,393,-228,-227,-226,-225,-230,-229]],"id":"DE.HE.06412000.06412000","properties":{"hc-group":"admin3","hc-key":"de-he-06412000-06412000","hc-a2":"FA","name":"Frankfurt am Main","hc-middle-lon":8.663,"hc-middle-lat":50.123}},{"type":"Polygon","arcs":[[31,-203,-202,674,675,676,677]],"id":"DE.HE.06631000.06631016","properties":{"hc-group":"admin3","hc-key":"de-he-06631000-06631016","hc-a2":"KA","name":"Kalbach","hc-middle-lon":9.684,"hc-middle-lat":50.405}},{"type":"MultiPolygon","arcs":[[[-594,678,53,679,680]],[[681,682]],[[683]]],"id":"DE.HE.06633000.06633027","properties":{"hc-group":"admin3","hc-key":"de-he-06633000-06633027","hc-a2":"WA","name":"Wahlsburg","hc-middle-lon":9.618,"hc-middle-lat":51.622}},{"type":"Polygon","arcs":[[684,685,686,687,688,689]],"id":"DE.HE.06633000.06633005","properties":{"hc-group":"admin3","hc-key":"de-he-06633000-06633005","hc-a2":"CA","name":"Calden","hc-middle-lon":9.374,"hc-middle-lat":51.4}},{"type":"Polygon","arcs":[[-685,690,691,129,47,692]],"id":"DE.HE.06633000.06633004","properties":{"hc-group":"admin3","hc-key":"de-he-06633000-06633004","hc-a2":"BR","name":"Breuna","hc-middle-lon":9.205,"hc-middle-lat":51.44}},{"type":"Polygon","arcs":[[693,694,695,-486]],"id":"DE.HE.06534000.06534012","properties":{"hc-group":"admin3","hc-key":"de-he-06534000-06534012","hc-a2":"LA","name":"Lahntal","hc-middle-lon":8.702,"hc-middle-lat":50.863}},{"type":"Polygon","arcs":[[-694,-485,-494,696,-580,-584,697,698]],"id":"DE.HE.06534000.06534007","properties":{"hc-group":"admin3","hc-key":"de-he-06534000-06534007","hc-a2":"DA","name":"Dautphetal","hc-middle-lon":8.558,"hc-middle-lat":50.849}},{"type":"Polygon","arcs":[[699,700,701,702,703]],"id":"DE.HE.06532000.06532001","properties":{"hc-group":"admin3","hc-key":"de-he-06532000-06532001","hc-a2":"Aß","name":"Aßlar","hc-middle-lon":8.47,"hc-middle-lat":50.599}},{"type":"Polygon","arcs":[[-700,704,705,141,706]],"id":"DE.HE.06532000.06532013","properties":{"hc-group":"admin3","hc-key":"de-he-06532000-06532013","hc-a2":"HO","name":"Hohenahr","hc-middle-lon":8.485,"hc-middle-lat":50.673}},{"type":"Polygon","arcs":[[-329,-328,707,708,-443]],"id":"DE.HE.06531000.06531013","properties":{"hc-group":"admin3","hc-key":"de-he-06531000-06531013","hc-a2":"LO","name":"Lollar","hc-middle-lon":8.719,"hc-middle-lat":50.668}},{"type":"Polygon","arcs":[[328,329,152,153,-492,709,710]],"id":"DE.HE.06534000.06534013","properties":{"hc-group":"admin3","hc-key":"de-he-06534000-06534013","hc-a2":"LO","name":"Lohra","hc-middle-lon":8.605,"hc-middle-lat":50.736}},{"type":"Polygon","arcs":[[37,711,712,713,714,-534]],"id":"DE.HE.06435000.06435016","properties":{"hc-group":"admin3","hc-key":"de-he-06435000-06435016","hc-a2":"JO","name":"Jossgrund","hc-middle-lon":9.456,"hc-middle-lat":50.17}},{"type":"Polygon","arcs":[[-375,715,716,-367,-366,717]],"id":"DE.HE.06436000.06436011","properties":{"hc-group":"admin3","hc-key":"de-he-06436000-06436011","hc-a2":"SA","name":"Schwalbach am Taunus","hc-middle-lon":8.534,"hc-middle-lat":50.147}},{"type":"Polygon","arcs":[[-716,-374,718,719]],"id":"DE.HE.06436000.06436012","properties":{"hc-group":"admin3","hc-key":"de-he-06436000-06436012","hc-a2":"S(","name":"Sulzbach (Taunus)","hc-middle-lon":8.529,"hc-middle-lat":50.132}},{"type":"Polygon","arcs":[[720,283,284,285,721]],"id":"DE.HE.06534000.06534015","properties":{"hc-group":"admin3","hc-key":"de-he-06534000-06534015","hc-a2":"MÜ","name":"Münchhausen","hc-middle-lon":8.677,"hc-middle-lat":50.954}},{"type":"Polygon","arcs":[[-721,722,-698,-583,80,282]],"id":"DE.HE.06534000.06534004","properties":{"hc-group":"admin3","hc-key":"de-he-06534000-06534004","hc-a2":"BI","name":"Biedenkopf","hc-middle-lon":8.499,"hc-middle-lat":50.931}},{"type":"Polygon","arcs":[[123,-174,-173,-172,723,724,725,726]],"id":"DE.HE.06636000.06636011","properties":{"hc-group":"admin3","hc-key":"de-he-06636000-06636011","hc-a2":"SO","name":"Sontra","hc-middle-lon":9.96,"hc-middle-lat":51.072}},{"type":"Polygon","arcs":[[-697,-493,155,156,727,-581]],"id":"DE.HE.06534000.06534003","properties":{"hc-group":"admin3","hc-key":"de-he-06534000-06534003","hc-a2":"BE","name":"Bad Endbach","hc-middle-lon":8.508,"hc-middle-lat":50.774}},{"type":"Polygon","arcs":[[-268,-267,-266,728,729,730]],"id":"DE.HE.06634000.06634008","properties":{"hc-group":"admin3","hc-key":"de-he-06634000-06634008","hc-a2":"GU","name":"Guxhagen","hc-middle-lon":9.513,"hc-middle-lat":51.199}},{"type":"Polygon","arcs":[[267,268,731,252,732]],"id":"DE.HE.06633000.06633003","properties":{"hc-group":"admin3","hc-key":"de-he-06633000-06633003","hc-a2":"BA","name":"Baunatal","hc-middle-lon":9.405,"hc-middle-lat":51.252}},{"type":"Polygon","arcs":[[733,734,735,-523,736,737,738]],"id":"DE.HE.06631000.06631021","properties":{"hc-group":"admin3","hc-key":"de-he-06631000-06631021","hc-a2":"P(","name":"Poppenhausen (Wasserkuppe)","hc-middle-lon":9.888,"hc-middle-lat":50.502}},{"type":"Polygon","arcs":[[-734,739,740,741,742,743]],"id":"DE.HE.06631000.06631017","properties":{"hc-group":"admin3","hc-key":"de-he-06631000-06631017","hc-a2":"KÜ","name":"Künzell","hc-middle-lon":9.769,"hc-middle-lat":50.518}},{"type":"MultiPolygon","arcs":[[[378,363,744,745]],[[746,747]]],"id":"DE.HE.06434000.06434010","properties":{"hc-group":"admin3","hc-key":"de-he-06434000-06434010","hc-a2":"S(","name":"Steinbach (Taunus)","hc-middle-lon":8.572,"hc-middle-lat":50.173}},{"type":"Polygon","arcs":[[-745,364,365,748,749,-747,750]],"id":"DE.HE.06434000.06434006","properties":{"hc-group":"admin3","hc-key":"de-he-06434000-06434006","hc-a2":"KI","name":"Kronberg im Taunus","hc-middle-lon":8.541,"hc-middle-lat":50.175}},{"type":"Polygon","arcs":[[-465,751,752,753,-540]],"id":"DE.HE.06636000.06636002","properties":{"hc-group":"admin3","hc-key":"de-he-06636000-06636002","hc-a2":"BE","name":"Berkatal","hc-middle-lon":9.947,"hc-middle-lat":51.242}},{"type":"Polygon","arcs":[[754,755,-245,-244,-243,756]],"id":"DE.HE.06440000.06440013","properties":{"hc-group":"admin3","hc-key":"de-he-06440000-06440013","hc-a2":"KE","name":"Kefenrod","hc-middle-lon":9.194,"hc-middle-lat":50.348}},{"type":"Polygon","arcs":[[-755,757,758,759,760,761,762]],"id":"DE.HE.06440000.06440019","properties":{"hc-group":"admin3","hc-key":"de-he-06440000-06440019","hc-a2":"OR","name":"Ortenberg","hc-middle-lon":9.078,"hc-middle-lat":50.358}},{"type":"Polygon","arcs":[[76,763,764,765,766]],"id":"DE.HE.06532000.06532004","properties":{"hc-group":"admin3","hc-key":"de-he-06532000-06532004","hc-a2":"BR","name":"Breitscheid","hc-middle-lon":8.184,"hc-middle-lat":50.702}},{"type":"Polygon","arcs":[[-765,767,-576,768,769]],"id":"DE.HE.06532000.06532006","properties":{"hc-group":"admin3","hc-key":"de-he-06532000-06532006","hc-a2":"DI","name":"Dillenburg","hc-middle-lon":8.305,"hc-middle-lat":50.748}},{"type":"Polygon","arcs":[[-612,770,92,771]],"id":"DE.HE.06439000.06439010","properties":{"hc-group":"admin3","hc-key":"de-he-06439000-06439010","hc-a2":"LO","name":"Lorch","hc-middle-lon":7.817,"hc-middle-lat":50.07}},{"type":"Polygon","arcs":[[384,385,772,-609,-513,97,773,-629]],"id":"DE.HE.06433000.06433011","properties":{"hc-group":"admin3","hc-key":"de-he-06433000-06433011","hc-a2":"RI","name":"Riedstadt","hc-middle-lon":8.401,"hc-middle-lat":49.838}},{"type":"Polygon","arcs":[[-475,774,775,776]],"id":"DE.HE.06438000.06438001","properties":{"hc-group":"admin3","hc-key":"de-he-06438000-06438001","hc-a2":"DI","name":"Dietzenbach","hc-middle-lon":8.816,"hc-middle-lat":50.018}},{"type":"Polygon","arcs":[[-627,-382,-381,777,209]],"id":"DE.HE.06432000.06432023","properties":{"hc-group":"admin3","hc-key":"de-he-06432000-06432023","hc-a2":"WE","name":"Weiterstadt","hc-middle-lon":8.624,"hc-middle-lat":49.919}},{"type":"Polygon","arcs":[[380,778,-632,779,780,227,-393,-392,-391,379]],"id":"DE.HE.06433000.06433008","properties":{"hc-group":"admin3","hc-key":"de-he-06433000-06433008","hc-a2":"MW","name":"Mörfelden-Walldorf","hc-middle-lon":8.571,"hc-middle-lat":49.984}},{"type":"Polygon","arcs":[[-780,-631,781,782]],"id":"DE.HE.06433000.06433009","properties":{"hc-group":"admin3","hc-key":"de-he-06433000-06433009","hc-a2":"NA","name":"Nauheim","hc-middle-lon":8.449,"hc-middle-lat":49.94}},{"type":"Polygon","arcs":[[392,-394,258,783,784]],"id":"DE.HE.06438000.06438009","properties":{"hc-group":"admin3","hc-key":"de-he-06438000-06438009","hc-a2":"NI","name":"Neu-Isenburg","hc-middle-lon":8.7,"hc-middle-lat":50.055}},{"type":"Polygon","arcs":[[-395,230,231,785,-615]],"id":"DE.HE.06435000.06435022","properties":{"hc-group":"admin3","hc-key":"de-he-06435000-06435022","hc-a2":"NI","name":"Niederdorfelden","hc-middle-lon":8.805,"hc-middle-lat":50.183}},{"type":"Polygon","arcs":[[42,-649,786,787,788,789]],"id":"DE.HE.06435000.06435023","properties":{"hc-group":"admin3","hc-key":"de-he-06435000-06435023","hc-a2":"RO","name":"Rodenbach","hc-middle-lon":9.056,"hc-middle-lat":50.119}},{"type":"Polygon","arcs":[[-787,-648,790,791,792]],"id":"DE.HE.06435000.06435007","properties":{"hc-group":"admin3","hc-key":"de-he-06435000-06435007","hc-a2":"ER","name":"Erlensee","hc-middle-lon":8.987,"hc-middle-lat":50.158}},{"type":"MultiPolygon","arcs":[[[793,794,795,180,181,796,797]],[[26,24]]],"id":"DE.HE.06532000.06532010","properties":{"hc-group":"admin3","hc-key":"de-he-06532000-06532010","hc-a2":"GR","name":"Greifenstein","hc-middle-lon":8.282,"hc-middle-lat":50.601}},{"type":"Polygon","arcs":[[-794,798,799,800]],"id":"DE.HE.06532000.06532020","properties":{"hc-group":"admin3","hc-key":"de-he-06532000-06532020","hc-a2":"SI","name":"Sinn","hc-middle-lon":8.322,"hc-middle-lat":50.641}},{"type":"Polygon","arcs":[[801,326,327,-711,802]],"id":"DE.HE.06534000.06534009","properties":{"hc-group":"admin3","hc-key":"de-he-06534000-06534009","hc-a2":"FR","name":"Fronhausen","hc-middle-lon":8.707,"hc-middle-lat":50.703}},{"type":"Polygon","arcs":[[-802,803,-489,804,805,415,323,324,325]],"id":"DE.HE.06534000.06534008","properties":{"hc-group":"admin3","hc-key":"de-he-06534000-06534008","hc-a2":"EB","name":"Ebsdorfergrund","hc-middle-lon":8.833,"hc-middle-lat":50.725}},{"type":"Polygon","arcs":[[-804,-803,-710,-491,-490]],"id":"DE.HE.06534000.06534020","properties":{"hc-group":"admin3","hc-key":"de-he-06534000-06534020","hc-a2":"W(","name":"Weimar (Lahn)","hc-middle-lon":8.705,"hc-middle-lat":50.746}},{"type":"Polygon","arcs":[[806,807,71,808]],"id":"DE.HE.06631000.06631022","properties":{"hc-group":"admin3","hc-key":"de-he-06631000-06631022","hc-a2":"RA","name":"Rasdorf","hc-middle-lon":9.933,"hc-middle-lat":50.731}},{"type":"Polygon","arcs":[[-807,809,810,811,812,-304,813,814]],"id":"DE.HE.06631000.06631015","properties":{"hc-group":"admin3","hc-key":"de-he-06631000-06631015","hc-a2":"HÜ","name":"Hünfeld","hc-middle-lon":9.693,"hc-middle-lat":50.65}},{"type":"Polygon","arcs":[[145,146,815,816,817,-701,-707,142,818]],"id":"DE.HE.06532000.06532023","properties":{"hc-group":"admin3","hc-key":"de-he-06532000-06532023","hc-a2":"WE","name":"Wetzlar","hc-middle-lon":8.525,"hc-middle-lat":50.556}},{"type":"Polygon","arcs":[[-146,-145,-446,-445,819]],"id":"DE.HE.06531000.06531007","properties":{"hc-group":"admin3","hc-key":"de-he-06531000-06531007","hc-a2":"HE","name":"Heuchelheim","hc-middle-lon":8.618,"hc-middle-lat":50.59}},{"type":"Polygon","arcs":[[140,-706,820,821,-156,-155,-154]],"id":"DE.HE.06532000.06532002","properties":{"hc-group":"admin3","hc-key":"de-he-06532000-06532002","hc-a2":"BI","name":"Bischoffen","hc-middle-lon":8.505,"hc-middle-lat":50.715}},{"type":"Polygon","arcs":[[144,-819,143]],"id":"DE.HE.06532000.06532015","properties":{"hc-group":"admin3","hc-key":"de-he-06532000-06532015","hc-a2":"LA","name":"Lahnau","hc-middle-lon":8.605,"hc-middle-lat":50.584}},{"type":"Polygon","arcs":[[822,823,824,825,8]],"id":"DE.HE.06635000.06635007","properties":{"hc-group":"admin3","hc-key":"de-he-06635000-06635007","hc-a2":"DI","name":"Diemelsee","hc-middle-lon":8.77,"hc-middle-lat":51.34}},{"type":"Polygon","arcs":[[-823,9,826,-447,-128,-639,827]],"id":"DE.HE.06635000.06635002","properties":{"hc-group":"admin3","hc-key":"de-he-06635000-06635002","hc-a2":"BA","name":"Bad Arolsen","hc-middle-lon":8.973,"hc-middle-lat":51.414}},{"type":"Polygon","arcs":[[828,829,830,831]],"id":"DE.HE.06533000.06533019","properties":{"hc-group":"admin3","hc-key":"de-he-06533000-06533019","hc-a2":"WE","name":"Weinbach","hc-middle-lon":8.283,"hc-middle-lat":50.429}},{"type":"Polygon","arcs":[[-829,832,833,834,835]],"id":"DE.HE.06533000.06533013","properties":{"hc-group":"admin3","hc-key":"de-he-06533000-06533013","hc-a2":"RU","name":"Runkel","hc-middle-lon":8.17,"hc-middle-lat":50.421}},{"type":"Polygon","arcs":[[836,837,838,839,840,-236]],"id":"DE.HE.06440000.06440001","properties":{"hc-group":"admin3","hc-key":"de-he-06440000-06440001","hc-a2":"AL","name":"Altenstadt","hc-middle-lon":8.951,"hc-middle-lat":50.29}},{"type":"Polygon","arcs":[[-837,-235,-234,841,842,843,844]],"id":"DE.HE.06440000.06440017","properties":{"hc-group":"admin3","hc-key":"de-he-06440000-06440017","hc-a2":"NI","name":"Niddatal","hc-middle-lon":8.805,"hc-middle-lat":50.288}},{"type":"Polygon","arcs":[[845,846,-345,-344,-343,847]],"id":"DE.HE.06440000.06440023","properties":{"hc-group":"admin3","hc-key":"de-he-06440000-06440023","hc-a2":"RV","name":"Rosbach v.d. Höhe","hc-middle-lon":8.686,"hc-middle-lat":50.287}},{"type":"Polygon","arcs":[[-846,848,-843,849]],"id":"DE.HE.06440000.06440025","properties":{"hc-group":"admin3","hc-key":"de-he-06440000-06440025","hc-a2":"WÖ","name":"Wöllstadt","hc-middle-lon":8.759,"hc-middle-lat":50.282}},{"type":"Polygon","arcs":[[-844,-849,-848,-342,850,851,852,853,854]],"id":"DE.HE.06440000.06440008","properties":{"hc-group":"admin3","hc-key":"de-he-06440000-06440008","hc-a2":"F(","name":"Friedberg (Hessen)","hc-middle-lon":8.765,"hc-middle-lat":50.333}},{"type":"Polygon","arcs":[[341,342,855,856,857,858,340]],"id":"DE.HE.06434000.06434012","properties":{"hc-group":"admin3","hc-key":"de-he-06434000-06434012","hc-a2":"WE","name":"Wehrheim","hc-middle-lon":8.573,"hc-middle-lat":50.302}},{"type":"Polygon","arcs":[[-720,859,860,-368,-717]],"id":"DE.HE.06436000.06436001","properties":{"hc-group":"admin3","hc-key":"de-he-06436000-06436001","hc-a2":"BS","name":"Bad Soden am Taunus","hc-middle-lon":8.461,"hc-middle-lat":50.165}},{"type":"Polygon","arcs":[[126,127,128,-692,861,862,863,864,865,-640]],"id":"DE.HE.06633000.06633028","properties":{"hc-group":"admin3","hc-key":"de-he-06633000-06633028","hc-a2":"WO","name":"Wolfhagen","hc-middle-lon":9.167,"hc-middle-lat":51.328}},{"type":"Polygon","arcs":[[866,867,239,868,869]],"id":"DE.HE.06435000.06435024","properties":{"hc-group":"admin3","hc-key":"de-he-06435000-06435024","hc-a2":"RO","name":"Ronneburg","hc-middle-lon":9.053,"hc-middle-lat":50.225}},{"type":"Polygon","arcs":[[-867,870,-792,871,872]],"id":"DE.HE.06435000.06435020","properties":{"hc-group":"admin3","hc-key":"de-he-06435000-06435020","hc-a2":"NE","name":"Neuberg","hc-middle-lon":8.985,"hc-middle-lat":50.198}},{"type":"Polygon","arcs":[[873,67,874,-557]],"id":"DE.HE.06632000.06632009","properties":{"hc-group":"admin3","hc-key":"de-he-06632000-06632009","hc-a2":"H(","name":"Heringen (Werra)","hc-middle-lon":10.017,"hc-middle-lat":50.888}},{"type":"Polygon","arcs":[[-874,-556,875,876,173,66]],"id":"DE.HE.06632000.06632020","properties":{"hc-group":"admin3","hc-key":"de-he-06632000-06632020","hc-a2":"WI","name":"Wildeck","hc-middle-lon":10.038,"hc-middle-lat":50.949}},{"type":"Polygon","arcs":[[-675,-201,-200,877]],"id":"DE.HE.06631000.06631008","properties":{"hc-group":"admin3","hc-key":"de-he-06631000-06631008","hc-a2":"FL","name":"Flieden","hc-middle-lon":9.551,"hc-middle-lat":50.415}},{"type":"Polygon","arcs":[[878,879,880,881,-760,882]],"id":"DE.HE.06440000.06440020","properties":{"hc-group":"admin3","hc-key":"de-he-06440000-06440020","hc-a2":"RA","name":"Ranstadt","hc-middle-lon":8.96,"hc-middle-lat":50.359}},{"type":"Polygon","arcs":[[-879,883,-838,-845,-855,884]],"id":"DE.HE.06440000.06440007","properties":{"hc-group":"admin3","hc-key":"de-he-06440000-06440007","hc-a2":"FL","name":"Florstadt","hc-middle-lon":8.896,"hc-middle-lat":50.326}},{"type":"Polygon","arcs":[[-884,-883,-759,885,-839]],"id":"DE.HE.06440000.06440010","properties":{"hc-group":"admin3","hc-key":"de-he-06440000-06440010","hc-a2":"GL","name":"Glauburg","hc-middle-lon":9.006,"hc-middle-lat":50.321}},{"type":"Polygon","arcs":[[229,186,187,886,-670,887]],"id":"DE.HE.06436000.06436005","properties":{"hc-group":"admin3","hc-key":"de-he-06436000-06436005","hc-a2":"HA","name":"Hattersheim am Main","hc-middle-lon":8.473,"hc-middle-lat":50.053}},{"type":"Polygon","arcs":[[-473,888,256,110]],"id":"DE.HE.06633000.06633020","properties":{"hc-group":"admin3","hc-key":"de-he-06633000-06633020","hc-a2":"NI","name":"Niestetal","hc-middle-lon":9.589,"hc-middle-lat":51.316}},{"type":"Polygon","arcs":[[-450,-456,22,889]],"id":"DE.HE.06437000.06437008","properties":{"hc-group":"admin3","hc-key":"de-he-06437000-06437008","hc-a2":"HE","name":"Hesseneck","hc-middle-lon":9.096,"hc-middle-lat":49.58}},{"type":"Polygon","arcs":[[-751,-748,-750,890,891,892,377,-746]],"id":"DE.HE.06434000.06434008","properties":{"hc-group":"admin3","hc-key":"de-he-06434000-06434008","hc-a2":"O(","name":"Oberursel (Taunus)","hc-middle-lon":8.572,"hc-middle-lat":50.207}},{"type":"Polygon","arcs":[[-297,893,62]],"id":"DE.HE.06438000.06438007","properties":{"hc-group":"admin3","hc-key":"de-he-06438000-06438007","hc-a2":"MA","name":"Mainhausen","hc-middle-lon":9.041,"hc-middle-lat":49.998}},{"type":"Polygon","arcs":[[61,-894,-296,-479,894]],"id":"DE.HE.06438000.06438013","properties":{"hc-group":"admin3","hc-key":"de-he-06438000-06438013","hc-a2":"SE","name":"Seligenstadt","hc-middle-lon":9.002,"hc-middle-lat":50.039}},{"type":"Polygon","arcs":[[895,896,-149,897]],"id":"DE.HE.06531000.06531012","properties":{"hc-group":"admin3","hc-key":"de-he-06531000-06531012","hc-a2":"LI","name":"Linden","hc-middle-lon":8.676,"hc-middle-lat":50.535}},{"type":"Polygon","arcs":[[-896,898,899,900,-425,901]],"id":"DE.HE.06531000.06531014","properties":{"hc-group":"admin3","hc-key":"de-he-06531000-06531014","hc-a2":"PO","name":"Pohlheim","hc-middle-lon":8.703,"hc-middle-lat":50.521}},{"type":"Polygon","arcs":[[-464,-572,116,902,903,-752]],"id":"DE.HE.06636000.06636001","properties":{"hc-group":"admin3","hc-key":"de-he-06636000-06636001","hc-a2":"BS","name":"Bad Sooden-Allendorf","hc-middle-lon":10.01,"hc-middle-lat":51.283}},{"type":"Polygon","arcs":[[-577,-768,-764,77,-578]],"id":"DE.HE.06532000.06532011","properties":{"hc-group":"admin3","hc-key":"de-he-06532000-06532011","hc-a2":"HA","name":"Haiger","hc-middle-lon":8.18,"hc-middle-lat":50.783}},{"type":"Polygon","arcs":[[904,905,352,353,906,907]],"id":"DE.HE.06439000.06439007","properties":{"hc-group":"admin3","hc-key":"de-he-06439000-06439007","hc-a2":"HÜ","name":"Hünstetten","hc-middle-lon":8.152,"hc-middle-lat":50.254}},{"type":"Polygon","arcs":[[-905,908,909,910,911]],"id":"DE.HE.06439000.06439006","properties":{"hc-group":"admin3","hc-key":"de-he-06439000-06439006","hc-a2":"HO","name":"Hohenstein","hc-middle-lon":8.105,"hc-middle-lat":50.197}},{"type":"Polygon","arcs":[[912,-876,-555,-500,913]],"id":"DE.HE.06632000.06632017","properties":{"hc-group":"admin3","hc-key":"de-he-06632000-06632017","hc-a2":"RO","name":"Ronshausen","hc-middle-lon":9.903,"hc-middle-lat":50.934}},{"type":"Polygon","arcs":[[-913,914,915,172,-877]],"id":"DE.HE.06632000.06632013","properties":{"hc-group":"admin3","hc-key":"de-he-06632000-06632013","hc-a2":"NE","name":"Nentershausen","hc-middle-lon":9.936,"hc-middle-lat":51.01}},{"type":"Polygon","arcs":[[-657,280,281,-275,-274,916,917,918,919,920]],"id":"DE.HE.06634000.06634005","properties":{"hc-group":"admin3","hc-key":"de-he-06634000-06634005","hc-a2":"FR","name":"Fritzlar","hc-middle-lon":9.258,"hc-middle-lat":51.149}},{"type":"Polygon","arcs":[[-351,-350,-349,921,355]],"id":"DE.HE.06439000.06439016","properties":{"hc-group":"admin3","hc-key":"de-he-06439000-06439016","hc-a2":"WA","name":"Waldems","hc-middle-lon":8.344,"hc-middle-lat":50.261}},{"type":"Polygon","arcs":[[922,923,924,-324,-422,925]],"id":"DE.HE.06531000.06531015","properties":{"hc-group":"admin3","hc-key":"de-he-06531000-06531015","hc-a2":"RA","name":"Rabenau","hc-middle-lon":8.888,"hc-middle-lat":50.672}},{"type":"Polygon","arcs":[[-923,926,927,928,929,930]],"id":"DE.HE.06531000.06531016","properties":{"hc-group":"admin3","hc-key":"de-he-06531000-06531016","hc-a2":"RE","name":"Reiskirchen","hc-middle-lon":8.82,"hc-middle-lat":50.583}},{"type":"Polygon","arcs":[[-930,931,-900,932,933]],"id":"DE.HE.06531000.06531004","properties":{"hc-group":"admin3","hc-key":"de-he-06531000-06531004","hc-a2":"FE","name":"Fernwald","hc-middle-lon":8.818,"hc-middle-lat":50.562}},{"type":"Polygon","arcs":[[934,935,936,-852]],"id":"DE.HE.06440000.06440002","properties":{"hc-group":"admin3","hc-key":"de-he-06440000-06440002","hc-a2":"BN","name":"Bad Nauheim","hc-middle-lon":8.721,"hc-middle-lat":50.377}},{"type":"Polygon","arcs":[[-935,-851,-341,-340,937,938]],"id":"DE.HE.06440000.06440018","properties":{"hc-group":"admin3","hc-key":"de-he-06440000-06440018","hc-a2":"OM","name":"Ober-Mörlen","hc-middle-lon":8.674,"hc-middle-lat":50.364}},{"type":"Polygon","arcs":[[339,-859,939,940,-511,941,338]],"id":"DE.HE.06434000.06434011","properties":{"hc-group":"admin3","hc-key":"de-he-06434000-06434011","hc-a2":"US","name":"Usingen","hc-middle-lon":8.547,"hc-middle-lat":50.354}},{"type":"Polygon","arcs":[[-939,942,943,944,-936]],"id":"DE.HE.06440000.06440022","properties":{"hc-group":"admin3","hc-key":"de-he-06440000-06440022","hc-a2":"RO","name":"Rockenberg","hc-middle-lon":8.78,"hc-middle-lat":50.429}},{"type":"Polygon","arcs":[[391,-785,945,214,946]],"id":"DE.HE.06438000.06438006","properties":{"hc-group":"admin3","hc-key":"de-he-06438000-06438006","hc-a2":"L(","name":"Langen (Hessen)","hc-middle-lon":8.664,"hc-middle-lat":49.987}},{"type":"Polygon","arcs":[[-326,947,948,949,-708,-327]],"id":"DE.HE.06531000.06531017","properties":{"hc-group":"admin3","hc-key":"de-he-06531000-06531017","hc-a2":"ST","name":"Staufenberg","hc-middle-lon":8.731,"hc-middle-lat":50.659}},{"type":"Polygon","arcs":[[-805,-488,950,951,952,953]],"id":"DE.HE.06534000.06534011","properties":{"hc-group":"admin3","hc-key":"de-he-06534000-06534011","hc-a2":"KI","name":"Kirchhain","hc-middle-lon":8.916,"hc-middle-lat":50.836}},{"type":"Polygon","arcs":[[-669,228,-888]],"id":"DE.HE.06436000.06436009","properties":{"hc-group":"admin3","hc-key":"de-he-06436000-06436009","hc-a2":"KR","name":"Kriftel","hc-middle-lon":8.463,"hc-middle-lat":50.079}},{"type":"Polygon","arcs":[[-662,954,955,956,218,957,-666]],"id":"DE.HE.06432000.06432011","properties":{"hc-group":"admin3","hc-key":"de-he-06432000-06432011","hc-a2":"GZ","name":"Groß-Zimmern","hc-middle-lon":8.854,"hc-middle-lat":49.856}},{"type":"Polygon","arcs":[[-735,-744,958,959]],"id":"DE.HE.06631000.06631003","properties":{"hc-group":"admin3","hc-key":"de-he-06631000-06631003","hc-a2":"DI","name":"Dipperz","hc-middle-lon":9.821,"hc-middle-lat":50.536}},{"type":"Polygon","arcs":[[-737,-522,28,960]],"id":"DE.HE.06631000.06631005","properties":{"hc-group":"admin3","hc-key":"de-he-06631000-06631005","hc-a2":"E(","name":"Ehrenberg (Rhön)","hc-middle-lon":10.008,"hc-middle-lat":50.507}},{"type":"Polygon","arcs":[[-169,-168,961,-586,17]],"id":"DE.HE.06437000.06437007","properties":{"hc-group":"admin3","hc-key":"de-he-06437000-06437007","hc-a2":"FC","name":"Fränkisch-Crumbach","hc-middle-lon":8.869,"hc-middle-lat":49.747}},{"type":"Polygon","arcs":[[168,104,962,963]],"id":"DE.HE.06432000.06432007","properties":{"hc-group":"admin3","hc-key":"de-he-06432000-06432007","hc-a2":"FI","name":"Fischbachtal","hc-middle-lon":8.783,"hc-middle-lat":49.746}},{"type":"Polygon","arcs":[[-474,221,222,964,-775]],"id":"DE.HE.06438000.06438012","properties":{"hc-group":"admin3","hc-key":"de-he-06438000-06438012","hc-a2":"RÖ","name":"Rödermark","hc-middle-lon":8.824,"hc-middle-lat":49.979}},{"type":"Polygon","arcs":[[965,966,967,968,969,-789]],"id":"DE.HE.06435000.06435015","properties":{"hc-group":"admin3","hc-key":"de-he-06435000-06435015","hc-a2":"HA","name":"Hasselroth","hc-middle-lon":9.133,"hc-middle-lat":50.173}},{"type":"Polygon","arcs":[[-966,-788,-793,-871,-870,970]],"id":"DE.HE.06435000.06435017","properties":{"hc-group":"admin3","hc-key":"de-he-06435000-06435017","hc-a2":"LA","name":"Langenselbold","hc-middle-lon":9.018,"hc-middle-lat":50.176}},{"type":"Polygon","arcs":[[971,972,-405,-404,-403,-140,973,974,975]],"id":"DE.HE.06535000.06535001","properties":{"hc-group":"admin3","hc-key":"de-he-06535000-06535001","hc-a2":"AL","name":"Alsfeld","hc-middle-lon":9.319,"hc-middle-lat":50.773}},{"type":"Polygon","arcs":[[-972,976,977,978,-413,-412,979]],"id":"DE.HE.06535000.06535010","properties":{"hc-group":"admin3","hc-key":"de-he-06535000-06535010","hc-a2":"KI","name":"Kirtorf","hc-middle-lon":9.1,"hc-middle-lat":50.765}},{"type":"Polygon","arcs":[[980,981,982,99,-357,-193]],"id":"DE.HE.06433000.06433005","properties":{"hc-group":"admin3","hc-key":"de-he-06433000-06433005","hc-a2":"GG","name":"Ginsheim-Gustavsburg","hc-middle-lon":8.34,"hc-middle-lat":49.974}},{"type":"Polygon","arcs":[[-981,-192,983]],"id":"DE.HE.06433000.06433002","properties":{"hc-group":"admin3","hc-key":"de-he-06433000-06433002","hc-a2":"BI","name":"Bischofsheim","hc-middle-lon":8.373,"hc-middle-lat":49.985}},{"type":"Polygon","arcs":[[984,-982,-984,-191,-190,985,226,-781,-783]],"id":"DE.HE.06433000.06433012","properties":{"hc-group":"admin3","hc-key":"de-he-06433000-06433012","hc-a2":"RÜ","name":"Rüsselsheim","hc-middle-lon":8.456,"hc-middle-lat":49.979}},{"type":"Polygon","arcs":[[-985,-782,-630,-774,98,-983]],"id":"DE.HE.06433000.06433014","properties":{"hc-group":"admin3","hc-key":"de-he-06433000-06433014","hc-a2":"TR","name":"Trebur","hc-middle-lon":8.358,"hc-middle-lat":49.91}},{"type":"Polygon","arcs":[[225,-986,-189,-188,986]],"id":"DE.HE.06433000.06433010","properties":{"hc-group":"admin3","hc-key":"de-he-06433000-06433010","hc-a2":"RA","name":"Raunheim","hc-middle-lon":8.497,"hc-middle-lat":50.028}},{"type":"Polygon","arcs":[[-987,-187,224]],"id":"DE.HE.06433000.06433007","properties":{"hc-group":"admin3","hc-key":"de-he-06433000-06433007","hc-a2":"KE","name":"Kelsterbach","hc-middle-lon":8.54,"hc-middle-lat":50.065}},{"type":"Polygon","arcs":[[-356,-355,-354,987,-505,185]],"id":"DE.HE.06533000.06533003","properties":{"hc-group":"admin3","hc-key":"de-he-06533000-06533003","hc-a2":"BC","name":"Bad Camberg","hc-middle-lon":8.292,"hc-middle-lat":50.303}},{"type":"Polygon","arcs":[[349,-512,-941,988,-892,989,990]],"id":"DE.HE.06434000.06434009","properties":{"hc-group":"admin3","hc-key":"de-he-06434000-06434009","hc-a2":"SC","name":"Schmitten","hc-middle-lon":8.448,"hc-middle-lat":50.266}},{"type":"Polygon","arcs":[[-932,-929,991,992,-426,-901]],"id":"DE.HE.06531000.06531011","properties":{"hc-group":"admin3","hc-key":"de-he-06531000-06531011","hc-a2":"LI","name":"Lich","hc-middle-lon":8.829,"hc-middle-lat":50.511}},{"type":"Polygon","arcs":[[235,236,993,994,995,234]],"id":"DE.HE.06435000.06435021","properties":{"hc-group":"admin3","hc-key":"de-he-06435000-06435021","hc-a2":"NI","name":"Nidderau","hc-middle-lon":8.891,"hc-middle-lat":50.243}},{"type":"Polygon","arcs":[[-237,-841,996,-238]],"id":"DE.HE.06440000.06440014","properties":{"hc-group":"admin3","hc-key":"de-he-06440000-06440014","hc-a2":"LI","name":"Limeshain","hc-middle-lon":9.018,"hc-middle-lat":50.269}},{"type":"Polygon","arcs":[[-996,997,-646,-616,-786,232,233]],"id":"DE.HE.06435000.06435026","properties":{"hc-group":"admin3","hc-key":"de-he-06435000-06435026","hc-a2":"SC","name":"Schöneck","hc-middle-lon":8.884,"hc-middle-lat":50.206}},{"type":"Polygon","arcs":[[-644,998,106,999,1000,1001,212]],"id":"DE.HE.06432000.06432022","properties":{"hc-group":"admin3","hc-key":"de-he-06432000-06432022","hc-a2":"SJ","name":"Seeheim-Jugenheim","hc-middle-lon":8.643,"hc-middle-lat":49.741}},{"type":"Polygon","arcs":[[-1000,107,-389,1002]],"id":"DE.HE.06432000.06432001","properties":{"hc-group":"admin3","hc-key":"de-he-06432000-06432001","hc-a2":"AH","name":"Alsbach-Hähnlein","hc-middle-lon":8.565,"hc-middle-lat":49.745}},{"type":"Polygon","arcs":[[-1001,-1003,-388,1003]],"id":"DE.HE.06432000.06432003","properties":{"hc-group":"admin3","hc-key":"de-he-06432000-06432003","hc-a2":"BI","name":"Bickenbach","hc-middle-lon":8.592,"hc-middle-lat":49.761}},{"type":"Polygon","arcs":[[-1002,-1004,-387,-386,-628,211]],"id":"DE.HE.06432000.06432018","properties":{"hc-group":"admin3","hc-key":"de-he-06432000-06432018","hc-a2":"PF","name":"Pfungstadt","hc-middle-lon":8.583,"hc-middle-lat":49.799}},{"type":"Polygon","arcs":[[-998,-995,1004,-872,-791,-647]],"id":"DE.HE.06435000.06435006","properties":{"hc-group":"admin3","hc-key":"de-he-06435000-06435006","hc-a2":"BR","name":"Bruchköbel","hc-middle-lon":8.91,"hc-middle-lat":50.162}},{"type":"Polygon","arcs":[[-965,223,-946,-784,259,1005,-776]],"id":"DE.HE.06438000.06438002","properties":{"hc-group":"admin3","hc-key":"de-he-06438000-06438002","hc-a2":"DR","name":"Dreieich","hc-middle-lon":8.708,"hc-middle-lat":50.02}},{"type":"Polygon","arcs":[[1006,-907,354,-922,-348,-205,1007]],"id":"DE.HE.06439000.06439008","properties":{"hc-group":"admin3","hc-key":"de-he-06439000-06439008","hc-a2":"ID","name":"Idstein","hc-middle-lon":8.289,"hc-middle-lat":50.222}},{"type":"Polygon","arcs":[[-1007,1008,-362,1009,1010,-909,-908]],"id":"DE.HE.06439000.06439015","properties":{"hc-group":"admin3","hc-key":"de-he-06439000-06439015","hc-a2":"TA","name":"Taunusstein","hc-middle-lon":8.168,"hc-middle-lat":50.144}},{"type":"Polygon","arcs":[[-1009,-1008,-204,-363]],"id":"DE.HE.06439000.06439011","properties":{"hc-group":"admin3","hc-key":"de-he-06439000-06439011","hc-a2":"NI","name":"Niedernhausen","hc-middle-lon":8.297,"hc-middle-lat":50.173}},{"type":"Polygon","arcs":[[191,192,-208,-672,1011,190]],"id":"DE.HE.06436000.06436006","properties":{"hc-group":"admin3","hc-key":"de-he-06436000-06436006","hc-a2":"HA","name":"Hochheim am Main","hc-middle-lon":8.333,"hc-middle-lat":50.012}},{"type":"Polygon","arcs":[[-137,-136,302,303,304,305,306,1012,-565,1013,-138]],"id":"DE.HE.06535000.06535015","properties":{"hc-group":"admin3","hc-key":"de-he-06535000-06535015","hc-a2":"SC","name":"Schlitz","hc-middle-lon":9.555,"hc-middle-lat":50.668}},{"type":"Polygon","arcs":[[136,1014,-517,1015,1016,1017]],"id":"DE.HE.06632000.06632015","properties":{"hc-group":"admin3","hc-key":"de-he-06632000-06632015","hc-a2":"NI","name":"Niederaula","hc-middle-lon":9.609,"hc-middle-lat":50.808}},{"type":"Polygon","arcs":[[-518,-1015,137,138,139,299,300]],"id":"DE.HE.06632000.06632004","properties":{"hc-group":"admin3","hc-key":"de-he-06632000-06632004","hc-a2":"BA","name":"Breitenbach a. Herzberg","hc-middle-lon":9.497,"hc-middle-lat":50.776}},{"type":"Polygon","arcs":[[59,247,1018,1019,1020,-597,58,257]],"id":"DE.HE.06633000.06633009","properties":{"hc-group":"admin3","hc-key":"de-he-06633000-06633009","hc-a2":"FU","name":"Fuldatal","hc-middle-lon":9.563,"hc-middle-lat":51.373}},{"type":"Polygon","arcs":[[-674,1021,-370,-369,-861,1022,-372]],"id":"DE.HE.06436000.06436008","properties":{"hc-group":"admin3","hc-key":"de-he-06436000-06436008","hc-a2":"K(","name":"Kelkheim (Taunus)","hc-middle-lon":8.417,"hc-middle-lat":50.161}},{"type":"Polygon","arcs":[[-643,1023,1024,-963,105,-999]],"id":"DE.HE.06432000.06432013","properties":{"hc-group":"admin3","hc-key":"de-he-06432000-06432013","hc-a2":"MO","name":"Modautal","hc-middle-lon":8.749,"hc-middle-lat":49.734}},{"type":"Polygon","arcs":[[418,419,1025,1026,1027,1028]],"id":"DE.HE.06535000.06535013","properties":{"hc-group":"admin3","hc-key":"de-he-06535000-06535013","hc-a2":"MÜ","name":"Mücke","hc-middle-lon":9.044,"hc-middle-lat":50.629}},{"type":"Polygon","arcs":[[-419,-418,-417,-430,1029,-992,-928,1030]],"id":"DE.HE.06531000.06531010","properties":{"hc-group":"admin3","hc-key":"de-he-06531000-06531010","hc-a2":"LA","name":"Laubach","hc-middle-lon":8.994,"hc-middle-lat":50.534}},{"type":"Polygon","arcs":[[1031,1032,-713,1033,39,1034,1035]],"id":"DE.HE.06435000.06435003","properties":{"hc-group":"admin3","hc-key":"de-he-06435000-06435003","hc-a2":"BI","name":"Biebergemünd","hc-middle-lon":9.323,"hc-middle-lat":50.153}},{"type":"Polygon","arcs":[[-1032,1036,1037,241,242,1038,-536,1039]],"id":"DE.HE.06435000.06435029","properties":{"hc-group":"admin3","hc-key":"de-he-06435000-06435029","hc-a2":"WÄ","name":"Wächtersbach","hc-middle-lon":9.265,"hc-middle-lat":50.27}},{"type":"Polygon","arcs":[[1040,87,1041,1042]],"id":"DE.HE.06533000.06533004","properties":{"hc-group":"admin3","hc-key":"de-he-06533000-06533004","hc-a2":"DO","name":"Dornburg","hc-middle-lon":8.044,"hc-middle-lat":50.551}},{"type":"Polygon","arcs":[[-1041,1043,1044,1045,1046,1047,86]],"id":"DE.HE.06533000.06533007","properties":{"hc-group":"admin3","hc-key":"de-he-06533000-06533007","hc-a2":"HA","name":"Hadamar","hc-middle-lon":8.003,"hc-middle-lat":50.463}},{"type":"Polygon","arcs":[[-1044,-1043,1048]],"id":"DE.HE.06533000.06533005","properties":{"hc-group":"admin3","hc-key":"de-he-06533000-06533005","hc-a2":"EL","name":"Elbtal","hc-middle-lon":8.062,"hc-middle-lat":50.506}},{"type":"Polygon","arcs":[[376,-893,1049,-857,1050,344,345]],"id":"DE.HE.06434000.06434001","properties":{"hc-group":"admin3","hc-key":"de-he-06434000-06434001","hc-a2":"BH","name":"Bad Homburg v.d. Höhe","hc-middle-lon":8.602,"hc-middle-lat":50.234}},{"type":"Polygon","arcs":[[-902,-424,-423,-152,-151,-150,-897]],"id":"DE.HE.06531000.06531009","properties":{"hc-group":"admin3","hc-key":"de-he-06531000-06531009","hc-a2":"LA","name":"Langgöns","hc-middle-lon":8.625,"hc-middle-lat":50.488}},{"type":"Polygon","arcs":[[217,-957,1051,1052]],"id":"DE.HE.06432000.06432020","properties":{"hc-group":"admin3","hc-key":"de-he-06432000-06432020","hc-a2":"RO","name":"Roßdorf","hc-middle-lon":8.792,"hc-middle-lat":49.86}},{"type":"Polygon","arcs":[[216,-1053,1053,1054,-1024,-642]],"id":"DE.HE.06432000.06432016","properties":{"hc-group":"admin3","hc-key":"de-he-06432000-06432016","hc-a2":"OR","name":"Ober-Ramstadt","hc-middle-lon":8.778,"hc-middle-lat":49.827}},{"type":"Polygon","arcs":[[-728,157,158,-582]],"id":"DE.HE.06534000.06534002","properties":{"hc-group":"admin3","hc-key":"de-he-06534000-06534002","hc-a2":"AN","name":"Angelburg","hc-middle-lon":8.463,"hc-middle-lat":50.822}},{"type":"Polygon","arcs":[[-1025,-1055,1055,166,167,-964]],"id":"DE.HE.06432000.06432009","properties":{"hc-group":"admin3","hc-key":"de-he-06432000-06432009","hc-a2":"GB","name":"Groß-Bieberau","hc-middle-lon":8.844,"hc-middle-lat":49.776}},{"type":"Polygon","arcs":[[-167,-166,-165,1056,1057,1058,-587,-962]],"id":"DE.HE.06437000.06437003","properties":{"hc-group":"admin3","hc-key":"de-he-06437000-06437003","hc-a2":"BR","name":"Brensbach","hc-middle-lon":8.899,"hc-middle-lat":49.787}},{"type":"Polygon","arcs":[[-1058,1059,1060,1061,1062]],"id":"DE.HE.06437000.06437001","properties":{"hc-group":"admin3","hc-key":"de-he-06437000-06437001","hc-a2":"BK","name":"Bad König","hc-middle-lon":8.998,"hc-middle-lat":49.738}},{"type":"Polygon","arcs":[[165,-1056,-1054,-1052,-956,1063]],"id":"DE.HE.06432000.06432019","properties":{"hc-group":"admin3","hc-key":"de-he-06432000-06432019","hc-a2":"RE","name":"Reinheim","hc-middle-lon":8.856,"hc-middle-lat":49.828}},{"type":"Polygon","arcs":[[-158,-157,-822,1064,1065,-769,-575]],"id":"DE.HE.06532000.06532019","properties":{"hc-group":"admin3","hc-key":"de-he-06532000-06532019","hc-a2":"SI","name":"Siegbach","hc-middle-lon":8.415,"hc-middle-lat":50.757}},{"type":"Polygon","arcs":[[-853,-937,-945,1066,427,1067,1068,1069]],"id":"DE.HE.06440000.06440024","properties":{"hc-group":"admin3","hc-key":"de-he-06440000-06440024","hc-a2":"WÖ","name":"Wölfersheim","hc-middle-lon":8.824,"hc-middle-lat":50.411}},{"type":"Polygon","arcs":[[-1068,428,429,430,1070,-761,-882,1071]],"id":"DE.HE.06440000.06440016","properties":{"hc-group":"admin3","hc-key":"de-he-06440000-06440016","hc-a2":"NI","name":"Nidda","hc-middle-lon":9.015,"hc-middle-lat":50.415}},{"type":"Polygon","arcs":[[-1070,1072,-880,-885,-854]],"id":"DE.HE.06440000.06440021","properties":{"hc-group":"admin3","hc-key":"de-he-06440000-06440021","hc-a2":"R(","name":"Reichelsheim (Wetterau)","hc-middle-lon":8.866,"hc-middle-lat":50.352}},{"type":"Polygon","arcs":[[189,-1012,-671,-887,188]],"id":"DE.HE.06436000.06436004","properties":{"hc-group":"admin3","hc-key":"de-he-06436000-06436004","hc-a2":"FA","name":"Flörsheim am Main","hc-middle-lon":8.402,"hc-middle-lat":50.016}},{"type":"MultiPolygon","arcs":[[[35,-533,-531,-535,-715,1073,-538,-528,1074,1075],[-526],[-532]],[[33,1076]]],"id":"DE.HE.06435000.06435200","properties":{"hc-group":"admin3","hc-key":"de-he-06435000-06435200","hc-a2":"GS","name":"Gutsbezirk Spessart","hc-middle-lon":9.518,"hc-middle-lat":50.246}},{"type":"Polygon","arcs":[[215,389,390,-947]],"id":"DE.HE.06438000.06438003","properties":{"hc-group":"admin3","hc-key":"de-he-06438000-06438003","hc-a2":"EG","name":"Egelsbach","hc-middle-lon":8.669,"hc-middle-lat":49.961}},{"type":"Polygon","arcs":[[-863,1077,1078,250,1079,1080]],"id":"DE.HE.06633000.06633011","properties":{"hc-group":"admin3","hc-key":"de-he-06633000-06633011","hc-a2":"HA","name":"Habichtswald","hc-middle-lon":9.333,"hc-middle-lat":51.325}},{"type":"MultiPolygon","arcs":[[[-1078,-862,-691,-690,1081]],[[1082,-864,-1081]]],"id":"DE.HE.06633000.06633029","properties":{"hc-group":"admin3","hc-key":"de-he-06633000-06633029","hc-a2":"ZI","name":"Zierenberg","hc-middle-lon":9.28,"hc-middle-lat":51.39}},{"type":"Polygon","arcs":[[1083,1084,1085,-360,-634,101,1086]],"id":"DE.HE.06439000.06439003","properties":{"hc-group":"admin3","hc-key":"de-he-06439000-06439003","hc-a2":"EA","name":"Eltville am Rhein","hc-middle-lon":8.053,"hc-middle-lat":50.042}},{"type":"Polygon","arcs":[[-1084,1087,1088,1089,-1010,-361,-1086,1090]],"id":"DE.HE.06439000.06439014","properties":{"hc-group":"admin3","hc-key":"de-he-06439000-06439014","hc-a2":"SC","name":"Schlangenbad","hc-middle-lon":8.047,"hc-middle-lat":50.097}},{"type":"Polygon","arcs":[[382,-633,-779,381]],"id":"DE.HE.06433000.06433003","properties":{"hc-group":"admin3","hc-key":"de-he-06433000-06433003","hc-a2":"BÜ","name":"Büttelborn","hc-middle-lon":8.503,"hc-middle-lat":49.916}},{"type":"Polygon","arcs":[[-1006,260,1091,-476,-777]],"id":"DE.HE.06438000.06438005","properties":{"hc-group":"admin3","hc-key":"de-he-06438000-06438005","hc-a2":"HE","name":"Heusenstamm","hc-middle-lon":8.809,"hc-middle-lat":50.048}},{"type":"Polygon","arcs":[[-696,1092,1093,-951,-487]],"id":"DE.HE.06534000.06534006","properties":{"hc-group":"admin3","hc-key":"de-he-06534000-06534006","hc-a2":"CÖ","name":"Cölbe","hc-middle-lon":8.824,"hc-middle-lat":50.872}},{"type":"Polygon","arcs":[[-610,-773,386,387,388,108]],"id":"DE.HE.06433000.06433004","properties":{"hc-group":"admin3","hc-key":"de-he-06433000-06433004","hc-a2":"GE","name":"Gernsheim","hc-middle-lon":8.504,"hc-middle-lat":49.736}},{"type":"Polygon","arcs":[[1094,95,351,-906,-912]],"id":"DE.HE.06439000.06439001","properties":{"hc-group":"admin3","hc-key":"de-he-06439000-06439001","hc-a2":"AA","name":"Aarbergen","hc-middle-lon":8.035,"hc-middle-lat":50.262}},{"type":"Polygon","arcs":[[-1095,-911,1095,-1089,1096,94]],"id":"DE.HE.06439000.06439005","properties":{"hc-group":"admin3","hc-key":"de-he-06439000-06439005","hc-a2":"HE","name":"Heidenrod","hc-middle-lon":7.973,"hc-middle-lat":50.174}},{"type":"Polygon","arcs":[[-1037,-1036,1097,-968,1098]],"id":"DE.HE.06435000.06435010","properties":{"hc-group":"admin3","hc-key":"de-he-06435000-06435010","hc-a2":"GE","name":"Gelnhausen","hc-middle-lon":9.221,"hc-middle-lat":50.214}},{"type":"Polygon","arcs":[[-588,-1059,-1063,1099]],"id":"DE.HE.06437000.06437005","properties":{"hc-group":"admin3","hc-key":"de-he-06437000-06437005","hc-a2":"BR","name":"Brombachtal","hc-middle-lon":8.976,"hc-middle-lat":49.742}},{"type":"Polygon","arcs":[[40,1100,-969,-1098,-1035]],"id":"DE.HE.06435000.06435018","properties":{"hc-group":"admin3","hc-key":"de-he-06435000-06435018","hc-a2":"LI","name":"Linsengericht","hc-middle-lon":9.24,"hc-middle-lat":50.147}},{"type":"Polygon","arcs":[[-1067,-944,1101,423,424,425,426]],"id":"DE.HE.06440000.06440015","properties":{"hc-group":"admin3","hc-key":"de-he-06440000-06440015","hc-a2":"MÜ","name":"Münzenberg","hc-middle-lon":8.736,"hc-middle-lat":50.46}},{"type":"Polygon","arcs":[[-943,-938,-339,-338,335,422,-1102]],"id":"DE.HE.06440000.06440005","properties":{"hc-group":"admin3","hc-key":"de-he-06440000-06440005","hc-a2":"BU","name":"Butzbach","hc-middle-lon":8.655,"hc-middle-lat":50.43}},{"type":"Polygon","arcs":[[337,-942,-510,183,336]],"id":"DE.HE.06434000.06434004","properties":{"hc-group":"admin3","hc-key":"de-he-06434000-06434004","hc-a2":"GR","name":"Grävenwiesbach","hc-middle-lon":8.45,"hc-middle-lat":50.385}},{"type":"Polygon","arcs":[[-704,1102,-800,1103,-1065,-821,-705]],"id":"DE.HE.06532000.06532017","properties":{"hc-group":"admin3","hc-key":"de-he-06532000-06532017","hc-a2":"MI","name":"Mittenaar","hc-middle-lon":8.388,"hc-middle-lat":50.689}},{"type":"Polygon","arcs":[[-1104,-799,-798,1104,-766,-770,-1066]],"id":"DE.HE.06532000.06532012","properties":{"hc-group":"admin3","hc-key":"de-he-06532000-06532012","hc-a2":"HE","name":"Herborn","hc-middle-lon":8.287,"hc-middle-lat":50.684}},{"type":"Polygon","arcs":[[366,367,368,1105,-990,-891,-749]],"id":"DE.HE.06434000.06434005","properties":{"hc-group":"admin3","hc-key":"de-he-06434000-06434005","hc-a2":"KI","name":"Königstein im Taunus","hc-middle-lon":8.489,"hc-middle-lat":50.196}},{"type":"Polygon","arcs":[[-868,-873,-1005,-994,237,238]],"id":"DE.HE.06435000.06435013","properties":{"hc-group":"admin3","hc-key":"de-he-06435000-06435013","hc-a2":"HA","name":"Hammersbach","hc-middle-lon":9.016,"hc-middle-lat":50.235}},{"type":"Polygon","arcs":[[1106,-729,-265,1107]],"id":"DE.HE.06634000.06634012","properties":{"hc-group":"admin3","hc-key":"de-he-06634000-06634012","hc-a2":"KÖ","name":"Körle","hc-middle-lon":9.541,"hc-middle-lat":51.177}},{"type":"Polygon","arcs":[[-1107,1108,1109,1110,1111,-919,1112,1113,-730]],"id":"DE.HE.06634000.06634003","properties":{"hc-group":"admin3","hc-key":"de-he-06634000-06634003","hc-a2":"FE","name":"Felsberg","hc-middle-lon":9.452,"hc-middle-lat":51.135}},{"type":"Polygon","arcs":[[-1111,1114,-654,-652,1115,1116,1117]],"id":"DE.HE.06634000.06634009","properties":{"hc-group":"admin3","hc-key":"de-he-06634000-06634009","hc-a2":"H(","name":"Homberg (Efze)","hc-middle-lon":9.41,"hc-middle-lat":51.024}},{"type":"Polygon","arcs":[[-1114,1118,-270,-269,-731]],"id":"DE.HE.06634000.06634002","properties":{"hc-group":"admin3","hc-key":"de-he-06634000-06634002","hc-a2":"ED","name":"Edermünde","hc-middle-lon":9.376,"hc-middle-lat":51.202}},{"type":"Polygon","arcs":[[-950,1119,-933,-899,-898,-148,-147,-820,-444,-709]],"id":"DE.HE.06531000.06531005","properties":{"hc-group":"admin3","hc-key":"de-he-06531000-06531005","hc-a2":"GI","name":"Gießen","hc-middle-lon":8.699,"hc-middle-lat":50.583}},{"type":"Polygon","arcs":[[-376,-718,-365,-364]],"id":"DE.HE.06436000.06436003","properties":{"hc-group":"admin3","hc-key":"de-he-06436000-06436003","hc-a2":"ES","name":"Eschborn","hc-middle-lon":8.59,"hc-middle-lat":50.141}},{"type":"Polygon","arcs":[[406,1120,412,413,1121,-953,1122]],"id":"DE.HE.06534000.06534018","properties":{"hc-group":"admin3","hc-key":"de-he-06534000-06534018","hc-a2":"ST","name":"Stadtallendorf","hc-middle-lon":9.031,"hc-middle-lat":50.827}},{"type":"Polygon","arcs":[[-558,-875,68,1123]],"id":"DE.HE.06632000.06632016","properties":{"hc-group":"admin3","hc-key":"de-he-06632000-06632016","hc-a2":"P(","name":"Philippsthal (Werra)","hc-middle-lon":10.03,"hc-middle-lat":50.843}},{"type":"Polygon","arcs":[[-550,-549,277,-660,1124]],"id":"DE.HE.06634000.06634010","properties":{"hc-group":"admin3","hc-key":"de-he-06634000-06634010","hc-a2":"JE","name":"Jesberg","hc-middle-lon":9.117,"hc-middle-lat":50.979}},{"type":"Polygon","arcs":[[-719,-373,-1023,-860]],"id":"DE.HE.06436000.06436010","properties":{"hc-group":"admin3","hc-key":"de-he-06436000-06436010","hc-a2":"LA","name":"Liederbach am Taunus","hc-middle-lon":8.491,"hc-middle-lat":50.119}},{"type":"Polygon","arcs":[[1125,1126,1127,1128,-546]],"id":"DE.HE.06533000.06533012","properties":{"hc-group":"admin3","hc-key":"de-he-06533000-06533012","hc-a2":"ME","name":"Merenberg","hc-middle-lon":8.164,"hc-middle-lat":50.535}},{"type":"Polygon","arcs":[[-1126,-545,-181,-180,-179,1129]],"id":"DE.HE.06533000.06533010","properties":{"hc-group":"admin3","hc-key":"de-he-06533000-06533010","hc-a2":"LÖ","name":"Löhnberg","hc-middle-lon":8.247,"hc-middle-lat":50.538}},{"type":"Polygon","arcs":[[-1034,-712,38]],"id":"DE.HE.06435000.06435008","properties":{"hc-group":"admin3","hc-key":"de-he-06435000-06435008","hc-a2":"FL","name":"Flörsbachtal","hc-middle-lon":9.411,"hc-middle-lat":50.105}},{"type":"Polygon","arcs":[[-196,-544,1130,1131,-1109,-1108,-264]],"id":"DE.HE.06634000.06634014","properties":{"hc-group":"admin3","hc-key":"de-he-06634000-06634014","hc-a2":"ME","name":"Melsungen","hc-middle-lon":9.571,"hc-middle-lat":51.131}},{"type":"Polygon","arcs":[[-346,-847,-850,-842,-233,-232,1132,-246]],"id":"DE.HE.06440000.06440012","properties":{"hc-group":"admin3","hc-key":"de-he-06440000-06440012","hc-a2":"KA","name":"Karben","hc-middle-lon":8.758,"hc-middle-lat":50.231}},{"type":"Polygon","arcs":[[-1022,-673,-206,203,204,-371]],"id":"DE.HE.06436000.06436002","properties":{"hc-group":"admin3","hc-key":"de-he-06436000-06436002","hc-a2":"EP","name":"Eppstein","hc-middle-lon":8.374,"hc-middle-lat":50.162}},{"type":"Polygon","arcs":[[-917,-273,-272,1133]],"id":"DE.HE.06634000.06634018","properties":{"hc-group":"admin3","hc-key":"de-he-06634000-06634018","hc-a2":"NI","name":"Niedenstein","hc-middle-lon":9.28,"hc-middle-lat":51.221}},{"type":"Polygon","arcs":[[-231,-247,-1133]],"id":"DE.HE.06440000.06440003","properties":{"hc-group":"admin3","hc-key":"de-he-06440000-06440003","hc-a2":"BV","name":"Bad Vilbel","hc-middle-lon":8.743,"hc-middle-lat":50.19}},{"type":"Polygon","arcs":[[1134,-833,-832,1135,-508,1136]],"id":"DE.HE.06533000.06533015","properties":{"hc-group":"admin3","hc-key":"de-he-06533000-06533015","hc-a2":"VI","name":"Villmar","hc-middle-lon":8.214,"hc-middle-lat":50.409}},{"type":"MultiPolygon","arcs":[[[-1135,1137,1138,82,1139,-1047,1140,-834]],[[84,1141]]],"id":"DE.HE.06533000.06533009","properties":{"hc-group":"admin3","hc-key":"de-he-06533000-06533009","hc-a2":"LA","name":"Limburg a.d. Lahn","hc-middle-lon":8.065,"hc-middle-lat":50.384}},{"type":"Polygon","arcs":[[310,-440,1142,-568,-567,1143,309]],"id":"DE.HE.06535000.06535008","properties":{"hc-group":"admin3","hc-key":"de-he-06535000-06535008","hc-a2":"HE","name":"Herbstein","hc-middle-lon":9.403,"hc-middle-lat":50.552}},{"type":"Polygon","arcs":[[-311,1144,1145,-313,-312]],"id":"DE.HE.06631000.06631014","properties":{"hc-group":"admin3","hc-key":"de-he-06631000-06631014","hc-a2":"HO","name":"Hosenfeld","hc-middle-lon":9.508,"hc-middle-lat":50.52}},{"type":"Polygon","arcs":[[-763,1146,432,433,396,-756]],"id":"DE.HE.06440000.06440009","properties":{"hc-group":"admin3","hc-key":"de-he-06440000-06440009","hc-a2":"GE","name":"Gedern","hc-middle-lon":9.242,"hc-middle-lat":50.423}},{"type":"Polygon","arcs":[[-1029,1147,-569,1148,417]],"id":"DE.HE.06535000.06535018","properties":{"hc-group":"admin3","hc-key":"de-he-06535000-06535018","hc-a2":"UL","name":"Ulrichstein","hc-middle-lon":9.183,"hc-middle-lat":50.578}},{"type":"Polygon","arcs":[[1149,1150,-333,1151,-1017]],"id":"DE.HE.06632000.06632007","properties":{"hc-group":"admin3","hc-key":"de-he-06632000-06632007","hc-a2":"HA","name":"Hauneck","hc-middle-lon":9.737,"hc-middle-lat":50.825}},{"type":"Polygon","arcs":[[-1150,-1016,-516,1152,-502,-561,1153],[-554]],"id":"DE.HE.06632000.06632002","properties":{"hc-group":"admin3","hc-key":"de-he-06632000-06632002","hc-a2":"BH","name":"Bad Hersfeld","hc-middle-lon":9.718,"hc-middle-lat":50.875}},{"type":"Polygon","arcs":[[34,-1076,1154,202,32,-1077]],"id":"DE.HE.06435000.06435027","properties":{"hc-group":"admin3","hc-key":"de-he-06435000-06435027","hc-a2":"SI","name":"Sinntal","hc-middle-lon":9.641,"hc-middle-lat":50.3}},{"type":"Polygon","arcs":[[-739,1155,30,-678,1156,-740]],"id":"DE.HE.06631000.06631004","properties":{"hc-group":"admin3","hc-key":"de-he-06631000-06631004","hc-a2":"EB","name":"Ebersburg","hc-middle-lon":9.796,"hc-middle-lat":50.456}},{"type":"Polygon","arcs":[[-1040,-539,-1074,-714,-1033]],"id":"DE.HE.06435000.06435001","properties":{"hc-group":"admin3","hc-key":"de-he-06435000-06435001","hc-a2":"BO","name":"Bad Orb","hc-middle-lon":9.36,"hc-middle-lat":50.209}},{"type":"Polygon","arcs":[[-183,-509,-1136,-831,1157,-177,-176,-184]],"id":"DE.HE.06533000.06533018","properties":{"hc-group":"admin3","hc-key":"de-he-06533000-06533018","hc-a2":"WE","name":"Weilmünster","hc-middle-lon":8.391,"hc-middle-lat":50.437}},{"type":"Polygon","arcs":[[-790,-970,-1101,41]],"id":"DE.HE.06435000.06435009","properties":{"hc-group":"admin3","hc-key":"de-he-06435000-06435009","hc-a2":"FR","name":"Freigericht","hc-middle-lon":9.162,"hc-middle-lat":50.125}},{"type":"Polygon","arcs":[[148,149,1158,-816,147]],"id":"DE.HE.06532000.06532014","properties":{"hc-group":"admin3","hc-key":"de-he-06532000-06532014","hc-a2":"HÜ","name":"Hüttenberg","hc-middle-lon":8.541,"hc-middle-lat":50.5}},{"type":"Polygon","arcs":[[-411,-406,-973,-980]],"id":"DE.HE.06535000.06535002","properties":{"hc-group":"admin3","hc-key":"de-he-06535000-06535002","hc-a2":"AN","name":"Antrifttal","hc-middle-lon":9.193,"hc-middle-lat":50.8}},{"type":"Polygon","arcs":[[410,411,-1121,407,408,409]],"id":"DE.HE.06534000.06534016","properties":{"hc-group":"admin3","hc-key":"de-he-06534000-06534016","hc-a2":"N(","name":"Neustadt (Hessen)","hc-middle-lon":9.119,"hc-middle-lat":50.876}},{"type":"Polygon","arcs":[[-625,1159,1160,-285,1161,1162,1163]],"id":"DE.HE.06635000.06635006","properties":{"hc-group":"admin3","hc-key":"de-he-06635000-06635006","hc-a2":"BU","name":"Burgwald","hc-middle-lon":8.724,"hc-middle-lat":51.002}},{"type":"Polygon","arcs":[[-1160,-624,-276,-290,1164]],"id":"DE.HE.06635000.06635012","properties":{"hc-group":"admin3","hc-key":"de-he-06635000-06635012","hc-a2":"G(","name":"Gemünden (Wohra)","hc-middle-lon":8.951,"hc-middle-lat":50.978}},{"type":"Polygon","arcs":[[-589,-1100,-1062,1165,20,-455,-590]],"id":"DE.HE.06437000.06437011","properties":{"hc-group":"admin3","hc-key":"de-he-06437000-06437011","hc-a2":"MI","name":"Michelstadt","hc-middle-lon":9.074,"hc-middle-lat":49.697}},{"type":"Polygon","arcs":[[-924,-931,-934,-1120,-949,1166]],"id":"DE.HE.06531000.06531003","properties":{"hc-group":"admin3","hc-key":"de-he-06531000-06531003","hc-a2":"BU","name":"Buseck","hc-middle-lon":8.81,"hc-middle-lat":50.609}},{"type":"Polygon","arcs":[[348,-991,-1106,369,370,347]],"id":"DE.HE.06434000.06434003","properties":{"hc-group":"admin3","hc-key":"de-he-06434000-06434003","hc-a2":"GL","name":"Glashütten","hc-middle-lon":8.364,"hc-middle-lat":50.206}},{"type":"Polygon","arcs":[[-1079,-1082,-689,1167,249]],"id":"DE.HE.06633000.06633001","properties":{"hc-group":"admin3","hc-key":"de-he-06633000-06633001","hc-a2":"AH","name":"Ahnatal","hc-middle-lon":9.398,"hc-middle-lat":51.367}},{"type":"Polygon","arcs":[[4,1168,1169,-619,-626,-1164,1170,1171]],"id":"DE.HE.06635000.06635011","properties":{"hc-group":"admin3","hc-key":"de-he-06635000-06635011","hc-a2":"F(","name":"Frankenberg (Eder)","hc-middle-lon":8.79,"hc-middle-lat":51.07}},{"type":"Polygon","arcs":[[-178,-1158,-830,-836,1172,-1127,-1130]],"id":"DE.HE.06533000.06533017","properties":{"hc-group":"admin3","hc-key":"de-he-06533000-06533017","hc-a2":"WE","name":"Weilburg","hc-middle-lon":8.238,"hc-middle-lat":50.48}},{"type":"Polygon","arcs":[[177,178,1173,1174,1175,1176,176]],"id":"DE.HE.06532000.06532003","properties":{"hc-group":"admin3","hc-key":"de-he-06532000-06532003","hc-a2":"BR","name":"Braunfels","hc-middle-lon":8.387,"hc-middle-lat":50.507}},{"type":"Polygon","arcs":[[-1177,1177,151,-336,-337,175]],"id":"DE.HE.06532000.06532022","properties":{"hc-group":"admin3","hc-key":"de-he-06532000-06532022","hc-a2":"WA","name":"Waldsolms","hc-middle-lon":8.497,"hc-middle-lat":50.439}},{"type":"Polygon","arcs":[[-1173,-835,-1141,-1046,1178,-1128]],"id":"DE.HE.06533000.06533001","properties":{"hc-group":"admin3","hc-key":"de-he-06533000-06533001","hc-a2":"BE","name":"Beselich","hc-middle-lon":8.122,"hc-middle-lat":50.448}},{"type":"Polygon","arcs":[[-725,1179,1180,1181,1182,1183]],"id":"DE.HE.06636000.06636014","properties":{"hc-group":"admin3","hc-key":"de-he-06636000-06636014","hc-a2":"WE","name":"Wehretal","hc-middle-lon":9.968,"hc-middle-lat":51.147}},{"type":"Polygon","arcs":[[-1181,1184,-541,-754,1185]],"id":"DE.HE.06636000.06636008","properties":{"hc-group":"admin3","hc-key":"de-he-06636000-06636008","hc-a2":"ME","name":"Meißner","hc-middle-lon":9.914,"hc-middle-lat":51.199}},{"type":"Polygon","arcs":[[-1183,1186,120,1187]],"id":"DE.HE.06636000.06636015","properties":{"hc-group":"admin3","hc-key":"de-he-06636000-06636015","hc-a2":"WE","name":"Weißenborn","hc-middle-lon":10.154,"hc-middle-lat":51.106}},{"type":"Polygon","arcs":[[-310,-309,1188,-306,1189,1190,-1145]],"id":"DE.HE.06631000.06631011","properties":{"hc-group":"admin3","hc-key":"de-he-06631000-06631011","hc-a2":"GR","name":"Großenlüder","hc-middle-lon":9.544,"hc-middle-lat":50.572}},{"type":"Polygon","arcs":[[-904,1191,1192,119,-1187,-1182,-1186,-753]],"id":"DE.HE.06636000.06636003","properties":{"hc-group":"admin3","hc-key":"de-he-06636000-06636003","hc-a2":"ES","name":"Eschwege","hc-middle-lon":10.059,"hc-middle-lat":51.167}},{"type":"Polygon","arcs":[[-903,117,1193,-1192]],"id":"DE.HE.06636000.06636007","properties":{"hc-group":"admin3","hc-key":"de-he-06636000-06636007","hc-a2":"ME","name":"Meinhard","hc-middle-lon":10.078,"hc-middle-lat":51.219}},{"type":"Polygon","arcs":[[1194,-655,-1115,-1110,-1132]],"id":"DE.HE.06634000.06634013","properties":{"hc-group":"admin3","hc-key":"de-he-06634000-06634013","hc-a2":"MA","name":"Malsfeld","hc-middle-lon":9.516,"hc-middle-lat":51.064}},{"type":"Polygon","arcs":[[-1195,-1131,-543,317,-656]],"id":"DE.HE.06634000.06634015","properties":{"hc-group":"admin3","hc-key":"de-he-06634000-06634015","hc-a2":"MO","name":"Morschen","hc-middle-lon":9.611,"hc-middle-lat":51.066}},{"type":"Polygon","arcs":[[132,1195,-477,-1092,261,-614]],"id":"DE.HE.06438000.06438010","properties":{"hc-group":"admin3","hc-key":"de-he-06438000-06438010","hc-a2":"OB","name":"Obertshausen","hc-middle-lon":8.862,"hc-middle-lat":50.074}},{"type":"Polygon","arcs":[[1196,1197,-975,1198,-563,-571]],"id":"DE.HE.06535000.06535017","properties":{"hc-group":"admin3","hc-key":"de-he-06535000-06535017","hc-a2":"SC","name":"Schwalmtal","hc-middle-lon":9.322,"hc-middle-lat":50.678}},{"type":"Polygon","arcs":[[-1197,-570,-1148,-1028,1199,1200]],"id":"DE.HE.06535000.06535003","properties":{"hc-group":"admin3","hc-key":"de-he-06535000-06535003","hc-a2":"FE","name":"Feldatal","hc-middle-lon":9.183,"hc-middle-lat":50.642}},{"type":"Polygon","arcs":[[-421,-420,-1031,-927,-926]],"id":"DE.HE.06531000.06531006","properties":{"hc-group":"admin3","hc-key":"de-he-06531000-06531006","hc-a2":"GR","name":"Grünberg","hc-middle-lon":8.942,"hc-middle-lat":50.601}},{"type":"Polygon","arcs":[[420,421,-416,-415,-414,-979,1201,-1026]],"id":"DE.HE.06535000.06535009","properties":{"hc-group":"admin3","hc-key":"de-he-06535000-06535009","hc-a2":"H(","name":"Homberg (Ohm)","hc-middle-lon":8.989,"hc-middle-lat":50.716}},{"type":"Polygon","arcs":[[414,-806,-954,-1122]],"id":"DE.HE.06534000.06534001","properties":{"hc-group":"admin3","hc-key":"de-he-06534000-06534001","hc-a2":"AM","name":"Amöneburg","hc-middle-lon":8.92,"hc-middle-lat":50.78}},{"type":"Polygon","arcs":[[-1189,-308,-307]],"id":"DE.HE.06631000.06631001","properties":{"hc-group":"admin3","hc-key":"de-he-06631000-06631001","hc-a2":"BS","name":"Bad Salzschlirf","hc-middle-lon":9.499,"hc-middle-lat":50.64}},{"type":"Polygon","arcs":[[312,313,-316,-315,-441]],"id":"DE.HE.06535000.06535004","properties":{"hc-group":"admin3","hc-key":"de-he-06535000-06535004","hc-a2":"FR","name":"Freiensteinau","hc-middle-lon":9.408,"hc-middle-lat":50.44}},{"type":"Polygon","arcs":[[-314,-1146,-1191,1202,1203,-676,-878,-199]],"id":"DE.HE.06631000.06631018","properties":{"hc-group":"admin3","hc-key":"de-he-06631000-06631018","hc-a2":"NE","name":"Neuhof","hc-middle-lon":9.572,"hc-middle-lat":50.467}},{"type":"Polygon","arcs":[[308,-1144,-566,-1013,307]],"id":"DE.HE.06535000.06535019","properties":{"hc-group":"admin3","hc-key":"de-he-06535000-06535019","hc-a2":"WA","name":"Wartenberg","hc-middle-lon":9.423,"hc-middle-lat":50.615}},{"type":"Polygon","arcs":[[-916,1204,-497,170,171]],"id":"DE.HE.06632000.06632005","properties":{"hc-group":"admin3","hc-key":"de-he-06632000-06632005","hc-a2":"CO","name":"Cornberg","hc-middle-lon":9.807,"hc-middle-lat":51.064}},{"type":"Polygon","arcs":[[-171,-170,193,-542,-1185,-1180,-724]],"id":"DE.HE.06636000.06636012","properties":{"hc-group":"admin3","hc-key":"de-he-06636000-06636012","hc-a2":"WA","name":"Waldkappel","hc-middle-lon":9.854,"hc-middle-lat":51.14}},{"type":"Polygon","arcs":[[-286,-1161,-1165,-289,-288,-287]],"id":"DE.HE.06635000.06635017","properties":{"hc-group":"admin3","hc-key":"de-he-06635000-06635017","hc-a2":"RO","name":"Rosenthal","hc-middle-lon":8.825,"hc-middle-lat":50.985}},{"type":"Polygon","arcs":[[-321,-503,-1153,-515,-323,-322]],"id":"DE.HE.06632000.06632014","properties":{"hc-group":"admin3","hc-key":"de-he-06632000-06632014","hc-a2":"NE","name":"Neuenstein","hc-middle-lon":9.543,"hc-middle-lat":50.915}},{"type":"Polygon","arcs":[[-651,1205,1206,-552,1207,1208,-1116]],"id":"DE.HE.06634000.06634004","properties":{"hc-group":"admin3","hc-key":"de-he-06634000-06634004","hc-a2":"FR","name":"Frielendorf","hc-middle-lon":9.331,"hc-middle-lat":50.952}},{"type":"Polygon","arcs":[[-948,-325,-925,-1167]],"id":"DE.HE.06531000.06531001","properties":{"hc-group":"admin3","hc-key":"de-he-06531000-06531001","hc-a2":"A(","name":"Allendorf (Lumda)","hc-middle-lon":8.83,"hc-middle-lat":50.679}},{"type":"Polygon","arcs":[[-506,-988,-353,-352,81,-1139,1209]],"id":"DE.HE.06533000.06533008","properties":{"hc-group":"admin3","hc-key":"de-he-06533000-06533008","hc-a2":"HÜ","name":"Hünfelden","hc-middle-lon":8.16,"hc-middle-lat":50.307}},{"type":"Polygon","arcs":[[-1208,-551,-1125,-659,1210]],"id":"DE.HE.06634000.06634016","properties":{"hc-group":"admin3","hc-key":"de-he-06634000-06634016","hc-a2":"NE","name":"Neuental","hc-middle-lon":9.207,"hc-middle-lat":50.997}},{"type":"Polygon","arcs":[[-1198,-1201,1211,-977,-976]],"id":"DE.HE.06535000.06535014","properties":{"hc-group":"admin3","hc-key":"de-he-06535000-06535014","hc-a2":"RO","name":"Romrod","hc-middle-lon":9.21,"hc-middle-lat":50.704}},{"type":"Polygon","arcs":[[-1162,-284,-435,2,1212,1213]],"id":"DE.HE.06635000.06635004","properties":{"hc-group":"admin3","hc-key":"de-he-06635000-06635004","hc-a2":"B(","name":"Battenberg (Eder)","hc-middle-lon":8.536,"hc-middle-lat":51.047}},{"type":"Polygon","arcs":[[273,-641,-866,1214,272]],"id":"DE.HE.06633000.06633006","properties":{"hc-group":"admin3","hc-key":"de-he-06633000-06633006","hc-a2":"BE","name":"Bad Emstal","hc-middle-lon":9.219,"hc-middle-lat":51.284}},{"type":"Polygon","arcs":[[-1215,-865,-1083,-1080,251,-732,269,270,271]],"id":"DE.HE.06633000.06633023","properties":{"hc-group":"admin3","hc-key":"de-he-06633000-06633023","hc-a2":"SC","name":"Schauenburg","hc-middle-lon":9.305,"hc-middle-lat":51.298}},{"type":"Polygon","arcs":[[-271,-1119,-1113,-918,-1134]],"id":"DE.HE.06634000.06634007","properties":{"hc-group":"admin3","hc-key":"de-he-06634000-06634007","hc-a2":"GU","name":"Gudensberg","hc-middle-lon":9.368,"hc-middle-lat":51.177}},{"type":"Polygon","arcs":[[-1212,-1200,-1027,-1202,-978]],"id":"DE.HE.06535000.06535005","properties":{"hc-group":"admin3","hc-key":"de-he-06535000-06535005","hc-a2":"G(","name":"Gemünden (Felda)","hc-middle-lon":9.086,"hc-middle-lat":50.69}},{"type":"Polygon","arcs":[[263,264,265,1215,1216,1217,-468,197]],"id":"DE.HE.06633000.06633024","properties":{"hc-group":"admin3","hc-key":"de-he-06633000-06633024","hc-a2":"SÖ","name":"Söhrewald","hc-middle-lon":9.584,"hc-middle-lat":51.223}},{"type":"MultiPolygon","arcs":[[[-605,1218,-602,1219]],[[1220,-600,1221,1222,1223,-607]]],"id":"DE.HE.06633000.06633013","properties":{"hc-group":"admin3","hc-key":"de-he-06633000-06633013","hc-a2":"HO","name":"Hofgeismar","hc-middle-lon":9.397,"hc-middle-lat":51.496}},{"type":"Polygon","arcs":[[-1175,1224,1225,-702,-818,1226]],"id":"DE.HE.06532000.06532021","properties":{"hc-group":"admin3","hc-key":"de-he-06532000-06532021","hc-a2":"SO","name":"Solms","hc-middle-lon":8.438,"hc-middle-lat":50.542}},{"type":"Polygon","arcs":[[-573,114]],"id":"DE.HE.06636000.06636009","properties":{"hc-group":"admin3","hc-key":"de-he-06636000-06636009","hc-a2":"NE","name":"Neu-Eichenberg","hc-middle-lon":9.909,"hc-middle-lat":51.415}},{"type":"Polygon","arcs":[[-881,-1073,-1069,-1072]],"id":"DE.HE.06440000.06440006","properties":{"hc-group":"admin3","hc-key":"de-he-06440000-06440006","hc-a2":"EC","name":"Echzell","hc-middle-lon":8.895,"hc-middle-lat":50.389}},{"type":"Polygon","arcs":[[-840,-886,-758,-757,-242,-241,-240,-239,-997]],"id":"DE.HE.06440000.06440004","properties":{"hc-group":"admin3","hc-key":"de-he-06440000-06440004","hc-a2":"BÜ","name":"Büdingen","hc-middle-lon":9.111,"hc-middle-lat":50.293}},{"type":"Polygon","arcs":[[-971,-869,240,-1038,-1099,-967]],"id":"DE.HE.06435000.06435012","properties":{"hc-group":"admin3","hc-key":"de-he-06435000-06435012","hc-a2":"GR","name":"Gründau","hc-middle-lon":9.137,"hc-middle-lat":50.231}},{"type":"Polygon","arcs":[[-1196,133,134,60,-895,-478]],"id":"DE.HE.06438000.06438004","properties":{"hc-group":"admin3","hc-key":"de-he-06438000-06438004","hc-a2":"HA","name":"Hainburg","hc-middle-lon":8.975,"hc-middle-lat":50.075}},{"type":"MultiPolygon","arcs":[[[45,-257,-256,-255,-254,-253,-252,-251,-250,-249,-248]],[[46,-258]]],"id":"DE.HE.06611000.06611000","properties":{"hc-group":"admin3","hc-key":"de-he-06611000-06611000","hc-a2":"KA","name":"Kassel","hc-middle-lon":9.46,"hc-middle-lat":51.308}},{"type":"Polygon","arcs":[[254,1227,-1217,1228]],"id":"DE.HE.06633000.06633017","properties":{"hc-group":"admin3","hc-key":"de-he-06633000-06633017","hc-a2":"LO","name":"Lohfelden","hc-middle-lon":9.555,"hc-middle-lat":51.267}},{"type":"Polygon","arcs":[[248,-1168,1229,-1019]],"id":"DE.HE.06633000.06633026","properties":{"hc-group":"admin3","hc-key":"de-he-06633000-06633026","hc-a2":"VE","name":"Vellmar","hc-middle-lon":9.495,"hc-middle-lat":51.359}},{"type":"Polygon","arcs":[[-1216,266,-733,253,-1229]],"id":"DE.HE.06633000.06633008","properties":{"hc-group":"admin3","hc-key":"de-he-06633000-06633008","hc-a2":"FU","name":"Fuldabrück","hc-middle-lon":9.488,"hc-middle-lat":51.248}},{"type":"Polygon","arcs":[[6,1230,-825,1231,-637,1232,1233]],"id":"DE.HE.06635000.06635015","properties":{"hc-group":"admin3","hc-key":"de-he-06635000-06635015","hc-a2":"KO","name":"Korbach","hc-middle-lon":8.839,"hc-middle-lat":51.27}},{"type":"Polygon","arcs":[[73,1234,-524,-736,-960,1235,-811,1236]],"id":"DE.HE.06631000.06631013","properties":{"hc-group":"admin3","hc-key":"de-he-06631000-06631013","hc-a2":"HO","name":"Hofbieber","hc-middle-lon":9.89,"hc-middle-lat":50.587}},{"type":"Polygon","arcs":[[-1236,-959,-743,1237,-812]],"id":"DE.HE.06631000.06631020","properties":{"hc-group":"admin3","hc-key":"de-he-06631000-06631020","hc-a2":"PE","name":"Petersberg","hc-middle-lon":9.761,"hc-middle-lat":50.591}},{"type":"Polygon","arcs":[[-262,-261,-260,-259,-295,293,-263]],"id":"DE.HE.06413000.06413000","properties":{"hc-group":"admin3","hc-key":"de-he-06413000-06413000","hc-a2":"OA","name":"Offenbach am Main","hc-middle-lon":8.772,"hc-middle-lat":50.092}},{"type":"Polygon","arcs":[[-1011,-1090,-1096,-910]],"id":"DE.HE.06439000.06439002","properties":{"hc-group":"admin3","hc-key":"de-he-06439000-06439002","hc-a2":"BS","name":"Bad Schwalbach","hc-middle-lon":8.068,"hc-middle-lat":50.147}},{"type":"Polygon","arcs":[[-1075,-527,200,201,-1155]],"id":"DE.HE.06435000.06435025","properties":{"hc-group":"admin3","hc-key":"de-he-06435000-06435025","hc-a2":"SC","name":"Schlüchtern","hc-middle-lon":9.577,"hc-middle-lat":50.35}},{"type":"Polygon","arcs":[[1238,1239,19,-1166,-1061]],"id":"DE.HE.06437000.06437010","properties":{"hc-group":"admin3","hc-key":"de-he-06437000-06437010","hc-a2":"LÜ","name":"Lützelbach","hc-middle-lon":9.099,"hc-middle-lat":49.769}},{"type":"Polygon","arcs":[[-1239,-1060,-1057,-164,-163,1240]],"id":"DE.HE.06437000.06437009","properties":{"hc-group":"admin3","hc-key":"de-he-06437000-06437009","hc-a2":"HI","name":"Höchst i. Odw.","hc-middle-lon":8.978,"hc-middle-lat":49.789}},{"type":"Polygon","arcs":[[1241,-741,-1157,-677,-1204]],"id":"DE.HE.06631000.06631006","properties":{"hc-group":"admin3","hc-key":"de-he-06631000-06631006","hc-a2":"EI","name":"Eichenzell","hc-middle-lon":9.697,"hc-middle-lat":50.46}},{"type":"Polygon","arcs":[[-1242,-1203,-1190,-305,-813,-1238,-742]],"id":"DE.HE.06631000.06631009","properties":{"hc-group":"admin3","hc-key":"de-he-06631000-06631009","hc-a2":"FU","name":"Fulda","hc-middle-lon":9.617,"hc-middle-lat":50.554}},{"type":"Polygon","arcs":[[-1235,74,-525]],"id":"DE.HE.06631000.06631023","properties":{"hc-group":"admin3","hc-key":"de-he-06631000-06631023","hc-a2":"T(","name":"Tann (Rhön)","hc-middle-lon":10.011,"hc-middle-lat":50.633}},{"type":"Polygon","arcs":[[-282,1242,-621,1243,-635,-125]],"id":"DE.HE.06635000.06635009","properties":{"hc-group":"admin3","hc-key":"de-he-06635000-06635009","hc-a2":"ED","name":"Edertal","hc-middle-lon":9.073,"hc-middle-lat":51.165}},{"type":"Polygon","arcs":[[-622,-1243,-281,-280,-623]],"id":"DE.HE.06635000.06635003","properties":{"hc-group":"admin3","hc-key":"de-he-06635000-06635003","hc-a2":"BW","name":"Bad Wildungen","hc-middle-lon":9.115,"hc-middle-lat":51.099}},{"type":"Polygon","arcs":[[1244,-814,-303,330]],"id":"DE.HE.06631000.06631002","properties":{"hc-group":"admin3","hc-key":"de-he-06631000-06631002","hc-a2":"BU","name":"Burghaun","hc-middle-lon":9.694,"hc-middle-lat":50.707}},{"type":"Polygon","arcs":[[-1245,331,332,333,334,70,-808,-815]],"id":"DE.HE.06631000.06631007","properties":{"hc-group":"admin3","hc-key":"de-he-06631000-06631007","hc-a2":"EI","name":"Eiterfeld","hc-middle-lon":9.818,"hc-middle-lat":50.765}},{"type":"Polygon","arcs":[[135,-1018,-1152,-332,-331]],"id":"DE.HE.06632000.06632008","properties":{"hc-group":"admin3","hc-key":"de-he-06632000-06632008","hc-a2":"HA","name":"Haunetal","hc-middle-lon":9.655,"hc-middle-lat":50.752}},{"type":"Polygon","arcs":[[-1226,1245,-795,-801,-1103,-703]],"id":"DE.HE.06532000.06532008","properties":{"hc-group":"admin3","hc-key":"de-he-06532000-06532008","hc-a2":"EH","name":"Ehringshausen","hc-middle-lon":8.38,"hc-middle-lat":50.623}},{"type":"Polygon","arcs":[[-1246,-1225,-1174,179,-796]],"id":"DE.HE.06532000.06532016","properties":{"hc-group":"admin3","hc-key":"de-he-06532000-06532016","hc-a2":"LE","name":"Leun","hc-middle-lon":8.363,"hc-middle-lat":50.561}},{"type":"Polygon","arcs":[[255,-889,-472,-401,-469,-1218,-1228]],"id":"DE.HE.06633000.06633015","properties":{"hc-group":"admin3","hc-key":"de-he-06633000-06633015","hc-a2":"KA","name":"Kaufungen","hc-middle-lon":9.634,"hc-middle-lat":51.302}},{"type":"Polygon","arcs":[[83,-1142,85,-1048,-1140]],"id":"DE.HE.06533000.06533006","properties":{"hc-group":"admin3","hc-key":"de-he-06533000-06533006","hc-a2":"EL","name":"Elz","hc-middle-lon":8.008,"hc-middle-lat":50.416}},{"type":"Polygon","arcs":[[-667,-958,219,-224,-223,1246,1247]],"id":"DE.HE.06432000.06432012","properties":{"hc-group":"admin3","hc-key":"de-he-06432000-06432012","hc-a2":"ME","name":"Messel","hc-middle-lon":8.733,"hc-middle-lat":49.957}},{"type":"Polygon","arcs":[[-1248,1248,-482,-664,-668]],"id":"DE.HE.06432000.06432015","properties":{"hc-group":"admin3","hc-key":"de-he-06432000-06432015","hc-a2":"MÜ","name":"Münster","hc-middle-lon":8.845,"hc-middle-lat":49.927}},{"type":"Polygon","arcs":[[356,103,358,359,360,361,362,205,206,207]],"id":"DE.HE.06414000.06414000","properties":{"hc-group":"admin3","hc-key":"de-he-06414000-06414000","hc-a2":"WI","name":"Wiesbaden","hc-middle-lon":8.27,"hc-middle-lat":50.079}},{"type":"Polygon","arcs":[[-1179,-1045,-1049,-1042,88,-547,-1129]],"id":"DE.HE.06533000.06533016","properties":{"hc-group":"admin3","hc-key":"de-he-06533000-06533016","hc-a2":"W(","name":"Waldbrunn (Westerwald)","hc-middle-lon":8.086,"hc-middle-lat":50.53}},{"type":"Polygon","arcs":[[-380,-390,208,-778]],"id":"DE.HE.06432000.06432006","properties":{"hc-group":"admin3","hc-key":"de-he-06432000-06432006","hc-a2":"ER","name":"Erzhausen","hc-middle-lon":8.633,"hc-middle-lat":49.952}},{"type":"Polygon","arcs":[[-335,1249,-559,-1124,69]],"id":"DE.HE.06632000.06632010","properties":{"hc-group":"admin3","hc-key":"de-he-06632000-06632010","hc-a2":"HO","name":"Hohenroda","hc-middle-lon":9.951,"hc-middle-lat":50.788}},{"type":"MultiPolygon","arcs":[[[52,-679,-593]],[[-682,-680,54,-595,-681,-683,-684]]],"id":"DE.HE.06633000.06633021","properties":{"hc-group":"admin3","hc-key":"de-he-06633000-06633021","hc-a2":"OB","name":"Oberweser","hc-middle-lon":9.681,"hc-middle-lat":51.573}},{"type":"Polygon","arcs":[[-686,-693,48,1250,-1223,1251]],"id":"DE.HE.06633000.06633016","properties":{"hc-group":"admin3","hc-key":"de-he-06633000-06633016","hc-a2":"LI","name":"Liebenau","hc-middle-lon":9.265,"hc-middle-lat":51.485}},{"type":"Polygon","arcs":[[-1252,-1222,-599,1252,1253,-687]],"id":"DE.HE.06633000.06633010","properties":{"hc-group":"admin3","hc-key":"de-he-06633000-06633010","hc-a2":"GR","name":"Grebenstein","hc-middle-lon":9.387,"hc-middle-lat":51.45}},{"type":"Polygon","arcs":[[-292,1254,288,289]],"id":"DE.HE.06534000.06534022","properties":{"hc-group":"admin3","hc-key":"de-he-06534000-06534022","hc-a2":"WO","name":"Wohratal","hc-middle-lon":8.93,"hc-middle-lat":50.935}},{"type":"Polygon","arcs":[[-699,-723,-722,286,1255,-1093,-695]],"id":"DE.HE.06534000.06534021","properties":{"hc-group":"admin3","hc-key":"de-he-06534000-06534021","hc-a2":"W(","name":"Wetter (Hessen)","hc-middle-lon":8.682,"hc-middle-lat":50.909}},{"type":"Polygon","arcs":[[-606,-1220,-601,-1221,-608,-1224,-1251,49,1256,-603,-1219],[-591],[-592]],"id":"DE.HE.06633000.06633025","properties":{"hc-group":"admin3","hc-key":"de-he-06633000-06633025","hc-a2":"TR","name":"Trendelburg","hc-middle-lon":9.383,"hc-middle-lat":51.582}},{"type":"Polygon","arcs":[[-1257,50,-604]],"id":"DE.HE.06633000.06633002","properties":{"hc-group":"admin3","hc-key":"de-he-06633000-06633002","hc-a2":"BK","name":"Bad Karlshafen","hc-middle-lon":9.454,"hc-middle-lat":51.633}},{"type":"Polygon","arcs":[[-1254,1257,-1020,-1230,-688]],"id":"DE.HE.06633000.06633007","properties":{"hc-group":"admin3","hc-key":"de-he-06633000-06633007","hc-a2":"ES","name":"Espenau","hc-middle-lon":9.495,"hc-middle-lat":51.392}},{"type":"Polygon","arcs":[[-1258,-1253,-598,-1021]],"id":"DE.HE.06633000.06633014","properties":{"hc-group":"admin3","hc-key":"de-he-06633000-06633014","hc-a2":"IM","name":"Immenhausen","hc-middle-lon":9.499,"hc-middle-lat":51.427}},{"type":"Polygon","arcs":[[-1207,1258,1259,404,405,-410,-553]],"id":"DE.HE.06634000.06634026","properties":{"hc-group":"admin3","hc-key":"de-he-06634000-06634026","hc-a2":"WI","name":"Willingshausen","hc-middle-lon":9.196,"hc-middle-lat":50.857}},{"type":"Polygon","arcs":[[-1259,-1206,-650,-520,1260,1261]],"id":"DE.HE.06634000.06634017","properties":{"hc-group":"admin3","hc-key":"de-he-06634000-06634017","hc-a2":"NE","name":"Neukirchen","hc-middle-lon":9.35,"hc-middle-lat":50.888}},{"type":"Polygon","arcs":[[-483,-1249,-1247,-222,-221]],"id":"DE.HE.06432000.06432005","properties":{"hc-group":"admin3","hc-key":"de-he-06432000-06432005","hc-a2":"EP","name":"Eppertshausen","hc-middle-lon":8.854,"hc-middle-lat":49.95}},{"type":"Polygon","arcs":[[1262,-1261,-519,-300,402]],"id":"DE.HE.06634000.06634020","properties":{"hc-group":"admin3","hc-key":"de-he-06634000-06634020","hc-a2":"OT","name":"Ottrau","hc-middle-lon":9.412,"hc-middle-lat":50.826}},{"type":"Polygon","arcs":[[-1263,403,-1260,-1262]],"id":"DE.HE.06634000.06634021","properties":{"hc-group":"admin3","hc-key":"de-he-06634000-06634021","hc-a2":"SC","name":"Schrecksbach","hc-middle-lon":9.312,"hc-middle-lat":50.829}},{"type":"Polygon","arcs":[[150,-1178,-1176,-1227,-817,-1159]],"id":"DE.HE.06532000.06532018","properties":{"hc-group":"admin3","hc-key":"de-he-06532000-06532018","hc-a2":"SC","name":"Schöffengrund","hc-middle-lon":8.521,"hc-middle-lat":50.485}},{"type":"Polygon","arcs":[[102,-613,-772,93,-1097,-1088,-1087]],"id":"DE.HE.06439000.06439012","properties":{"hc-group":"admin3","hc-key":"de-he-06439000-06439012","hc-a2":"OW","name":"Oestrich-Winkel","hc-middle-lon":7.996,"hc-middle-lat":49.988}},{"type":"Polygon","arcs":[[-1244,-620,-1170,1263,-1233,-636]],"id":"DE.HE.06635000.06635019","properties":{"hc-group":"admin3","hc-key":"de-he-06635000-06635019","hc-a2":"VÖ","name":"Vöhl","hc-middle-lon":8.899,"hc-middle-lat":51.154}},{"type":"Polygon","arcs":[[26,75,-767,-1105,-797]],"id":"DE.HE.06532000.06532007","properties":{"hc-group":"admin3","hc-key":"de-he-06532000-06532007","hc-a2":"DR","name":"Driedorf","hc-middle-lon":8.178,"hc-middle-lat":50.633}},{"type":"Polygon","arcs":[[29,-1156,-738,-961]],"id":"DE.HE.06631000.06631010","properties":{"hc-group":"admin3","hc-key":"de-he-06631000-06631010","hc-a2":"G(","name":"Gersfeld (Rhön)","hc-middle-lon":9.899,"hc-middle-lat":50.447}},{"type":"Polygon","arcs":[[10,-448,-827]],"id":"DE.HE.06635000.06635008","properties":{"hc-group":"admin3","hc-key":"de-he-06635000-06635008","hc-a2":"DI","name":"Diemelstadt","hc-middle-lon":8.987,"hc-middle-lat":51.479}},{"type":"Polygon","arcs":[[-974,-139,-1014,-564,-1199]],"id":"DE.HE.06535000.06535006","properties":{"hc-group":"admin3","hc-key":"de-he-06535000-06535006","hc-a2":"GR","name":"Grebenau","hc-middle-lon":9.434,"hc-middle-lat":50.728}},{"type":"Polygon","arcs":[[91,-771,-611]],"id":"DE.HE.06439000.06439013","properties":{"hc-group":"admin3","hc-key":"de-he-06439000-06439013","hc-a2":"RA","name":"Rüdesheim am Rhein","hc-middle-lon":7.87,"hc-middle-lat":49.981}},{"type":"Polygon","arcs":[[122,-727,1264]],"id":"DE.HE.06636000.06636005","properties":{"hc-group":"admin3","hc-key":"de-he-06636000-06636005","hc-a2":"HE","name":"Herleshausen","hc-middle-lon":10.128,"hc-middle-lat":51.029}},{"type":"Polygon","arcs":[[18,-1240,-1241,-162]],"id":"DE.HE.06437000.06437004","properties":{"hc-group":"admin3","hc-key":"de-he-06437000-06437004","hc-a2":"BR","name":"Breuberg","hc-middle-lon":9.072,"hc-middle-lat":49.822}},{"type":"Polygon","arcs":[[3,-1172,1265,-1213]],"id":"DE.HE.06635000.06635005","properties":{"hc-group":"admin3","hc-key":"de-he-06635000-06635005","hc-a2":"BR","name":"Bromskirchen","hc-middle-lon":8.524,"hc-middle-lat":51.081}},{"type":"Polygon","arcs":[[-498,-1205,-915,-914,-499]],"id":"DE.HE.06632000.06632003","properties":{"hc-group":"admin3","hc-key":"de-he-06632000-06632003","hc-a2":"BE","name":"Bebra","hc-middle-lon":9.848,"hc-middle-lat":51.006}},{"type":"Polygon","arcs":[[13,-452]],"id":"DE.HE.06437000.06437014","properties":{"hc-group":"admin3","hc-key":"de-he-06437000-06437014","hc-a2":"RO","name":"Rothenberg","hc-middle-lon":8.928,"hc-middle-lat":49.49}},{"type":"Polygon","arcs":[[-1147,-762,-1071,431]],"id":"DE.HE.06440000.06440011","properties":{"hc-group":"admin3","hc-key":"de-he-06440000-06440011","hc-a2":"HI","name":"Hirzenhain","hc-middle-lon":9.131,"hc-middle-lat":50.433}},{"type":"Polygon","arcs":[[-433,-432,-431,416,-1149,-1143,-439]],"id":"DE.HE.06535000.06535016","properties":{"hc-group":"admin3","hc-key":"de-he-06535000-06535016","hc-a2":"SC","name":"Schotten","hc-middle-lon":9.163,"hc-middle-lat":50.497}},{"type":"Polygon","arcs":[[-496,-504,-319,-318,-317]],"id":"DE.HE.06632000.06632001","properties":{"hc-group":"admin3","hc-key":"de-he-06632000-06632001","hc-a2":"AL","name":"Alheim","hc-middle-lon":9.64,"hc-middle-lat":51.018}},{"type":"Polygon","arcs":[[7,-826,-1231]],"id":"DE.HE.06635000.06635022","properties":{"hc-group":"admin3","hc-key":"de-he-06635000-06635022","hc-a2":"W(","name":"Willingen (Upland)","hc-middle-lon":8.64,"hc-middle-lat":51.288}},{"type":"Polygon","arcs":[[-1039,243,-438,-537]],"id":"DE.HE.06435000.06435005","properties":{"hc-group":"admin3","hc-key":"de-he-06435000-06435005","hc-a2":"BR","name":"Brachttal","hc-middle-lon":9.295,"hc-middle-lat":50.323}},{"type":"Polygon","arcs":[[5,-1234,-1264,-1169]],"id":"DE.HE.06635000.06635016","properties":{"hc-group":"admin3","hc-key":"de-he-06635000-06635016","hc-a2":"LI","name":"Lichtenfels","hc-middle-lon":8.802,"hc-middle-lat":51.187}},{"type":"Polygon","arcs":[[-429,-428,-427,-993,-1030]],"id":"DE.HE.06531000.06531008","properties":{"hc-group":"admin3","hc-key":"de-he-06531000-06531008","hc-a2":"HU","name":"Hungen","hc-middle-lon":8.93,"hc-middle-lat":50.482}},{"type":"Polygon","arcs":[[-1214,-1266,-1171,-1163]],"id":"DE.HE.06635000.06635001","properties":{"hc-group":"admin3","hc-key":"de-he-06635000-06635001","hc-a2":"A(","name":"Allendorf (Eder)","hc-middle-lon":8.659,"hc-middle-lat":51.044}},{"type":"Polygon","arcs":[[118,-1193,-1194]],"id":"DE.HE.06636000.06636013","properties":{"hc-group":"admin3","hc-key":"de-he-06636000-06636013","hc-a2":"WA","name":"Wanfried","hc-middle-lon":10.196,"hc-middle-lat":51.184}},{"type":"Polygon","arcs":[[56,-596]],"id":"DE.HE.06633000.06633022","properties":{"hc-group":"admin3","hc-key":"de-he-06633000-06633022","hc-a2":"RE","name":"Reinhardshagen","hc-middle-lon":9.593,"hc-middle-lat":51.5}},{"type":"Polygon","arcs":[[-645,44,-135]],"id":"DE.HE.06435000.06435011","properties":{"hc-group":"admin3","hc-key":"de-he-06435000-06435011","hc-a2":"GR","name":"Großkrotzenburg","hc-middle-lon":8.973,"hc-middle-lat":50.082}},{"type":"Polygon","arcs":[[-856,343,-1051]],"id":"DE.HE.06434000.06434002","properties":{"hc-group":"admin3","hc-key":"de-he-06434000-06434002","hc-a2":"FR","name":"Friedrichsdorf","hc-middle-lon":8.639,"hc-middle-lat":50.268}},{"type":"Polygon","arcs":[[-858,-1050,-989,-940]],"id":"DE.HE.06434000.06434007","properties":{"hc-group":"admin3","hc-key":"de-he-06434000-06434007","hc-a2":"NA","name":"Neu-Anspach","hc-middle-lon":8.531,"hc-middle-lat":50.284}},{"type":"Polygon","arcs":[[-726,-1184,-1188,121,-1265]],"id":"DE.HE.06636000.06636010","properties":{"hc-group":"admin3","hc-key":"de-he-06636000-06636010","hc-a2":"RI","name":"Ringgau","hc-middle-lon":10.071,"hc-middle-lat":51.09}},{"type":"Polygon","arcs":[[-890,23,-451]],"id":"DE.HE.06437000.06437015","properties":{"hc-group":"admin3","hc-key":"de-he-06437000-06437015","hc-a2":"SE","name":"Sensbachtal","hc-middle-lon":9.022,"hc-middle-lat":49.502}},{"type":"Polygon","arcs":[[-921,1266,-1117,-1209,-1211,-658]],"id":"DE.HE.06634000.06634001","properties":{"hc-group":"admin3","hc-key":"de-he-06634000-06634001","hc-a2":"B(","name":"Borken (Hessen)","hc-middle-lon":9.266,"hc-middle-lat":51.048}},{"type":"Polygon","arcs":[[-952,-1094,-1256,287,-1255,-291,-1123]],"id":"DE.HE.06534000.06534017","properties":{"hc-group":"admin3","hc-key":"de-he-06534000-06534017","hc-a2":"RA","name":"Rauschenberg","hc-middle-lon":8.931,"hc-middle-lat":50.898}},{"type":"Polygon","arcs":[[-920,-1112,-1118,-1267]],"id":"DE.HE.06634000.06634025","properties":{"hc-group":"admin3","hc-key":"de-he-06634000-06634025","hc-a2":"WA","name":"Wabern","hc-middle-lon":9.359,"hc-middle-lat":51.089}},{"type":"Polygon","arcs":[[-1085,-1091]],"id":"DE.HE.06439000.06439009","properties":{"hc-group":"admin3","hc-key":"de-he-06439000-06439009","hc-a2":"KI","name":"Kiedrich","hc-middle-lon":8.071,"hc-middle-lat":50.057}},{"type":"Polygon","arcs":[[-560,-1250,-334,-1151,-1154]],"id":"DE.HE.06632000.06632019","properties":{"hc-group":"admin3","hc-key":"de-he-06632000-06632019","hc-a2":"SC","name":"Schenklengsfeld","hc-middle-lon":9.85,"hc-middle-lat":50.824}},{"type":"Polygon","arcs":[[-507,-1210,-1138,-1137]],"id":"DE.HE.06533000.06533002","properties":{"hc-group":"admin3","hc-key":"de-he-06533000-06533002","hc-a2":"BR","name":"Brechen","hc-middle-lon":8.154,"hc-middle-lat":50.363}},{"type":"Polygon","arcs":[[-810,-809,72,-1237]],"id":"DE.HE.06631000.06631019","properties":{"hc-group":"admin3","hc-key":"de-he-06631000-06631019","hc-a2":"NÜ","name":"Nüsttal","hc-middle-lon":9.875,"hc-middle-lat":50.65}},{"type":"Polygon","arcs":[[-480,64,-665]],"id":"DE.HE.06432000.06432021","properties":{"hc-group":"admin3","hc-key":"de-he-06432000-06432021","hc-a2":"SC","name":"Schaafheim","hc-middle-lon":9.025,"hc-middle-lat":49.927}},{"type":"Polygon","arcs":[[-1064,-955,-661,163,164]],"id":"DE.HE.06432000.06432017","properties":{"hc-group":"admin3","hc-key":"de-he-06432000-06432017","hc-a2":"OT","name":"Otzberg","hc-middle-lon":8.872,"hc-middle-lat":49.814}},{"type":"Polygon","arcs":[[-1232,-824,-828,-638]],"id":"DE.HE.06635000.06635018","properties":{"hc-group":"admin3","hc-key":"de-he-06635000-06635018","hc-a2":"TW","name":"Twistetal","hc-middle-lon":8.951,"hc-middle-lat":51.324}},