{"type":"Topology","objects":{"default":{"type":"GeometryCollection","geometries":[{"type":"Polygon","arcs":[[31,535,536,537]],"id":"DE.NW.05382000.05382016","properties":{"hc-group":"admin3","hc-key":"de-nw-05382000-05382016","hc-a2":"EI","name":"Eitorf","hc-middle-lon":7.483,"hc-middle-lat":50.727}},{"type":"MultiPolygon","arcs":[[[0]],[[538,539,540,100,541,542]]],"id":"DE.NW.05334000.05334002","properties":{"hc-group":"admin3","hc-key":"de-nw-05334000-05334002","hc-a2":"AA","name":"Aachen","hc-middle-lon":6.114,"hc-middle-lat":50.763}},{"type":"Polygon","arcs":[[21,184,185,543]],"id":"DE.NW.05758000.05758028","properties":{"hc-group":"admin3","hc-key":"de-nw-05758000-05758028","hc-a2":"RÖ","name":"Rödinghausen","hc-middle-lon":8.488,"hc-middle-lat":52.241}},{"type":"Polygon","arcs":[[544,545,139,140,141,-250,245]],"id":"DE.NW.05166000.05166012","properties":{"hc-group":"admin3","hc-key":"de-nw-05166000-05166012","hc-a2":"KE","name":"Kempen","hc-middle-lon":6.42,"hc-middle-lat":51.376}},{"type":"Polygon","arcs":[[-545,246,546,547,548]],"id":"DE.NW.05166000.05166028","properties":{"hc-group":"admin3","hc-key":"de-nw-05166000-05166028","hc-a2":"TÖ","name":"Tönisvorst","hc-middle-lon":6.451,"hc-middle-lat":51.321}},{"type":"Polygon","arcs":[[549,550,282,-353,551]],"id":"DE.NW.05374000.05374008","properties":{"hc-group":"admin3","hc-key":"de-nw-05374000-05374008","hc-a2":"EN","name":"Engelskirchen","hc-middle-lon":7.427,"hc-middle-lat":50.983}},{"type":"Polygon","arcs":[[-550,552,553,-129,177,554,555,556]],"id":"DE.NW.05374000.05374012","properties":{"hc-group":"admin3","hc-key":"de-nw-05374000-05374012","hc-a2":"GU","name":"Gummersbach","hc-middle-lon":7.557,"hc-middle-lat":51.022}},{"type":"Polygon","arcs":[[88,557,558,559,560,561]],"id":"DE.NW.05566000.05566016","properties":{"hc-group":"admin3","hc-key":"de-nw-05566000-05566016","hc-a2":"HÖ","name":"Hörstel","hc-middle-lon":7.485,"hc-middle-lat":52.343}},{"type":"Polygon","arcs":[[12,562,563,564,120,-122]],"id":"DE.NW.05766000.05766036","properties":{"hc-group":"admin3","hc-key":"de-nw-05766000-05766036","hc-a2":"KA","name":"Kalletal","hc-middle-lon":8.954,"hc-middle-lat":52.129}},{"type":"Polygon","arcs":[[5,122,123,228,565,566]],"id":"DE.NW.05370000.05370040","properties":{"hc-group":"admin3","hc-key":"de-nw-05370000-05370040","hc-a2":"WE","name":"Wegberg","hc-middle-lon":6.247,"hc-middle-lat":51.147}},{"type":"Polygon","arcs":[[567,568,-210,569,570,571]],"id":"DE.NW.05362000.05362008","properties":{"hc-group":"admin3","hc-key":"de-nw-05362000-05362008","hc-a2":"BE","name":"Bergheim","hc-middle-lon":6.679,"hc-middle-lat":50.972}},{"type":"Polygon","arcs":[[-568,572,367,368,369,573]],"id":"DE.NW.05362000.05362016","properties":{"hc-group":"admin3","hc-key":"de-nw-05362000-05362016","hc-a2":"EL","name":"Elsdorf","hc-middle-lon":6.555,"hc-middle-lat":50.926}},{"type":"Polygon","arcs":[[42,-305,-304,574,575,576,577]],"id":"DE.NW.05166000.05166016","properties":{"hc-group":"admin3","hc-key":"de-nw-05166000-05166016","hc-a2":"NE","name":"Nettetal","hc-middle-lon":6.259,"hc-middle-lat":51.313}},{"type":"Polygon","arcs":[[578,579,-136,-139,580,581,582]],"id":"DE.NW.05562000.05562008","properties":{"hc-group":"admin3","hc-key":"de-nw-05562000-05562008","hc-a2":"DA","name":"Datteln","hc-middle-lon":7.308,"hc-middle-lat":51.66}},{"type":"Polygon","arcs":[[-579,583,584,585]],"id":"DE.NW.05562000.05562028","properties":{"hc-group":"admin3","hc-key":"de-nw-05562000-05562028","hc-a2":"OE","name":"Oer-Erkenschwick","hc-middle-lon":7.208,"hc-middle-lat":51.651}},{"type":"Polygon","arcs":[[124,125,586,587,588]],"id":"DE.NW.05962000.05962028","properties":{"hc-group":"admin3","hc-key":"de-nw-05962000-05962028","hc-a2":"KI","name":"Kierspe","hc-middle-lon":7.597,"hc-middle-lat":51.155}},{"type":"Polygon","arcs":[[-125,-130,-554,589,590]],"id":"DE.NW.05374000.05374024","properties":{"hc-group":"admin3","hc-key":"de-nw-05374000-05374024","hc-a2":"MA","name":"Marienheide","hc-middle-lon":7.534,"hc-middle-lat":51.076}},{"type":"Polygon","arcs":[[591,592,593,594,595,-561,596]],"id":"DE.NW.05566000.05566008","properties":{"hc-group":"admin3","hc-key":"de-nw-05566000-05566008","hc-a2":"EM","name":"Emsdetten","hc-middle-lon":7.497,"hc-middle-lat":52.169}},{"type":"Polygon","arcs":[[-592,597,598,452,453,-314,599,600]],"id":"DE.NW.05566000.05566012","properties":{"hc-group":"admin3","hc-key":"de-nw-05566000-05566012","hc-a2":"GR","name":"Greven","hc-middle-lon":7.636,"hc-middle-lat":52.094}},{"type":"Polygon","arcs":[[45,601,602,-336,603]],"id":"DE.NW.05154000.05154032","properties":{"hc-group":"admin3","hc-key":"de-nw-05154000-05154032","hc-a2":"KE","name":"Kevelaer","hc-middle-lon":6.252,"hc-middle-lat":51.58}},{"type":"Polygon","arcs":[[604,605,606,-118,238,607]],"id":"DE.NW.05758000.05758012","properties":{"hc-group":"admin3","hc-key":"de-nw-05758000-05758012","hc-a2":"HE","name":"Herford","hc-middle-lon":8.659,"hc-middle-lat":52.113}},{"type":"Polygon","arcs":[[-605,608,609,610,611]],"id":"DE.NW.05758000.05758016","properties":{"hc-group":"admin3","hc-key":"de-nw-05758000-05758016","hc-a2":"HI","name":"Hiddenhausen","hc-middle-lon":8.668,"hc-middle-lat":52.159}},{"type":"Polygon","arcs":[[-611,612,187,613]],"id":"DE.NW.05758000.05758020","properties":{"hc-group":"admin3","hc-key":"de-nw-05758000-05758020","hc-a2":"KI","name":"Kirchlengern","hc-middle-lon":8.638,"hc-middle-lat":52.236}},{"type":"Polygon","arcs":[[614,615,616,617,618,235,619]],"id":"DE.NW.05754000.05754008","properties":{"hc-group":"admin3","hc-key":"de-nw-05754000-05754008","hc-a2":"GÜ","name":"Gütersloh","hc-middle-lon":8.39,"hc-middle-lat":51.913}},{"type":"Polygon","arcs":[[-615,620,-514,388,621,622]],"id":"DE.NW.05754000.05754032","properties":{"hc-group":"admin3","hc-key":"de-nw-05754000-05754032","hc-a2":"RI","name":"Rietberg","hc-middle-lon":8.45,"hc-middle-lat":51.827}},{"type":"Polygon","arcs":[[6,-153,-152,-151,-343,354,-432,343,344,345,346,-154]],"id":"DE.NW.05124000.05124000","properties":{"hc-group":"admin3","hc-key":"de-nw-05124000-05124000","hc-a2":"WU","name":"Wuppertal","hc-middle-lon":7.165,"hc-middle-lat":51.244}},{"type":"Polygon","arcs":[[342,305,306,-128,623,624,155]],"id":"DE.NW.05374000.05374036","properties":{"hc-group":"admin3","hc-key":"de-nw-05374000-05374036","hc-a2":"RA","name":"Radevormwald","hc-middle-lon":7.363,"hc-middle-lat":51.211}},{"type":"Polygon","arcs":[[127,-430,625,626,-587,126]],"id":"DE.NW.05962000.05962012","properties":{"hc-group":"admin3","hc-key":"de-nw-05962000-05962012","hc-a2":"HA","name":"Halver","hc-middle-lon":7.493,"hc-middle-lat":51.193}},{"type":"Polygon","arcs":[[-156,-155,-157,-354,-355]],"id":"DE.NW.05120000.05120000","properties":{"hc-group":"admin3","hc-key":"de-nw-05120000-05120000","hc-a2":"RE","name":"Remscheid","hc-middle-lon":7.218,"hc-middle-lat":51.184}},{"type":"Polygon","arcs":[[153,-437,432,-447,627,628]],"id":"DE.NW.05954000.05954016","properties":{"hc-group":"admin3","hc-key":"de-nw-05954000-05954016","hc-a2":"HA","name":"Hattingen","hc-middle-lon":7.181,"hc-middle-lat":51.386}},{"type":"Polygon","arcs":[[629,317,318,-496,-495,630,631]],"id":"DE.NW.05554000.05554044","properties":{"hc-group":"admin3","hc-key":"de-nw-05554000-05554044","hc-a2":"RE","name":"Reken","hc-middle-lon":7.084,"hc-middle-lat":51.806}},{"type":"Polygon","arcs":[[-630,632,633,634,635,-164,-163]],"id":"DE.NW.05554000.05554016","properties":{"hc-group":"admin3","hc-key":"de-nw-05554000-05554016","hc-a2":"GE","name":"Gescher","hc-middle-lon":7.028,"hc-middle-lat":51.944}},{"type":"Polygon","arcs":[[636,-169,167,-171,637]],"id":"DE.NW.05378000.05378016","properties":{"hc-group":"admin3","hc-key":"de-nw-05378000-05378016","hc-a2":"L(","name":"Leichlingen (Rhld.)","hc-middle-lon":7.039,"hc-middle-lat":51.11}},{"type":"Polygon","arcs":[[-637,638,639,275]],"id":"DE.NW.05378000.05378008","properties":{"hc-group":"admin3","hc-key":"de-nw-05378000-05378008","hc-a2":"BU","name":"Burscheid","hc-middle-lon":7.117,"hc-middle-lat":51.085}},{"type":"Polygon","arcs":[[15,640,641,642,643,644,645,646]],"id":"DE.NW.05766000.05766016","properties":{"hc-group":"admin3","hc-key":"de-nw-05766000-05766016","hc-a2":"BL","name":"Blomberg","hc-middle-lon":9.037,"hc-middle-lat":51.951}},{"type":"Polygon","arcs":[[-640,647,648,649,274]],"id":"DE.NW.05378000.05378020","properties":{"hc-group":"admin3","hc-key":"de-nw-05378000-05378020","hc-a2":"OD","name":"Odenthal","hc-middle-lon":7.183,"hc-middle-lat":51.038}},{"type":"Polygon","arcs":[[650,651,105,652]],"id":"DE.NW.05370000.05370032","properties":{"hc-group":"admin3","hc-key":"de-nw-05370000-05370032","hc-a2":"WA","name":"Waldfeucht","hc-middle-lon":5.979,"hc-middle-lat":51.061}},{"type":"Polygon","arcs":[[-651,653,654,103,655]],"id":"DE.NW.05370000.05370008","properties":{"hc-group":"admin3","hc-key":"de-nw-05370000-05370008","hc-a2":"GA","name":"Gangelt","hc-middle-lon":6.01,"hc-middle-lat":50.998}},{"type":"Polygon","arcs":[[656,657,-159,-158,-166]],"id":"DE.NW.05554000.05554052","properties":{"hc-group":"admin3","hc-key":"de-nw-05554000-05554052","hc-a2":"SC","name":"Schöppingen","hc-middle-lon":7.19,"hc-middle-lat":52.086}},{"type":"Polygon","arcs":[[-657,-165,-636,658,659,660]],"id":"DE.NW.05554000.05554036","properties":{"hc-group":"admin3","hc-key":"de-nw-05554000-05554036","hc-a2":"LE","name":"Legden","hc-middle-lon":7.093,"hc-middle-lat":52.045}},{"type":"Polygon","arcs":[[-661,661,662,-161,-160,-658]],"id":"DE.NW.05554000.05554024","properties":{"hc-group":"admin3","hc-key":"de-nw-05554000-05554024","hc-a2":"HE","name":"Heek","hc-middle-lon":7.08,"hc-middle-lat":52.113}},{"type":"Polygon","arcs":[[-659,-635,663,664,665]],"id":"DE.NW.05554000.05554056","properties":{"hc-group":"admin3","hc-key":"de-nw-05554000-05554056","hc-a2":"ST","name":"Stadtlohn","hc-middle-lon":6.935,"hc-middle-lat":52.007}},{"type":"Polygon","arcs":[[666,667,668,279,669,670]],"id":"DE.NW.05162000.05162024","properties":{"hc-group":"admin3","hc-key":"de-nw-05162000-05162024","hc-a2":"NE","name":"Neuss","hc-middle-lon":6.704,"hc-middle-lat":51.172}},{"type":"Polygon","arcs":[[-667,671,672,-357,-360,673]],"id":"DE.NW.05162000.05162020","properties":{"hc-group":"admin3","hc-key":"de-nw-05162000-05162020","hc-a2":"KO","name":"Korschenbroich","hc-middle-lon":6.545,"hc-middle-lat":51.183}},{"type":"Polygon","arcs":[[-612,-614,188,189,674,-606]],"id":"DE.NW.05758000.05758024","properties":{"hc-group":"admin3","hc-key":"de-nw-05758000-05758024","hc-a2":"LÖ","name":"Löhne","hc-middle-lon":8.724,"hc-middle-lat":52.198}},{"type":"Polygon","arcs":[[-489,675,-320,135]],"id":"DE.NW.05558000.05558036","properties":{"hc-group":"admin3","hc-key":"de-nw-05558000-05558036","hc-a2":"OL","name":"Olfen","hc-middle-lon":7.386,"hc-middle-lat":51.708}},{"type":"Polygon","arcs":[[488,-580,-586,676,677,495,489,-109,487]],"id":"DE.NW.05562000.05562016","properties":{"hc-group":"admin3","hc-key":"de-nw-05562000-05562016","hc-a2":"HA","name":"Haltern am See","hc-middle-lon":7.183,"hc-middle-lat":51.759}},{"type":"Polygon","arcs":[[-490,-319,678,679,680,681,108]],"id":"DE.NW.05558000.05558016","properties":{"hc-group":"admin3","hc-key":"de-nw-05558000-05558016","hc-a2":"DÜ","name":"Dülmen","hc-middle-lon":7.31,"hc-middle-lat":51.843}},{"type":"Polygon","arcs":[[-641,16,171,172,682]],"id":"DE.NW.05766000.05766052","properties":{"hc-group":"admin3","hc-key":"de-nw-05766000-05766052","hc-a2":"LÜ","name":"Lügde","hc-middle-lon":9.283,"hc-middle-lat":51.892}},{"type":"Polygon","arcs":[[-168,503,683,277,684,243]],"id":"DE.NW.05158000.05158020","properties":{"hc-group":"admin3","hc-key":"de-nw-05158000-05158020","hc-a2":"L(","name":"Langenfeld (Rhld.)","hc-middle-lon":6.982,"hc-middle-lat":51.108}},{"type":"Polygon","arcs":[[685,686,27,687]],"id":"DE.NW.05762000.05762008","properties":{"hc-group":"admin3","hc-key":"de-nw-05762000-05762008","hc-a2":"BE","name":"Beverungen","hc-middle-lon":9.34,"hc-middle-lat":51.657}},{"type":"Polygon","arcs":[[-686,688,689,690,691,692,693]],"id":"DE.NW.05762000.05762016","properties":{"hc-group":"admin3","hc-key":"de-nw-05762000-05762016","hc-a2":"BR","name":"Brakel","hc-middle-lon":9.166,"hc-middle-lat":51.696}},{"type":"Polygon","arcs":[[-179,-178,-400,694,695,696,-401]],"id":"DE.NW.05966000.05966008","properties":{"hc-group":"admin3","hc-key":"de-nw-05966000-05966008","hc-a2":"DR","name":"Drolshagen","hc-middle-lon":7.768,"hc-middle-lat":51.049}},{"type":"Polygon","arcs":[[178,697,-555]],"id":"DE.NW.05374000.05374004","properties":{"hc-group":"admin3","hc-key":"de-nw-05374000-05374004","hc-a2":"BE","name":"Bergneustadt","hc-middle-lon":7.676,"hc-middle-lat":51.025}},{"type":"Polygon","arcs":[[698,699,158,159,700]],"id":"DE.NW.05566000.05566052","properties":{"hc-group":"admin3","hc-key":"de-nw-05566000-05566052","hc-a2":"ME","name":"Metelen","hc-middle-lon":7.236,"hc-middle-lat":52.144}},{"type":"Polygon","arcs":[[-699,701,702,703,-594,704,705,706,707]],"id":"DE.NW.05566000.05566084","properties":{"hc-group":"admin3","hc-key":"de-nw-05566000-05566084","hc-a2":"ST","name":"Steinfurt","hc-middle-lon":7.376,"hc-middle-lat":52.146}},{"type":"Polygon","arcs":[[-539,708,709,294,295,296,710]],"id":"DE.NW.05334000.05334012","properties":{"hc-group":"admin3","hc-key":"de-nw-05334000-05334012","hc-a2":"ES","name":"Eschweiler","hc-middle-lon":6.271,"hc-middle-lat":50.828}},{"type":"Polygon","arcs":[[711,712,4,113,713,714]],"id":"DE.NW.05366000.05366020","properties":{"hc-group":"admin3","hc-key":"de-nw-05366000-05366020","hc-a2":"HE","name":"Hellenthal","hc-middle-lon":6.42,"hc-middle-lat":50.455}},{"type":"Polygon","arcs":[[-712,715,716,717,77,718,719]],"id":"DE.NW.05366000.05366032","properties":{"hc-group":"admin3","hc-key":"de-nw-05366000-05366032","hc-a2":"NE","name":"Nettersheim","hc-middle-lon":6.662,"hc-middle-lat":50.494}},{"type":"Polygon","arcs":[[720,721,-536,32,722,723,724]],"id":"DE.NW.05382000.05382020","properties":{"hc-group":"admin3","hc-key":"de-nw-05382000-05382020","hc-a2":"H(","name":"Hennef (Sieg)","hc-middle-lon":7.315,"hc-middle-lat":50.764}},{"type":"Polygon","arcs":[[-721,725,726,-475,727,728]],"id":"DE.NW.05382000.05382040","properties":{"hc-group":"admin3","hc-key":"de-nw-05382000-05382040","hc-a2":"NS","name":"Neunkirchen-Seelscheid","hc-middle-lon":7.342,"hc-middle-lat":50.869}},{"type":"Polygon","arcs":[[112,-379,729,730,204,731]],"id":"DE.NW.05362000.05362012","properties":{"hc-group":"admin3","hc-key":"de-nw-05362000-05362012","hc-a2":"BR","name":"Brühl","hc-middle-lon":6.917,"hc-middle-lat":50.824}},{"type":"Polygon","arcs":[[-113,-112,732,217,733,734,-418]],"id":"DE.NW.05382000.05382012","properties":{"hc-group":"admin3","hc-key":"de-nw-05382000-05382012","hc-a2":"BO","name":"Bornheim","hc-middle-lon":6.957,"hc-middle-lat":50.774}},{"type":"Polygon","arcs":[[-114,1,735,-115],[736]],"id":"DE.NW.05334000.05334020","properties":{"hc-group":"admin3","hc-key":"de-nw-05334000-05334020","hc-a2":"MO","name":"Monschau","hc-middle-lon":6.269,"hc-middle-lat":50.538}},{"type":"Polygon","arcs":[[181,182,737,738,-691,739]],"id":"DE.NW.05762000.05762004","properties":{"hc-group":"admin3","hc-key":"de-nw-05762000-05762004","hc-a2":"BD","name":"Bad Driburg","hc-middle-lon":9.041,"hc-middle-lat":51.741}},{"type":"Polygon","arcs":[[-182,-181,-180,-383,740,741,742,743]],"id":"DE.NW.05774000.05774028","properties":{"hc-group":"admin3","hc-key":"de-nw-05774000-05774028","hc-a2":"LI","name":"Lichtenau","hc-middle-lon":8.903,"hc-middle-lat":51.606}},{"type":"Polygon","arcs":[[-743,744,745,746,747,748,749]],"id":"DE.NW.05774000.05774032","properties":{"hc-group":"admin3","hc-key":"de-nw-05774000-05774032","hc-a2":"PA","name":"Paderborn","hc-middle-lon":8.771,"hc-middle-lat":51.731}},{"type":"Polygon","arcs":[[-619,750,751,752,234]],"id":"DE.NW.05754000.05754040","properties":{"hc-group":"admin3","hc-key":"de-nw-05754000-05754040","hc-a2":"ST","name":"Steinhagen","hc-middle-lon":8.383,"hc-middle-lat":51.997}},{"type":"Polygon","arcs":[[36,753,754,755,756,757,758]],"id":"DE.NW.05770000.05770012","properties":{"hc-group":"admin3","hc-key":"de-nw-05770000-05770012","hc-a2":"HI","name":"Hille","hc-middle-lon":8.763,"hc-middle-lat":52.335}},{"type":"Polygon","arcs":[[-645,759,760,761,119,-565,762]],"id":"DE.NW.05766000.05766044","properties":{"hc-group":"admin3","hc-key":"de-nw-05766000-05766044","hc-a2":"LE","name":"Lemgo","hc-middle-lon":8.896,"hc-middle-lat":52.034}},{"type":"Polygon","arcs":[[763,764,261,221]],"id":"DE.NW.05954000.05954020","properties":{"hc-group":"admin3","hc-key":"de-nw-05954000-05954020","hc-a2":"HE","name":"Herdecke","hc-middle-lon":7.388,"hc-middle-lat":51.399}},{"type":"Polygon","arcs":[[-764,222,765,766,767]],"id":"DE.NW.05954000.05954032","properties":{"hc-group":"admin3","hc-key":"de-nw-05954000-05954032","hc-a2":"W(","name":"Wetter (Ruhr)","hc-middle-lon":7.353,"hc-middle-lat":51.38}},{"type":"Polygon","arcs":[[-766,223,768,769,770]],"id":"DE.NW.05954000.05954012","properties":{"hc-group":"admin3","hc-key":"de-nw-05954000-05954012","hc-a2":"GE","name":"Gevelsberg","hc-middle-lon":7.383,"hc-middle-lat":51.334}},{"type":"Polygon","arcs":[[771,772,-741,-382,-381,773]],"id":"DE.NW.05774000.05774040","properties":{"hc-group":"admin3","hc-key":"de-nw-05774000-05774040","hc-a2":"BW","name":"Bad Wünnenberg","hc-middle-lon":8.733,"hc-middle-lat":51.523}},{"type":"Polygon","arcs":[[-772,774,-386,-385,775,-746,776]],"id":"DE.NW.05774000.05774036","properties":{"hc-group":"admin3","hc-key":"de-nw-05774000-05774036","hc-a2":"SA","name":"Salzkotten","hc-middle-lon":8.609,"hc-middle-lat":51.693}},{"type":"Polygon","arcs":[[-7,-629,777,-767,-771,778,152]],"id":"DE.NW.05954000.05954028","properties":{"hc-group":"admin3","hc-key":"de-nw-05954000-05954028","hc-a2":"SP","name":"Sprockhövel","hc-middle-lon":7.254,"hc-middle-lat":51.332}},{"type":"Polygon","arcs":[[-725,779,780,781,-726]],"id":"DE.NW.05382000.05382060","properties":{"hc-group":"admin3","hc-key":"de-nw-05382000-05382060","hc-a2":"SI","name":"Siegburg","hc-middle-lon":7.242,"hc-middle-lat":50.804}},{"type":"Polygon","arcs":[[782,783,784,-334,-333,-332]],"id":"DE.NW.05154000.05154020","properties":{"hc-group":"admin3","hc-key":"de-nw-05154000-05154020","hc-a2":"IS","name":"Issum","hc-middle-lon":6.398,"hc-middle-lat":51.523}},{"type":"Polygon","arcs":[[-783,-331,-330,-142,785]],"id":"DE.NW.05154000.05154048","properties":{"hc-group":"admin3","hc-key":"de-nw-05154000-05154048","hc-a2":"RH","name":"Rheurdt","hc-middle-lon":6.478,"hc-middle-lat":51.449}},{"type":"Polygon","arcs":[[-662,-660,-666,786,58,787]],"id":"DE.NW.05554000.05554004","properties":{"hc-group":"admin3","hc-key":"de-nw-05554000-05554004","hc-a2":"AH","name":"Ahaus","hc-middle-lon":6.962,"hc-middle-lat":52.095}},{"type":"Polygon","arcs":[[-595,-704,788,9,789]],"id":"DE.NW.05566000.05566060","properties":{"hc-group":"admin3","hc-key":"de-nw-05566000-05566060","hc-a2":"NE","name":"Neuenkirchen","hc-middle-lon":7.351,"hc-middle-lat":52.268}},{"type":"Polygon","arcs":[[-140,302,303,790,791]],"id":"DE.NW.05154000.05154060","properties":{"hc-group":"admin3","hc-key":"de-nw-05154000-05154060","hc-a2":"WA","name":"Wachtendonk","hc-middle-lon":6.325,"hc-middle-lat":51.393}},{"type":"Polygon","arcs":[[22,792,793,794,795]],"id":"DE.NW.05970000.05970044","properties":{"hc-group":"admin3","hc-key":"de-nw-05970000-05970044","hc-a2":"WI","name":"Wilnsdorf","hc-middle-lon":8.108,"hc-middle-lat":50.828}},{"type":"Polygon","arcs":[[-638,-170,156,347,348,796,-648,-639]],"id":"DE.NW.05378000.05378032","properties":{"hc-group":"admin3","hc-key":"de-nw-05378000-05378032","hc-a2":"WE","name":"Wermelskirchen","hc-middle-lon":7.219,"hc-middle-lat":51.113}},{"type":"Polygon","arcs":[[194,195,196,797,798,193]],"id":"DE.NW.05966000.05966016","properties":{"hc-group":"admin3","hc-key":"de-nw-05966000-05966016","hc-a2":"KI","name":"Kirchhundem","hc-middle-lon":8.153,"hc-middle-lat":51.061}},{"type":"Polygon","arcs":[[-195,799,800,801,802]],"id":"DE.NW.05970000.05970012","properties":{"hc-group":"admin3","hc-key":"de-nw-05970000-05970012","hc-a2":"ER","name":"Erndtebrück","hc-middle-lon":8.275,"hc-middle-lat":51.009}},{"type":"Polygon","arcs":[[-506,502,-405,-404,-407,-406,-206,-205,-204,-203,-202,-207]],"id":"DE.NW.05315000.05315000","properties":{"hc-group":"admin3","hc-key":"de-nw-05315000-05315000","hc-a2":"KÖ","name":"Köln","hc-middle-lon":6.996,"hc-middle-lat":50.927}},{"type":"Polygon","arcs":[[505,402,276,-684,504]],"id":"DE.NW.05158000.05158026","properties":{"hc-group":"admin3","hc-key":"de-nw-05158000-05158026","hc-a2":"MA","name":"Monheim am Rhein","hc-middle-lon":6.922,"hc-middle-lat":51.096}},{"type":"Polygon","arcs":[[406,-478,803,-781,804,215,805]],"id":"DE.NW.05382000.05382068","properties":{"hc-group":"admin3","hc-key":"de-nw-05382000-05382068","hc-a2":"TR","name":"Troisdorf","hc-middle-lon":7.137,"hc-middle-lat":50.819}},{"type":"Polygon","arcs":[[-805,-780,-724,806,214]],"id":"DE.NW.05382000.05382056","properties":{"hc-group":"admin3","hc-key":"de-nw-05382000-05382056","hc-a2":"SA","name":"Sankt Augustin","hc-middle-lon":7.186,"hc-middle-lat":50.771}},{"type":"Polygon","arcs":[[-697,807,198,199,200,72,-402]],"id":"DE.NW.05966000.05966028","properties":{"hc-group":"admin3","hc-key":"de-nw-05966000-05966028","hc-a2":"WE","name":"Wenden","hc-middle-lon":7.86,"hc-middle-lat":50.964}},{"type":"Polygon","arcs":[[-200,808,809,-795,810,25,811]],"id":"DE.NW.05970000.05970040","properties":{"hc-group":"admin3","hc-key":"de-nw-05970000-05970040","hc-a2":"SI","name":"Siegen","hc-middle-lon":7.995,"hc-middle-lat":50.86}},{"type":"Polygon","arcs":[[378,417,418,812,813,377]],"id":"DE.NW.05366000.05366040","properties":{"hc-group":"admin3","hc-key":"de-nw-05366000-05366040","hc-a2":"WE","name":"Weilerswist","hc-middle-lon":6.841,"hc-middle-lat":50.727}},{"type":"Polygon","arcs":[[-419,-735,814,815,-420]],"id":"DE.NW.05382000.05382064","properties":{"hc-group":"admin3","hc-key":"de-nw-05382000-05382064","hc-a2":"SW","name":"Swisttal","hc-middle-lon":6.914,"hc-middle-lat":50.681}},{"type":"Polygon","arcs":[[64,-796,-810,816,817,-802,818]],"id":"DE.NW.05970000.05970032","properties":{"hc-group":"admin3","hc-key":"de-nw-05970000-05970032","hc-a2":"NE","name":"Netphen","hc-middle-lon":8.184,"hc-middle-lat":50.899}},{"type":"Polygon","arcs":[[-807,-723,33,819,213]],"id":"DE.NW.05382000.05382024","properties":{"hc-group":"admin3","hc-key":"de-nw-05382000-05382024","hc-a2":"KÖ","name":"Königswinter","hc-middle-lon":7.235,"hc-middle-lat":50.706}},{"type":"Polygon","arcs":[[-817,-809,-199,-198,-197,820]],"id":"DE.NW.05970000.05970024","properties":{"hc-group":"admin3","hc-key":"de-nw-05970000-05970024","hc-a2":"KR","name":"Kreuztal","hc-middle-lon":7.997,"hc-middle-lat":50.967}},{"type":"Polygon","arcs":[[517,518,821,822,823]],"id":"DE.NW.05958000.05958016","properties":{"hc-group":"admin3","hc-key":"de-nw-05958000-05958016","hc-a2":"E(","name":"Eslohe (Sauerland)","hc-middle-lon":8.172,"hc-middle-lat":51.255}},{"type":"Polygon","arcs":[[-518,390,192,-799,824,825,826]],"id":"DE.NW.05966000.05966020","properties":{"hc-group":"admin3","hc-key":"de-nw-05966000-05966020","hc-a2":"LE","name":"Lennestadt","hc-middle-lon":8.057,"hc-middle-lat":51.127}},{"type":"Polygon","arcs":[[-193,-394,-393,-392,109,-395,62,827,-800,-194]],"id":"DE.NW.05970000.05970004","properties":{"hc-group":"admin3","hc-key":"de-nw-05970000-05970004","hc-a2":"BB","name":"Bad Berleburg","hc-middle-lon":8.439,"hc-middle-lat":51.053}},{"type":"Polygon","arcs":[[197,-808,-696,828,-825,-798]],"id":"DE.NW.05966000.05966024","properties":{"hc-group":"admin3","hc-key":"de-nw-05966000-05966024","hc-a2":"OL","name":"Olpe","hc-middle-lon":7.885,"hc-middle-lat":51.039}},{"type":"Polygon","arcs":[[526,527,528,829,830,831,832,387]],"id":"DE.NW.05974000.05974036","properties":{"hc-group":"admin3","hc-key":"de-nw-05974000-05974036","hc-a2":"RÜ","name":"Rüthen","hc-middle-lon":8.425,"hc-middle-lat":51.506}},{"type":"Polygon","arcs":[[-527,379,380,833,66,834]],"id":"DE.NW.05958000.05958012","properties":{"hc-group":"admin3","hc-key":"de-nw-05958000-05958012","hc-a2":"BR","name":"Brilon","hc-middle-lon":8.602,"hc-middle-lat":51.398}},{"type":"Polygon","arcs":[[-380,-388,-387,-775,-774]],"id":"DE.NW.05774000.05774016","properties":{"hc-group":"admin3","hc-key":"de-nw-05774000-05774016","hc-a2":"BÜ","name":"Büren","hc-middle-lon":8.571,"hc-middle-lat":51.555}},{"type":"Polygon","arcs":[[-532,835,836,524,525,-535,-534,-533]],"id":"DE.NW.05958000.05958004","properties":{"hc-group":"admin3","hc-key":"de-nw-05958000-05958004","hc-a2":"AR","name":"Arnsberg","hc-middle-lon":8.058,"hc-middle-lat":51.406}},{"type":"Polygon","arcs":[[531,837,838,839,-830,529,530]],"id":"DE.NW.05974000.05974044","properties":{"hc-group":"admin3","hc-key":"de-nw-05974000-05974044","hc-a2":"WA","name":"Warstein","hc-middle-lon":8.307,"hc-middle-lat":51.456}},{"type":"Polygon","arcs":[[-415,840,841,842,252,-254]],"id":"DE.NW.05170000.05170008","properties":{"hc-group":"admin3","hc-key":"de-nw-05170000-05170008","hc-a2":"DI","name":"Dinslaken","hc-middle-lon":6.755,"hc-middle-lat":51.564}},{"type":"Polygon","arcs":[[414,-442,-408,-467,461,-212,-412,-414,-413]],"id":"DE.NW.05112000.05112000","properties":{"hc-group":"admin3","hc-key":"de-nw-05112000-05112000","hc-a2":"DU","name":"Duisburg","hc-middle-lon":6.723,"hc-middle-lat":51.447}},{"type":"Polygon","arcs":[[466,408,433,843,844,845,465]],"id":"DE.NW.05158000.05158028","properties":{"hc-group":"admin3","hc-key":"de-nw-05158000-05158028","hc-a2":"RA","name":"Ratingen","hc-middle-lon":6.87,"hc-middle-lat":51.312}},{"type":"Polygon","arcs":[[846,847,848,849,850,851,-559]],"id":"DE.NW.05566000.05566028","properties":{"hc-group":"admin3","hc-key":"de-nw-05566000-05566028","hc-a2":"IB","name":"Ibbenbüren","hc-middle-lon":7.708,"hc-middle-lat":52.271}},{"type":"Polygon","arcs":[[-847,-558,89,852]],"id":"DE.NW.05566000.05566020","properties":{"hc-group":"admin3","hc-key":"de-nw-05566000-05566020","hc-a2":"HO","name":"Hopsten","hc-middle-lon":7.643,"hc-middle-lat":52.419}},{"type":"Polygon","arcs":[[212,-820,34]],"id":"DE.NW.05382000.05382008","properties":{"hc-group":"admin3","hc-key":"de-nw-05382000-05382008","hc-a2":"BH","name":"Bad Honnef","hc-middle-lon":7.292,"hc-middle-lat":50.637}},{"type":"Polygon","arcs":[[-213,30,-221,-220,-219,-218,-217,-216,-215,-214]],"id":"DE.NW.05314000.05314000","properties":{"hc-group":"admin3","hc-key":"de-nw-05314000-05314000","hc-a2":"BO","name":"Bonn","hc-middle-lon":7.117,"hc-middle-lat":50.684}},{"type":"Polygon","arcs":[[-804,-477,-476,-727,-782]],"id":"DE.NW.05382000.05382028","properties":{"hc-group":"admin3","hc-key":"de-nw-05382000-05382028","hc-a2":"LO","name":"Lohmar","hc-middle-lon":7.251,"hc-middle-lat":50.865}},{"type":"Polygon","arcs":[[-224,-223,-222,-225,422,-426,-425,-424,-428,-427]],"id":"DE.NW.05914000.05914000","properties":{"hc-group":"admin3","hc-key":"de-nw-05914000-05914000","hc-a2":"HA","name":"Hagen","hc-middle-lon":7.494,"hc-middle-lat":51.347}},{"type":"Polygon","arcs":[[-306,150,853,-769,426,854]],"id":"DE.NW.05954000.05954008","properties":{"hc-group":"admin3","hc-key":"de-nw-05954000-05954008","hc-a2":"EN","name":"Ennepetal","hc-middle-lon":7.363,"hc-middle-lat":51.281}},{"type":"Polygon","arcs":[[46,855,856,-602]],"id":"DE.NW.05154000.05154064","properties":{"hc-group":"admin3","hc-key":"de-nw-05154000-05154064","hc-a2":"WE","name":"Weeze","hc-middle-lon":6.14,"hc-middle-lat":51.593}},{"type":"Polygon","arcs":[[-857,857,858,859,-338,-337,-603]],"id":"DE.NW.05154000.05154056","properties":{"hc-group":"admin3","hc-key":"de-nw-05154000-05154056","hc-a2":"UE","name":"Uedem","hc-middle-lon":6.314,"hc-middle-lat":51.668}},{"type":"Polygon","arcs":[[-858,-856,47,860,861,862]],"id":"DE.NW.05154000.05154016","properties":{"hc-group":"admin3","hc-key":"de-nw-05154000-05154016","hc-a2":"GO","name":"Goch","hc-middle-lon":6.124,"hc-middle-lat":51.697}},{"type":"Polygon","arcs":[[-861,48,863]],"id":"DE.NW.05154000.05154040","properties":{"hc-group":"admin3","hc-key":"de-nw-05154000-05154040","hc-a2":"KR","name":"Kranenburg","hc-middle-lon":5.985,"hc-middle-lat":51.804}},{"type":"Polygon","arcs":[[114,115,116,371,864,865,-714]],"id":"DE.NW.05366000.05366036","properties":{"hc-group":"admin3","hc-key":"de-nw-05366000-05366036","hc-a2":"SC","name":"Schleiden","hc-middle-lon":6.452,"hc-middle-lat":50.554}},{"type":"Polygon","arcs":[[-571,866,202,867,868]],"id":"DE.NW.05362000.05362024","properties":{"hc-group":"admin3","hc-key":"de-nw-05362000-05362024","hc-a2":"FR","name":"Frechen","hc-middle-lon":6.782,"hc-middle-lat":50.919}},{"type":"Polygon","arcs":[[-610,869,870,84,-544,186,-613]],"id":"DE.NW.05758000.05758004","properties":{"hc-group":"admin3","hc-key":"de-nw-05758000-05758004","hc-a2":"BÜ","name":"Bünde","hc-middle-lon":8.594,"hc-middle-lat":52.192}},{"type":"Polygon","arcs":[[-871,871,240,430,83]],"id":"DE.NW.05758000.05758032","properties":{"hc-group":"admin3","hc-key":"de-nw-05758000-05758032","hc-a2":"SP","name":"Spenge","hc-middle-lon":8.441,"hc-middle-lat":52.141}},{"type":"Polygon","arcs":[[-507,-513,872,873,874,-508]],"id":"DE.NW.05766000.05766064","properties":{"hc-group":"admin3","hc-key":"de-nw-05766000-05766064","hc-a2":"SC","name":"Schlangen","hc-middle-lon":8.834,"hc-middle-lat":51.841}},{"type":"Polygon","arcs":[[506,875,-748,876,515,516]],"id":"DE.NW.05774000.05774024","properties":{"hc-group":"admin3","hc-key":"de-nw-05774000-05774024","hc-a2":"HÖ","name":"Hövelhof","hc-middle-lon":8.697,"hc-middle-lat":51.828}},{"type":"Polygon","arcs":[[-516,-515,-621,-620,236,877]],"id":"DE.NW.05754000.05754044","properties":{"hc-group":"admin3","hc-key":"de-nw-05754000-05754044","hc-a2":"VE","name":"Verl","hc-middle-lon":8.509,"hc-middle-lat":51.895}},{"type":"Polygon","arcs":[[878,879,398,399,128,129,-589]],"id":"DE.NW.05962000.05962036","properties":{"hc-group":"admin3","hc-key":"de-nw-05962000-05962036","hc-a2":"ME","name":"Meinerzhagen","hc-middle-lon":7.714,"hc-middle-lat":51.115}},{"type":"Polygon","arcs":[[-879,-588,-627,880,881,882,883]],"id":"DE.NW.05962000.05962032","properties":{"hc-group":"admin3","hc-key":"de-nw-05962000-05962032","hc-a2":"LÜ","name":"Lüdenscheid","hc-middle-lon":7.638,"hc-middle-lat":51.216}},{"type":"Polygon","arcs":[[-883,884,885,886,887]],"id":"DE.NW.05962000.05962060","properties":{"hc-group":"admin3","hc-key":"de-nw-05962000-05962060","hc-a2":"WE","name":"Werdohl","hc-middle-lon":7.764,"hc-middle-lat":51.243}},{"type":"Polygon","arcs":[[20,-759,888,889,890,891]],"id":"DE.NW.05770000.05770008","properties":{"hc-group":"admin3","hc-key":"de-nw-05770000-05770008","hc-a2":"ES","name":"Espelkamp","hc-middle-lon":8.62,"hc-middle-lat":52.373}},{"type":"Polygon","arcs":[[-546,-549,892,-575,-303]],"id":"DE.NW.05166000.05166008","properties":{"hc-group":"admin3","hc-key":"de-nw-05166000-05166008","hc-a2":"GR","name":"Grefrath","hc-middle-lon":6.375,"hc-middle-lat":51.345}},{"type":"Polygon","arcs":[[-792,893,894,-784,-786,-141]],"id":"DE.NW.05154000.05154028","properties":{"hc-group":"admin3","hc-key":"de-nw-05154000-05154028","hc-a2":"KE","name":"Kerken","hc-middle-lon":6.391,"hc-middle-lat":51.447}},{"type":"Polygon","arcs":[[286,287,895,896,897,-295]],"id":"DE.NW.05358000.05358004","properties":{"hc-group":"admin3","hc-key":"de-nw-05358000-05358004","hc-a2":"AL","name":"Aldenhoven","hc-middle-lon":6.261,"hc-middle-lat":50.896}},{"type":"Polygon","arcs":[[-287,-710,898,899,900]],"id":"DE.NW.05334000.05334004","properties":{"hc-group":"admin3","hc-key":"de-nw-05334000-05334004","hc-a2":"AL","name":"Alsdorf","hc-middle-lon":6.208,"hc-middle-lat":50.869}},{"type":"Polygon","arcs":[[55,901,902,903,-493,904,905]],"id":"DE.NW.05554000.05554012","properties":{"hc-group":"admin3","hc-key":"de-nw-05554000-05554012","hc-a2":"BO","name":"Borken","hc-middle-lon":6.825,"hc-middle-lat":51.85}},{"type":"Polygon","arcs":[[54,-906,906,-499,907]],"id":"DE.NW.05554000.05554048","properties":{"hc-group":"admin3","hc-key":"de-nw-05554000-05554048","hc-a2":"RH","name":"Rhede","hc-middle-lon":6.701,"hc-middle-lat":51.797}},{"type":"Polygon","arcs":[[-907,-905,-492,-501,-500]],"id":"DE.NW.05554000.05554040","properties":{"hc-group":"admin3","hc-key":"de-nw-05554000-05554040","hc-a2":"RA","name":"Raesfeld","hc-middle-lon":6.833,"hc-middle-lat":51.765}},{"type":"Polygon","arcs":[[908,-664,-634,909,-902,56]],"id":"DE.NW.05554000.05554060","properties":{"hc-group":"admin3","hc-key":"de-nw-05554000-05554060","hc-a2":"SÜ","name":"Südlohn","hc-middle-lon":6.821,"hc-middle-lat":51.946}},{"type":"Polygon","arcs":[[-909,57,-787,-665]],"id":"DE.NW.05554000.05554068","properties":{"hc-group":"admin3","hc-key":"de-nw-05554000-05554068","hc-a2":"VR","name":"Vreden","hc-middle-lon":6.814,"hc-middle-lat":52.065}},{"type":"Polygon","arcs":[[311,459,910,911,534,520]],"id":"DE.NW.05974000.05974056","properties":{"hc-group":"admin3","hc-key":"de-nw-05974000-05974056","hc-a2":"W(","name":"Wickede (Ruhr)","hc-middle-lon":7.865,"hc-middle-lat":51.499}},{"type":"Polygon","arcs":[[-312,307,308,912,913]],"id":"DE.NW.05978000.05978012","properties":{"hc-group":"admin3","hc-key":"de-nw-05978000-05978012","hc-a2":"FR","name":"Fröndenberg/Ruhr","hc-middle-lon":7.75,"hc-middle-lat":51.498}},{"type":"Polygon","arcs":[[-913,309,914,226,915]],"id":"DE.NW.05978000.05978016","properties":{"hc-group":"admin3","hc-key":"de-nw-05978000-05978016","hc-a2":"HO","name":"Holzwickede","hc-middle-lon":7.632,"hc-middle-lat":51.487}},{"type":"Polygon","arcs":[[-867,-570,-209,-208,201]],"id":"DE.NW.05362000.05362036","properties":{"hc-group":"admin3","hc-key":"de-nw-05362000-05362036","hc-a2":"PU","name":"Pulheim","hc-middle-lon":6.779,"hc-middle-lat":50.999}},{"type":"Polygon","arcs":[[-548,916,361,917,-576,-893]],"id":"DE.NW.05166000.05166032","properties":{"hc-group":"admin3","hc-key":"de-nw-05166000-05166032","hc-a2":"VI","name":"Viersen","hc-middle-lon":6.375,"hc-middle-lat":51.244}},{"type":"Polygon","arcs":[[-917,-547,247,416,358,359,360]],"id":"DE.NW.05166000.05166036","properties":{"hc-group":"admin3","hc-key":"de-nw-05166000-05166036","hc-a2":"WI","name":"Willich","hc-middle-lon":6.519,"hc-middle-lat":51.262}},{"type":"Polygon","arcs":[[-572,-869,918,919,365,366,-573]],"id":"DE.NW.05362000.05362032","properties":{"hc-group":"admin3","hc-key":"de-nw-05362000-05362032","hc-a2":"KE","name":"Kerpen","hc-middle-lon":6.639,"hc-middle-lat":50.872}},{"type":"Polygon","arcs":[[920,327,136,921,922,923]],"id":"DE.NW.05978000.05978024","properties":{"hc-group":"admin3","hc-key":"de-nw-05978000-05978024","hc-a2":"LÜ","name":"Lünen","hc-middle-lon":7.508,"hc-middle-lat":51.614}},{"type":"Polygon","arcs":[[-921,924,-457,925,926,326]],"id":"DE.NW.05978000.05978020","properties":{"hc-group":"admin3","hc-key":"de-nw-05978000-05978020","hc-a2":"KA","name":"Kamen","hc-middle-lon":7.669,"hc-middle-lat":51.583}},{"type":"Polygon","arcs":[[927,928,-344,241,929]],"id":"DE.NW.05158000.05158008","properties":{"hc-group":"admin3","hc-key":"de-nw-05158000-05158008","hc-a2":"HA","name":"Haan","hc-middle-lon":7.033,"hc-middle-lat":51.195}},{"type":"Polygon","arcs":[[-928,930,463,931]],"id":"DE.NW.05158000.05158004","properties":{"hc-group":"admin3","hc-key":"de-nw-05158000-05158004","hc-a2":"ER","name":"Erkrath","hc-middle-lon":6.928,"hc-middle-lat":51.216}},{"type":"Polygon","arcs":[[932,933,-681,934,935,315,936]],"id":"DE.NW.05558000.05558044","properties":{"hc-group":"admin3","hc-key":"de-nw-05558000-05558044","hc-a2":"SE","name":"Senden","hc-middle-lon":7.498,"hc-middle-lat":51.855}},{"type":"Polygon","arcs":[[-933,937,-323,-322,938]],"id":"DE.NW.05558000.05558028","properties":{"hc-group":"admin3","hc-key":"de-nw-05558000-05558028","hc-a2":"NO","name":"Nordkirchen","hc-middle-lon":7.55,"hc-middle-lat":51.724}},{"type":"Polygon","arcs":[[939,940,941,942,943,944,945]],"id":"DE.NW.05358000.05358008","properties":{"hc-group":"admin3","hc-key":"de-nw-05358000-05358008","hc-a2":"DÜ","name":"Düren","hc-middle-lon":6.467,"hc-middle-lat":50.802}},{"type":"Polygon","arcs":[[-940,946,-368,-367,947]],"id":"DE.NW.05358000.05358040","properties":{"hc-group":"admin3","hc-key":"de-nw-05358000-05358040","hc-a2":"ME","name":"Merzenich","hc-middle-lon":6.561,"hc-middle-lat":50.827}},{"type":"Polygon","arcs":[[-521,-526,948,949,950,-308]],"id":"DE.NW.05962000.05962040","properties":{"hc-group":"admin3","hc-key":"de-nw-05962000-05962040","hc-a2":"M(","name":"Menden (Sauerland)","hc-middle-lon":7.794,"hc-middle-lat":51.432}},{"type":"Polygon","arcs":[[951,952,413,-416,953]],"id":"DE.NW.05170000.05170024","properties":{"hc-group":"admin3","hc-key":"de-nw-05170000-05170024","hc-a2":"MO","name":"Moers","hc-middle-lon":6.619,"hc-middle-lat":51.436}},{"type":"Polygon","arcs":[[-952,954,330,331,955,956]],"id":"DE.NW.05170000.05170020","properties":{"hc-group":"admin3","hc-key":"de-nw-05170000-05170020","hc-a2":"KL","name":"Kamp-Lintfort","hc-middle-lon":6.518,"hc-middle-lat":51.52}},{"type":"Polygon","arcs":[[-949,-525,-524,957,958]],"id":"DE.NW.05962000.05962008","properties":{"hc-group":"admin3","hc-key":"de-nw-05962000-05962008","hc-a2":"BA","name":"Balve","hc-middle-lon":7.873,"hc-middle-lat":51.335}},{"type":"Polygon","arcs":[[959,960,-649,-797,349,350]],"id":"DE.NW.05378000.05378012","properties":{"hc-group":"admin3","hc-key":"de-nw-05378000-05378012","hc-a2":"KÜ","name":"Kürten","hc-middle-lon":7.252,"hc-middle-lat":51.045}},{"type":"Polygon","arcs":[[-960,351,352,473,474,475,961,962]],"id":"DE.NW.05378000.05378024","properties":{"hc-group":"admin3","hc-key":"de-nw-05378000-05378024","hc-a2":"OV","name":"Overath","hc-middle-lon":7.296,"hc-middle-lat":50.946}},{"type":"Polygon","arcs":[[-349,963,-624,-127,-126,-591,964,-350]],"id":"DE.NW.05374000.05374052","properties":{"hc-group":"admin3","hc-key":"de-nw-05374000-05374052","hc-a2":"WI","name":"Wipperfürth","hc-middle-lon":7.405,"hc-middle-lat":51.105}},{"type":"Polygon","arcs":[[51,-329,-342,-341,-340,965,966]],"id":"DE.NW.05154000.05154044","properties":{"hc-group":"admin3","hc-key":"de-nw-05154000-05154044","hc-a2":"RE","name":"Rees","hc-middle-lon":6.423,"hc-middle-lat":51.781}},{"type":"Polygon","arcs":[[-685,462,-931,-930,242]],"id":"DE.NW.05158000.05158016","properties":{"hc-group":"admin3","hc-key":"de-nw-05158000-05158016","hc-a2":"HI","name":"Hilden","hc-middle-lon":6.939,"hc-middle-lat":51.172}},{"type":"Polygon","arcs":[[209,283,967,968,208]],"id":"DE.NW.05162000.05162028","properties":{"hc-group":"admin3","hc-key":"de-nw-05162000-05162028","hc-a2":"RO","name":"Rommerskirchen","hc-middle-lon":6.707,"hc-middle-lat":51.042}},{"type":"Polygon","arcs":[[-284,-569,-574,370,-286,-285]],"id":"DE.NW.05362000.05362004","properties":{"hc-group":"admin3","hc-key":"de-nw-05362000-05362004","hc-a2":"BE","name":"Bedburg","hc-middle-lon":6.522,"hc-middle-lat":51.008}},{"type":"Polygon","arcs":[[285,-167,355,-358,-673,969]],"id":"DE.NW.05162000.05162012","properties":{"hc-group":"admin3","hc-key":"de-nw-05162000-05162012","hc-a2":"JÜ","name":"Jüchen","hc-middle-lon":6.501,"hc-middle-lat":51.104}},{"type":"Polygon","arcs":[[-943,970,971,-300,-299,972]],"id":"DE.NW.05358000.05358016","properties":{"hc-group":"admin3","hc-key":"de-nw-05358000-05358016","hc-a2":"HÜ","name":"Hürtgenwald","hc-middle-lon":6.381,"hc-middle-lat":50.706}},{"type":"Polygon","arcs":[[-898,973,974,-945,975,-296]],"id":"DE.NW.05358000.05358020","properties":{"hc-group":"admin3","hc-key":"de-nw-05358000-05358020","hc-a2":"IN","name":"Inden","hc-middle-lon":6.371,"hc-middle-lat":50.865}},{"type":"Polygon","arcs":[[-974,-897,976,977,978]],"id":"DE.NW.05358000.05358024","properties":{"hc-group":"admin3","hc-key":"de-nw-05358000-05358024","hc-a2":"JÜ","name":"Jülich","hc-middle-lon":6.36,"hc-middle-lat":50.932}},{"type":"Polygon","arcs":[[-975,-979,979,-369,-947,-946]],"id":"DE.NW.05358000.05358048","properties":{"hc-group":"admin3","hc-key":"de-nw-05358000-05358048","hc-a2":"NI","name":"Niederzier","hc-middle-lon":6.467,"hc-middle-lat":50.876}},{"type":"Polygon","arcs":[[-132,980,-707,981,-133]],"id":"DE.NW.05566000.05566036","properties":{"hc-group":"admin3","hc-key":"de-nw-05566000-05566036","hc-a2":"LA","name":"Laer","hc-middle-lon":7.359,"hc-middle-lat":52.064}},{"type":"Polygon","arcs":[[131,982,983,163,164,165,130]],"id":"DE.NW.05558000.05558040","properties":{"hc-group":"admin3","hc-key":"de-nw-05558000-05558040","hc-a2":"RO","name":"Rosendahl","hc-middle-lon":7.164,"hc-middle-lat":52.008}},{"type":"Polygon","arcs":[[-131,157,-700,-708,-981]],"id":"DE.NW.05566000.05566024","properties":{"hc-group":"admin3","hc-key":"de-nw-05566000-05566024","hc-a2":"HO","name":"Horstmar","hc-middle-lon":7.269,"hc-middle-lat":52.097}},{"type":"MultiPolygon","arcs":[[[984,299,300,301,-116,-736,2,985,986,987]],[[116,293]]],"id":"DE.NW.05334000.05334028","properties":{"hc-group":"admin3","hc-key":"de-nw-05334000-05334028","hc-a2":"SI","name":"Simmerath","hc-middle-lon":6.336,"hc-middle-lat":50.608}},{"type":"Polygon","arcs":[[-985,988,-540,-711,297,298]],"id":"DE.NW.05334000.05334032","properties":{"hc-group":"admin3","hc-key":"de-nw-05334000-05334032","hc-a2":"S(","name":"Stolberg (Rhld.)","hc-middle-lon":6.263,"hc-middle-lat":50.742}},{"type":"Polygon","arcs":[[-730,-378,-377,363,364,-920,989]],"id":"DE.NW.05362000.05362020","properties":{"hc-group":"admin3","hc-key":"de-nw-05362000-05362020","hc-a2":"ER","name":"Erftstadt","hc-middle-lon":6.768,"hc-middle-lat":50.791}},{"type":"Polygon","arcs":[[-389,383,384,990,991,992,993,-270,-390]],"id":"DE.NW.05974000.05974028","properties":{"hc-group":"admin3","hc-key":"de-nw-05974000-05974028","hc-a2":"LI","name":"Lippstadt","hc-middle-lon":8.367,"hc-middle-lat":51.68}},{"type":"Polygon","arcs":[[-364,-376,994,995,996]],"id":"DE.NW.05358000.05358060","properties":{"hc-group":"admin3","hc-key":"de-nw-05358000-05358060","hc-a2":"VE","name":"Vettweiß","hc-middle-lon":6.605,"hc-middle-lat":50.745}},{"type":"Polygon","arcs":[[-995,-375,997,-301,-972,998]],"id":"DE.NW.05358000.05358044","properties":{"hc-group":"admin3","hc-key":"de-nw-05358000-05358044","hc-a2":"NI","name":"Nideggen","hc-middle-lon":6.515,"hc-middle-lat":50.684}},{"type":"Polygon","arcs":[[-794,999,24,-811]],"id":"DE.NW.05970000.05970036","properties":{"hc-group":"admin3","hc-key":"de-nw-05970000-05970036","hc-a2":"NE","name":"Neunkirchen","hc-middle-lon":7.971,"hc-middle-lat":50.795}},{"type":"Polygon","arcs":[[44,-604,-335,-785,-895,1000]],"id":"DE.NW.05154000.05154012","properties":{"hc-group":"admin3","hc-key":"de-nw-05154000-05154012","hc-a2":"GE","name":"Geldern","hc-middle-lon":6.284,"hc-middle-lat":51.514}},{"type":"Polygon","arcs":[[334,335,336,1001,1002,333]],"id":"DE.NW.05170000.05170040","properties":{"hc-group":"admin3","hc-key":"de-nw-05170000-05170040","hc-a2":"SO","name":"Sonsbeck","hc-middle-lon":6.357,"hc-middle-lat":51.604}},{"type":"Polygon","arcs":[[1003,1004,-761,1005,1006,1007]],"id":"DE.NW.05766000.05766040","properties":{"hc-group":"admin3","hc-key":"de-nw-05766000-05766040","hc-a2":"LA","name":"Lage","hc-middle-lon":8.789,"hc-middle-lat":51.996}},{"type":"Polygon","arcs":[[-1004,1008,231,1009]],"id":"DE.NW.05766000.05766048","properties":{"hc-group":"admin3","hc-key":"de-nw-05766000-05766048","hc-a2":"LE","name":"Leopoldshöhe","hc-middle-lon":8.717,"hc-middle-lat":52.003}},{"type":"Polygon","arcs":[[-973,-298,-297,-976,-944]],"id":"DE.NW.05358000.05358032","properties":{"hc-group":"admin3","hc-key":"de-nw-05358000-05358032","hc-a2":"LA","name":"Langerwehe","hc-middle-lon":6.366,"hc-middle-lat":50.798}},{"type":"Polygon","arcs":[[-461,-460,-914,-916,227,-927,1010,-455]],"id":"DE.NW.05978000.05978036","properties":{"hc-group":"admin3","hc-key":"de-nw-05978000-05978036","hc-a2":"UN","name":"Unna","hc-middle-lon":7.703,"hc-middle-lat":51.532}},{"type":"Polygon","arcs":[[460,266,1011,1012,1013,-911]],"id":"DE.NW.05974000.05974052","properties":{"hc-group":"admin3","hc-key":"de-nw-05974000-05974052","hc-a2":"WE","name":"Werl","hc-middle-lon":7.915,"hc-middle-lat":51.554}},{"type":"Polygon","arcs":[[-1013,1014,1015,1016,1017,1018]],"id":"DE.NW.05974000.05974040","properties":{"hc-group":"admin3","hc-key":"de-nw-05974000-05974040","hc-a2":"SO","name":"Soest","hc-middle-lon":8.104,"hc-middle-lat":51.551}},{"type":"Polygon","arcs":[[514,-877,-747,-776,-384,513]],"id":"DE.NW.05774000.05774020","properties":{"hc-group":"admin3","hc-key":"de-nw-05774000-05774020","hc-a2":"DE","name":"Delbrück","hc-middle-lon":8.568,"hc-middle-lat":51.768}},{"type":"Polygon","arcs":[[337,338,339,1019,1020,-1002]],"id":"DE.NW.05170000.05170052","properties":{"hc-group":"admin3","hc-key":"de-nw-05170000-05170052","hc-a2":"XA","name":"Xanten","hc-middle-lon":6.444,"hc-middle-lat":51.66}},{"type":"Polygon","arcs":[[-339,-860,1021,1022,1023,1024,-966]],"id":"DE.NW.05154000.05154024","properties":{"hc-group":"admin3","hc-key":"de-nw-05154000-05154024","hc-a2":"KA","name":"Kalkar","hc-middle-lon":6.315,"hc-middle-lat":51.741}},{"type":"Polygon","arcs":[[95,1025,1026,1027]],"id":"DE.NW.05566000.05566040","properties":{"hc-group":"admin3","hc-key":"de-nw-05566000-05566040","hc-a2":"LE","name":"Lengerich","hc-middle-lon":7.871,"hc-middle-lat":52.182}},{"type":"Polygon","arcs":[[-956,332,-1003,-1021,1028,1029]],"id":"DE.NW.05170000.05170004","properties":{"hc-group":"admin3","hc-key":"de-nw-05170000-05170004","hc-a2":"AL","name":"Alpen","hc-middle-lon":6.489,"hc-middle-lat":51.592}},{"type":"Polygon","arcs":[[-1029,-1020,340,1030,1031,1032,1033]],"id":"DE.NW.05170000.05170048","properties":{"hc-group":"admin3","hc-key":"de-nw-05170000-05170048","hc-a2":"WE","name":"Wesel","hc-middle-lon":6.557,"hc-middle-lat":51.673}},{"type":"Polygon","arcs":[[-479,97,-538,1034,-480]],"id":"DE.NW.05382000.05382076","properties":{"hc-group":"admin3","hc-key":"de-nw-05382000-05382076","hc-a2":"WI","name":"Windeck","hc-middle-lon":7.582,"hc-middle-lat":50.796}},{"type":"Polygon","arcs":[[478,1035,1036,99]],"id":"DE.NW.05374000.05374028","properties":{"hc-group":"admin3","hc-key":"de-nw-05374000-05374028","hc-a2":"MO","name":"Morsbach","hc-middle-lon":7.744,"hc-middle-lat":50.859}},{"type":"Polygon","arcs":[[-814,1037,1038,373,374,375,376]],"id":"DE.NW.05366000.05366044","properties":{"hc-group":"admin3","hc-key":"de-nw-05366000-05366044","hc-a2":"ZÜ","name":"Zülpich","hc-middle-lon":6.665,"hc-middle-lat":50.689}},{"type":"Polygon","arcs":[[-374,-373,-372,293,-302,-998]],"id":"DE.NW.05358000.05358012","properties":{"hc-group":"admin3","hc-key":"de-nw-05358000-05358012","hc-a2":"HE","name":"Heimbach","hc-middle-lon":6.481,"hc-middle-lat":50.631}},{"type":"Polygon","arcs":[[1039,451,-599,1040,1041,-1027]],"id":"DE.NW.05566000.05566032","properties":{"hc-group":"admin3","hc-key":"de-nw-05566000-05566032","hc-a2":"LA","name":"Ladbergen","hc-middle-lon":7.775,"hc-middle-lat":52.136}},{"type":"Polygon","arcs":[[-1040,-1026,96,450]],"id":"DE.NW.05566000.05566044","properties":{"hc-group":"admin3","hc-key":"de-nw-05566000-05566044","hc-a2":"LI","name":"Lienen","hc-middle-lon":7.984,"hc-middle-lat":52.16}},{"type":"Polygon","arcs":[[-363,-362,-361,356,357,-230,-229]],"id":"DE.NW.05116000.05116000","properties":{"hc-group":"admin3","hc-key":"de-nw-05116000-05116000","hc-a2":"MÖ","name":"Mönchengladbach","hc-middle-lon":6.423,"hc-middle-lat":51.163}},{"type":"Polygon","arcs":[[362,-124,1042,1043,-577,-918]],"id":"DE.NW.05166000.05166024","properties":{"hc-group":"admin3","hc-key":"de-nw-05166000-05166024","hc-a2":"SC","name":"Schwalmtal","hc-middle-lon":6.271,"hc-middle-lat":51.216}},{"type":"Polygon","arcs":[[-1043,-123,40,1044]],"id":"DE.NW.05166000.05166020","properties":{"hc-group":"admin3","hc-key":"de-nw-05166000-05166020","hc-a2":"NI","name":"Niederkrüchten","hc-middle-lon":6.095,"hc-middle-lat":51.198}},{"type":"Polygon","arcs":[[424,1045,1046,1047]],"id":"DE.NW.05962000.05962044","properties":{"hc-group":"admin3","hc-key":"de-nw-05962000-05962044","hc-a2":"NW","name":"Nachrodt-Wiblingwerde","hc-middle-lon":7.645,"hc-middle-lat":51.312}},{"type":"Polygon","arcs":[[-1048,1048,-881,-626,-429,423]],"id":"DE.NW.05962000.05962056","properties":{"hc-group":"admin3","hc-key":"de-nw-05962000-05962056","hc-a2":"SC","name":"Schalksmühle","hc-middle-lon":7.556,"hc-middle-lat":51.256}},{"type":"Polygon","arcs":[[499,1049,1050,-1031,341,496,497,498]],"id":"DE.NW.05170000.05170012","properties":{"hc-group":"admin3","hc-key":"de-nw-05170000-05170012","hc-a2":"HA","name":"Hamminkeln","hc-middle-lon":6.619,"hc-middle-lat":51.746}},{"type":"Polygon","arcs":[[-497,328,52,1051]],"id":"DE.NW.05554000.05554032","properties":{"hc-group":"admin3","hc-key":"de-nw-05554000-05554032","hc-a2":"IS","name":"Isselburg","hc-middle-lon":6.448,"hc-middle-lat":51.862}},{"type":"Polygon","arcs":[[-541,-989,-988,1052,-986,3]],"id":"DE.NW.05334000.05334024","properties":{"hc-group":"admin3","hc-key":"de-nw-05334000-05334024","hc-a2":"RO","name":"Roetgen","hc-middle-lon":6.214,"hc-middle-lat":50.641}},{"type":"Polygon","arcs":[[-806,216,-733,-111,405]],"id":"DE.NW.05382000.05382044","properties":{"hc-group":"admin3","hc-key":"de-nw-05382000-05382044","hc-a2":"NI","name":"Niederkassel","hc-middle-lon":7.029,"hc-middle-lat":50.805}},{"type":"Polygon","arcs":[[-894,-791,304,43,-1001]],"id":"DE.NW.05154000.05154052","properties":{"hc-group":"admin3","hc-key":"de-nw-05154000-05154052","hc-a2":"ST","name":"Straelen","hc-middle-lon":6.23,"hc-middle-lat":51.424}},{"type":"Polygon","arcs":[[90,1053,-848,-853]],"id":"DE.NW.05566000.05566072","properties":{"hc-group":"admin3","hc-key":"de-nw-05566000-05566072","hc-a2":"RE","name":"Recke","hc-middle-lon":7.705,"hc-middle-lat":52.361}},{"type":"Polygon","arcs":[[329,-955,-954,248,249]],"id":"DE.NW.05170000.05170028","properties":{"hc-group":"admin3","hc-key":"de-nw-05170000-05170028","hc-a2":"NV","name":"Neukirchen-Vluyn","hc-middle-lon":6.58,"hc-middle-lat":51.456}},{"type":"Polygon","arcs":[[232,117,118,-762,-1005,-1010]],"id":"DE.NW.05766000.05766008","properties":{"hc-group":"admin3","hc-key":"de-nw-05766000-05766008","hc-a2":"BS","name":"Bad Salzuflen","hc-middle-lon":8.759,"hc-middle-lat":52.068}},{"type":"Polygon","arcs":[[-233,-232,-231,-238,-237,-236,-235,-234,-241,-240,-239]],"id":"DE.NW.05711000.05711000","properties":{"hc-group":"admin3","hc-key":"de-nw-05711000-05711000","hc-a2":"BI","name":"Bielefeld","hc-middle-lon":8.539,"hc-middle-lat":52.009}},{"type":"Polygon","arcs":[[169,170,-244,-243,-242,431,353]],"id":"DE.NW.05122000.05122000","properties":{"hc-group":"admin3","hc-key":"de-nw-05122000-05122000","hc-a2":"SO","name":"Solingen","hc-middle-lon":7.061,"hc-middle-lat":51.148}},{"type":"Polygon","arcs":[[-347,1054,1055,435,436]],"id":"DE.NW.05158000.05158032","properties":{"hc-group":"admin3","hc-key":"de-nw-05158000-05158032","hc-a2":"VE","name":"Velbert","hc-middle-lon":7.086,"hc-middle-lat":51.334}},{"type":"Polygon","arcs":[[-926,-456,-1011]],"id":"DE.NW.05978000.05978008","properties":{"hc-group":"admin3","hc-key":"de-nw-05978000-05978008","hc-a2":"BÖ","name":"Bönen","hc-middle-lon":7.802,"hc-middle-lat":51.591}},{"type":"Polygon","arcs":[[-433,-436,-435,-434,-245,437,471,-473,-439,-440]],"id":"DE.NW.05113000.05113000","properties":{"hc-group":"admin3","hc-key":"de-nw-05113000-05113000","hc-a2":"ES","name":"Essen","hc-middle-lon":7.019,"hc-middle-lat":51.421}},{"type":"Polygon","arcs":[[75,-422,-421,-816,1056,1057]],"id":"DE.NW.05382000.05382048","properties":{"hc-group":"admin3","hc-key":"de-nw-05382000-05382048","hc-a2":"RH","name":"Rheinbach","hc-middle-lon":6.95,"hc-middle-lat":50.617}},{"type":"Polygon","arcs":[[421,76,-718,1058,1059]],"id":"DE.NW.05366000.05366004","properties":{"hc-group":"admin3","hc-key":"de-nw-05366000-05366004","hc-a2":"BM","name":"Bad Münstereifel","hc-middle-lon":6.824,"hc-middle-lat":50.533}},{"type":"Polygon","arcs":[[-1057,-815,-734,218,1060]],"id":"DE.NW.05382000.05382004","properties":{"hc-group":"admin3","hc-key":"de-nw-05382000-05382004","hc-a2":"AL","name":"Alfter","hc-middle-lon":7.03,"hc-middle-lat":50.73}},{"type":"Polygon","arcs":[[484,1061,-655,1062,1063,292]],"id":"DE.NW.05370000.05370012","properties":{"hc-group":"admin3","hc-key":"de-nw-05370000-05370012","hc-a2":"GE","name":"Geilenkirchen","hc-middle-lon":6.128,"hc-middle-lat":50.969}},{"type":"Polygon","arcs":[[-485,-289,-288,-901,1064,-486]],"id":"DE.NW.05334000.05334008","properties":{"hc-group":"admin3","hc-key":"de-nw-05334000-05334008","hc-a2":"BA","name":"Baesweiler","hc-middle-lon":6.156,"hc-middle-lat":50.927}},{"type":"Polygon","arcs":[[288,-293,-292,-291,1065,-977,-896]],"id":"DE.NW.05358000.05358036","properties":{"hc-group":"admin3","hc-key":"de-nw-05358000-05358036","hc-a2":"LI","name":"Linnich","hc-middle-lon":6.288,"hc-middle-lat":50.974}},{"type":"Polygon","arcs":[[-720,1066,79,-713]],"id":"DE.NW.05366000.05366012","properties":{"hc-group":"admin3","hc-key":"de-nw-05366000-05366012","hc-a2":"DA","name":"Dahlem","hc-middle-lon":6.516,"hc-middle-lat":50.393}},{"type":"Polygon","arcs":[[207,-969,1067,-670,280,-403,206]],"id":"DE.NW.05162000.05162004","properties":{"hc-group":"admin3","hc-key":"de-nw-05162000-05162004","hc-a2":"DO","name":"Dormagen","hc-middle-lon":6.792,"hc-middle-lat":51.099}},{"type":"Polygon","arcs":[[1068,-755,1069,38,1070]],"id":"DE.NW.05770000.05770024","properties":{"hc-group":"admin3","hc-key":"de-nw-05770000-05770024","hc-a2":"MI","name":"Minden","hc-middle-lon":8.906,"hc-middle-lat":52.298}},{"type":"Polygon","arcs":[[-1069,1071,-191,-190,1072,-756]],"id":"DE.NW.05770000.05770004","properties":{"hc-group":"admin3","hc-key":"de-nw-05770000-05770004","hc-a2":"BO","name":"Bad Oeynhausen","hc-middle-lon":8.831,"hc-middle-lat":52.227}},{"type":"Polygon","arcs":[[-732,205,110,111]],"id":"DE.NW.05362000.05362040","properties":{"hc-group":"admin3","hc-key":"de-nw-05362000-05362040","hc-a2":"WE","name":"Wesseling","hc-middle-lon":6.949,"hc-middle-lat":50.817}},{"type":"Polygon","arcs":[[1073,1074,1075,-950,-959]],"id":"DE.NW.05962000.05962016","properties":{"hc-group":"admin3","hc-key":"de-nw-05962000-05962016","hc-a2":"HE","name":"Hemer","hc-middle-lon":7.789,"hc-middle-lat":51.386}},{"type":"Polygon","arcs":[[-1074,-958,-523,1076,-886,1077]],"id":"DE.NW.05962000.05962048","properties":{"hc-group":"admin3","hc-key":"de-nw-05962000-05962048","hc-a2":"NE","name":"Neuenrade","hc-middle-lon":7.861,"hc-middle-lat":51.277}},{"type":"Polygon","arcs":[[-874,1078,-1006,-760,-644,1079]],"id":"DE.NW.05766000.05766020","properties":{"hc-group":"admin3","hc-key":"de-nw-05766000-05766020","hc-a2":"DE","name":"Detmold","hc-middle-lon":8.886,"hc-middle-lat":51.935}},{"type":"Polygon","arcs":[[1080,-1007,-1079,-873,-512]],"id":"DE.NW.05766000.05766004","properties":{"hc-group":"admin3","hc-key":"de-nw-05766000-05766004","hc-a2":"AU","name":"Augustdorf","hc-middle-lon":8.759,"hc-middle-lat":51.904}},{"type":"Polygon","arcs":[[-1081,-511,230,-1009,-1008]],"id":"DE.NW.05766000.05766056","properties":{"hc-group":"admin3","hc-key":"de-nw-05766000-05766056","hc-a2":"OE","name":"Oerlinghausen","hc-middle-lon":8.675,"hc-middle-lat":51.95}},{"type":"Polygon","arcs":[[1081,-174,-173,1082,-693]],"id":"DE.NW.05762000.05762024","properties":{"hc-group":"admin3","hc-key":"de-nw-05762000-05762024","hc-a2":"MA","name":"Marienmünster","hc-middle-lon":9.231,"hc-middle-lat":51.822}},{"type":"Polygon","arcs":[[-1082,-692,-739,1083,-175]],"id":"DE.NW.05762000.05762028","properties":{"hc-group":"admin3","hc-key":"de-nw-05762000-05762028","hc-a2":"NI","name":"Nieheim","hc-middle-lon":9.114,"hc-middle-lat":51.803}},{"type":"Polygon","arcs":[[174,175,1084,-642,-683,173]],"id":"DE.NW.05766000.05766060","properties":{"hc-group":"admin3","hc-key":"de-nw-05766000-05766060","hc-a2":"SS","name":"Schieder-Schwalenberg","hc-middle-lon":9.179,"hc-middle-lat":51.903}},{"type":"Polygon","arcs":[[-1085,176,-510,-509,-875,-1080,-643]],"id":"DE.NW.05766000.05766032","properties":{"hc-group":"admin3","hc-key":"de-nw-05766000-05766032","hc-a2":"HB","name":"Horn-Bad Meinberg","hc-middle-lon":8.95,"hc-middle-lat":51.858}},{"type":"Polygon","arcs":[[-890,1085,1086,-185,17,1087]],"id":"DE.NW.05770000.05770036","properties":{"hc-group":"admin3","hc-key":"de-nw-05770000-05770036","hc-a2":"PO","name":"Preußisch Oldendorf","hc-middle-lon":8.475,"hc-middle-lat":52.292}},{"type":"Polygon","arcs":[[1088,1089,1090,-983,132,133]],"id":"DE.NW.05558000.05558008","properties":{"hc-group":"admin3","hc-key":"de-nw-05558000-05558008","hc-a2":"BI","name":"Billerbeck","hc-middle-lon":7.294,"hc-middle-lat":51.981}},{"type":"Polygon","arcs":[[-1089,134,314,-936,1091]],"id":"DE.NW.05558000.05558020","properties":{"hc-group":"admin3","hc-key":"de-nw-05558000-05558020","hc-a2":"HA","name":"Havixbeck","hc-middle-lon":7.423,"hc-middle-lat":51.966}},{"type":"Polygon","arcs":[[415,411,-411,-248,-247,-246,-249]],"id":"DE.NW.05114000.05114000","properties":{"hc-group":"admin3","hc-key":"de-nw-05114000-05114000","hc-a2":"KR","name":"Krefeld","hc-middle-lon":6.595,"hc-middle-lat":51.348}},{"type":"Polygon","arcs":[[-228,-227,-226,224,-262,-261,259,-326,-325,-328,-327]],"id":"DE.NW.05913000.05913000","properties":{"hc-group":"admin3","hc-key":"de-nw-05913000-05913000","hc-a2":"DO","name":"Dortmund","hc-middle-lon":7.451,"hc-middle-lat":51.512}},{"type":"Polygon","arcs":[[-137,324,1092,-581,-138]],"id":"DE.NW.05562000.05562036","properties":{"hc-group":"admin3","hc-key":"de-nw-05562000-05562036","hc-a2":"WA","name":"Waltrop","hc-middle-lon":7.393,"hc-middle-lat":51.624}},{"type":"Polygon","arcs":[[-1093,325,-444,467,1093,-582]],"id":"DE.NW.05562000.05562004","properties":{"hc-group":"admin3","hc-key":"de-nw-05562000-05562004","hc-a2":"CR","name":"Castrop-Rauxel","hc-middle-lon":7.301,"hc-middle-lat":51.552}},{"type":"Polygon","arcs":[[137,138,319,320,321,1094,-922]],"id":"DE.NW.05978000.05978032","properties":{"hc-group":"admin3","hc-key":"de-nw-05978000-05978032","hc-a2":"SE","name":"Selm","hc-middle-lon":7.479,"hc-middle-lat":51.689}},{"type":"Polygon","arcs":[[-682,-934,-939,-321,-676,-488]],"id":"DE.NW.05558000.05558024","properties":{"hc-group":"admin3","hc-key":"de-nw-05558000-05558024","hc-a2":"LÜ","name":"Lüdinghausen","hc-middle-lon":7.443,"hc-middle-lat":51.773}},{"type":"Polygon","arcs":[[-832,1095,1096,-992,1097]],"id":"DE.NW.05974000.05974016","properties":{"hc-group":"admin3","hc-key":"de-nw-05974000-05974016","hc-a2":"ER","name":"Erwitte","hc-middle-lon":8.313,"hc-middle-lat":51.613}},{"type":"Polygon","arcs":[[-1098,-991,385,386,-833]],"id":"DE.NW.05974000.05974020","properties":{"hc-group":"admin3","hc-key":"de-nw-05974000-05974020","hc-a2":"GE","name":"Geseke","hc-middle-lon":8.488,"hc-middle-lat":51.641}},{"type":"Polygon","arcs":[[-702,-701,160,161,7,1098]],"id":"DE.NW.05566000.05566068","properties":{"hc-group":"admin3","hc-key":"de-nw-05566000-05566068","hc-a2":"OC","name":"Ochtrup","hc-middle-lon":7.165,"hc-middle-lat":52.215}},{"type":"Polygon","arcs":[[1099,-150,1100,-616,-623]],"id":"DE.NW.05754000.05754028","properties":{"hc-group":"admin3","hc-key":"de-nw-05754000-05754028","hc-a2":"RW","name":"Rheda-Wiedenbrück","hc-middle-lon":8.309,"hc-middle-lat":51.835}},{"type":"Polygon","arcs":[[-1100,-622,389,-147,-146]],"id":"DE.NW.05754000.05754024","properties":{"hc-group":"admin3","hc-key":"de-nw-05754000-05754024","hc-a2":"LA","name":"Langenberg","hc-middle-lon":8.306,"hc-middle-lat":51.784}},{"type":"Polygon","arcs":[[145,1101,1102,1103,1104,148,149]],"id":"DE.NW.05570000.05570028","properties":{"hc-group":"admin3","hc-key":"de-nw-05570000-05570028","hc-a2":"OE","name":"Oelde","hc-middle-lon":8.173,"hc-middle-lat":51.809}},{"type":"Polygon","arcs":[[143,1105,1106,87,142]],"id":"DE.NW.05570000.05570036","properties":{"hc-group":"admin3","hc-key":"de-nw-05570000-05570036","hc-a2":"SA","name":"Sassenberg","hc-middle-lon":8.045,"hc-middle-lat":52.052}},{"type":"Polygon","arcs":[[-144,1107,1108,-751,-618,1109,-145]],"id":"DE.NW.05754000.05754016","properties":{"hc-group":"admin3","hc-key":"de-nw-05754000-05754016","hc-a2":"HA","name":"Harsewinkel","hc-middle-lon":8.219,"hc-middle-lat":51.969}},{"type":"Polygon","arcs":[[-1109,1110,1111,1112,-752]],"id":"DE.NW.05754000.05754012","properties":{"hc-group":"admin3","hc-key":"de-nw-05754000-05754012","hc-a2":"H(","name":"Halle (Westf.)","hc-middle-lon":8.326,"hc-middle-lat":52.038}},{"type":"Polygon","arcs":[[491,492,493,494,-678,1113,256,1114,470,-502]],"id":"DE.NW.05562000.05562012","properties":{"hc-group":"admin3","hc-key":"de-nw-05562000-05562012","hc-a2":"DO","name":"Dorsten","hc-middle-lon":6.991,"hc-middle-lat":51.713}},{"type":"Polygon","arcs":[[483,-551,-557,1115,1116]],"id":"DE.NW.05374000.05374048","properties":{"hc-group":"admin3","hc-key":"de-nw-05374000-05374048","hc-a2":"WI","name":"Wiehl","hc-middle-lon":7.55,"hc-middle-lat":50.958}},{"type":"Polygon","arcs":[[-484,-483,1117,-728,-474,-283]],"id":"DE.NW.05382000.05382036","properties":{"hc-group":"admin3","hc-key":"de-nw-05382000-05382036","hc-a2":"MU","name":"Much","hc-middle-lon":7.409,"hc-middle-lat":50.902}},{"type":"Polygon","arcs":[[-1049,-1047,1118,-1075,-1078,-885,-882]],"id":"DE.NW.05962000.05962004","properties":{"hc-group":"admin3","hc-key":"de-nw-05962000-05962004","hc-a2":"AL","name":"Altena","hc-middle-lon":7.699,"hc-middle-lat":51.279}},{"type":"Polygon","arcs":[[481,482,-1117,1119,1120]],"id":"DE.NW.05374000.05374032","properties":{"hc-group":"admin3","hc-key":"de-nw-05374000-05374032","hc-a2":"NÜ","name":"Nümbrecht","hc-middle-lon":7.54,"hc-middle-lat":50.897}},{"type":"Polygon","arcs":[[-482,-481,-1035,-537,-722,-729,-1118]],"id":"DE.NW.05382000.05382052","properties":{"hc-group":"admin3","hc-key":"de-nw-05382000-05382052","hc-a2":"RU","name":"Ruppichteroth","hc-middle-lon":7.452,"hc-middle-lat":50.84}},{"type":"Polygon","arcs":[[480,-1121,1121,-1036,479]],"id":"DE.NW.05374000.05374044","properties":{"hc-group":"admin3","hc-key":"de-nw-05374000-05374044","hc-a2":"WA","name":"Waldbröl","hc-middle-lon":7.609,"hc-middle-lat":50.865}},{"type":"Polygon","arcs":[[-935,-680,1122,-1090,-1092]],"id":"DE.NW.05558000.05558032","properties":{"hc-group":"admin3","hc-key":"de-nw-05558000-05558032","hc-a2":"NO","name":"Nottuln","hc-middle-lon":7.361,"hc-middle-lat":51.915}},{"type":"Polygon","arcs":[[-982,-706,1123,-600,-313,-135,-134]],"id":"DE.NW.05566000.05566004","properties":{"hc-group":"admin3","hc-key":"de-nw-05566000-05566004","hc-a2":"AL","name":"Altenberge","hc-middle-lon":7.477,"hc-middle-lat":52.04}},{"type":"Polygon","arcs":[[-120,-119,-607,-675,190,191,-121]],"id":"DE.NW.05758000.05758036","properties":{"hc-group":"admin3","hc-key":"de-nw-05758000-05758036","hc-a2":"VL","name":"Vlotho","hc-middle-lon":8.826,"hc-middle-lat":52.134}},{"type":"Polygon","arcs":[[-409,407,-410,244]],"id":"DE.NW.05117000.05117000","properties":{"hc-group":"admin3","hc-key":"de-nw-05117000-05117000","hc-a2":"MA","name":"Mülheim an der Ruhr","hc-middle-lon":6.883,"hc-middle-lat":51.414}},{"type":"Polygon","arcs":[[-887,-1077,-522,395,396,1124]],"id":"DE.NW.05962000.05962052","properties":{"hc-group":"admin3","hc-key":"de-nw-05962000-05962052","hc-a2":"PL","name":"Plettenberg","hc-middle-lon":7.866,"hc-middle-lat":51.215}},{"type":"Polygon","arcs":[[-773,-777,-745,-742]],"id":"DE.NW.05774000.05774012","properties":{"hc-group":"admin3","hc-key":"de-nw-05774000-05774012","hc-a2":"BO","name":"Borchen","hc-middle-lon":8.775,"hc-middle-lat":51.655}},{"type":"Polygon","arcs":[[1125,-838,532,1126,-1018]],"id":"DE.NW.05974000.05974032","properties":{"hc-group":"admin3","hc-key":"de-nw-05974000-05974032","hc-a2":"MÖ","name":"Möhnesee","hc-middle-lon":8.119,"hc-middle-lat":51.488}},{"type":"Polygon","arcs":[[-1126,-1017,1127,-993,-1097,1128,-839]],"id":"DE.NW.05974000.05974008","properties":{"hc-group":"admin3","hc-key":"de-nw-05974000-05974008","hc-a2":"BS","name":"Bad Sassendorf","hc-middle-lon":8.22,"hc-middle-lat":51.564}},{"type":"Polygon","arcs":[[-1128,-1016,1129,268,-273,-272,-271,-994]],"id":"DE.NW.05974000.05974024","properties":{"hc-group":"admin3","hc-key":"de-nw-05974000-05974024","hc-a2":"LI","name":"Lippetal","hc-middle-lon":8.103,"hc-middle-lat":51.672}},{"type":"Polygon","arcs":[[154,-625,-964,-348]],"id":"DE.NW.05374000.05374016","properties":{"hc-group":"admin3","hc-key":"de-nw-05374000-05374016","hc-a2":"HÜ","name":"Hückeswagen","hc-middle-lon":7.333,"hc-middle-lat":51.149}},{"type":"Polygon","arcs":[[-1065,-900,1130,-542,101,-487]],"id":"DE.NW.05334000.05334016","properties":{"hc-group":"admin3","hc-key":"de-nw-05334000-05334016","hc-a2":"HE","name":"Herzogenrath","hc-middle-lon":6.104,"hc-middle-lat":50.879}},{"type":"Polygon","arcs":[[485,486,102,-1062]],"id":"DE.NW.05370000.05370028","properties":{"hc-group":"admin3","hc-key":"de-nw-05370000-05370028","hc-a2":"ÜP","name":"Übach-Palenberg","hc-middle-lon":6.087,"hc-middle-lat":50.935}},{"type":"Polygon","arcs":[[521,522,523,-837,1131,-822,519]],"id":"DE.NW.05958000.05958044","properties":{"hc-group":"admin3","hc-key":"de-nw-05958000-05958044","hc-a2":"S(","name":"Sundern (Sauerland)","hc-middle-lon":8.014,"hc-middle-lat":51.313}},{"type":"Polygon","arcs":[[-1051,1132,251,-843,1133,-1032]],"id":"DE.NW.05170000.05170016","properties":{"hc-group":"admin3","hc-key":"de-nw-05170000-05170016","hc-a2":"HÜ","name":"Hünxe","hc-middle-lon":6.775,"hc-middle-lat":51.636}},{"type":"Polygon","arcs":[[-252,-251,-471,-470,-472,281,-253]],"id":"DE.NW.05512000.05512000","properties":{"hc-group":"admin3","hc-key":"de-nw-05512000-05512000","hc-a2":"BO","name":"Bottrop","hc-middle-lon":6.91,"hc-middle-lat":51.59}},{"type":"Polygon","arcs":[[250,-1133,-1050,500,501]],"id":"DE.NW.05170000.05170036","properties":{"hc-group":"admin3","hc-key":"de-nw-05170000-05170036","hc-a2":"SC","name":"Schermbeck","hc-middle-lon":6.815,"hc-middle-lat":51.703}},{"type":"Polygon","arcs":[[91,1134,-849,-1054]],"id":"DE.NW.05566000.05566056","properties":{"hc-group":"admin3","hc-key":"de-nw-05566000-05566056","hc-a2":"ME","name":"Mettingen","hc-middle-lon":7.807,"hc-middle-lat":52.329}},{"type":"Polygon","arcs":[[-608,239,-872,-870,-609]],"id":"DE.NW.05758000.05758008","properties":{"hc-group":"admin3","hc-key":"de-nw-05758000-05758008","hc-a2":"EN","name":"Enger","hc-middle-lon":8.557,"hc-middle-lat":52.137}},{"type":"Polygon","arcs":[[-695,-399,-398,-397,1135,-826,-829]],"id":"DE.NW.05966000.05966004","properties":{"hc-group":"admin3","hc-key":"de-nw-05966000-05966004","hc-a2":"AT","name":"Attendorn","hc-middle-lon":7.875,"hc-middle-lat":51.122}},{"type":"Polygon","arcs":[[512,-517,-878,237,510,511]],"id":"DE.NW.05754000.05754036","properties":{"hc-group":"admin3","hc-key":"de-nw-05754000-05754036","hc-a2":"SH","name":"Schloß Holte-Stukenbrock","hc-middle-lon":8.653,"hc-middle-lat":51.891}},{"type":"Polygon","arcs":[[1136,1137,393,-391,-824,1138]],"id":"DE.NW.05958000.05958040","properties":{"hc-group":"admin3","hc-key":"de-nw-05958000-05958040","hc-a2":"SC","name":"Schmallenberg","hc-middle-lon":8.317,"hc-middle-lat":51.182}},{"type":"Polygon","arcs":[[-1137,1139,-530,-529,1140]],"id":"DE.NW.05958000.05958008","properties":{"hc-group":"admin3","hc-key":"de-nw-05958000-05958008","hc-a2":"BE","name":"Bestwig","hc-middle-lon":8.368,"hc-middle-lat":51.355}},{"type":"Polygon","arcs":[[67,1141,-1141,-528,-835]],"id":"DE.NW.05958000.05958036","properties":{"hc-group":"admin3","hc-key":"de-nw-05958000-05958036","hc-a2":"OL","name":"Olsberg","hc-middle-lon":8.496,"hc-middle-lat":51.308}},{"type":"Polygon","arcs":[[-201,-812,26]],"id":"DE.NW.05970000.05970016","properties":{"hc-group":"admin3","hc-key":"de-nw-05970000-05970016","hc-a2":"FR","name":"Freudenberg","hc-middle-lon":7.858,"hc-middle-lat":50.893}},{"type":"Polygon","arcs":[[-162,-663,-788,59]],"id":"DE.NW.05554000.05554020","properties":{"hc-group":"admin3","hc-key":"de-nw-05554000-05554020","hc-a2":"G(","name":"Gronau (Westf.)","hc-middle-lon":7.025,"hc-middle-lat":52.189}},{"type":"Polygon","arcs":[[-910,-633,-632,1142,-903]],"id":"DE.NW.05554000.05554064","properties":{"hc-group":"admin3","hc-key":"de-nw-05554000-05554064","hc-a2":"VE","name":"Velen","hc-middle-lon":6.965,"hc-middle-lat":51.902}},{"type":"Polygon","arcs":[[-172,11,-687,-694,-1083]],"id":"DE.NW.05762000.05762020","properties":{"hc-group":"admin3","hc-key":"de-nw-05762000-05762020","hc-a2":"HÖ","name":"Höxter","hc-middle-lon":9.355,"hc-middle-lat":51.792}},{"type":"Polygon","arcs":[[-653,106,1143,1144,-1063,-654]],"id":"DE.NW.05370000.05370016","properties":{"hc-group":"admin3","hc-key":"de-nw-05370000-05370016","hc-a2":"HE","name":"Heinsberg","hc-middle-lon":6.102,"hc-middle-lat":51.051}},{"type":"Polygon","arcs":[[-652,-656,104]],"id":"DE.NW.05370000.05370024","properties":{"hc-group":"admin3","hc-key":"de-nw-05370000-05370024","hc-a2":"SE","name":"Selfkant","hc-middle-lon":5.909,"hc-middle-lat":50.999}},{"type":"Polygon","arcs":[[-1145,1145,1146,291,-1064]],"id":"DE.NW.05370000.05370020","properties":{"hc-group":"admin3","hc-key":"de-nw-05370000-05370020","hc-a2":"HÜ","name":"Hückelhoven","hc-middle-lon":6.211,"hc-middle-lat":51.039}},{"type":"Polygon","arcs":[[74,-1058,-1061,219,1147]],"id":"DE.NW.05382000.05382032","properties":{"hc-group":"admin3","hc-key":"de-nw-05382000-05382032","hc-a2":"ME","name":"Meckenheim","hc-middle-lon":6.999,"hc-middle-lat":50.574}},{"type":"Polygon","arcs":[[-441,438,-258,-257,-256,-255,-259]],"id":"DE.NW.05513000.05513000","properties":{"hc-group":"admin3","hc-key":"de-nw-05513000-05513000","hc-a2":"GE","name":"Gelsenkirchen","hc-middle-lon":7.079,"hc-middle-lat":51.537}},{"type":"Polygon","arcs":[[440,-445,443,-260,445,446,439]],"id":"DE.NW.05911000.05911000","properties":{"hc-group":"admin3","hc-key":"de-nw-05911000-05911000","hc-a2":"BO","name":"Bochum","hc-middle-lon":7.229,"hc-middle-lat":51.468}},{"type":"Polygon","arcs":[[264,1148,1149,1150]],"id":"DE.NW.05570000.05570024","properties":{"hc-group":"admin3","hc-key":"de-nw-05570000-05570024","hc-a2":"EV","name":"Everswinkel","hc-middle-lon":7.841,"hc-middle-lat":51.922}},{"type":"Polygon","arcs":[[-265,-264,-263,-317,-316,-315,312,313,-266]],"id":"DE.NW.05515000.05515000","properties":{"hc-group":"admin3","hc-key":"de-nw-05515000-05515000","hc-a2":"MÜ","name":"Münster","hc-middle-lon":7.621,"hc-middle-lat":51.957}},{"type":"Polygon","arcs":[[316,449,490,-324,-938,-937]],"id":"DE.NW.05558000.05558004","properties":{"hc-group":"admin3","hc-key":"de-nw-05558000-05558004","hc-a2":"AS","name":"Ascheberg","hc-middle-lon":7.64,"hc-middle-lat":51.773}},{"type":"Polygon","arcs":[[-757,-1073,-189,-188,-187,-186,-1087,1151]],"id":"DE.NW.05770000.05770016","properties":{"hc-group":"admin3","hc-key":"de-nw-05770000-05770016","hc-a2":"HÜ","name":"Hüllhorst","hc-middle-lon":8.682,"hc-middle-lat":52.264}},{"type":"Polygon","arcs":[[-451,85,1152,1153,-453,-452]],"id":"DE.NW.05570000.05570032","properties":{"hc-group":"admin3","hc-key":"de-nw-05570000-05570032","hc-a2":"OS","name":"Ostbevern","hc-middle-lon":7.848,"hc-middle-lat":52.043}},{"type":"Polygon","arcs":[[272,-449,1154,1155,1156,1157]],"id":"DE.NW.05570000.05570004","properties":{"hc-group":"admin3","hc-key":"de-nw-05570000-05570004","hc-a2":"AH","name":"Ahlen","hc-middle-lon":7.885,"hc-middle-lat":51.768}},{"type":"Polygon","arcs":[[-845,1158,-1055,-346,1159]],"id":"DE.NW.05158000.05158036","properties":{"hc-group":"admin3","hc-key":"de-nw-05158000-05158036","hc-a2":"WÜ","name":"Wülfrath","hc-middle-lon":7.057,"hc-middle-lat":51.281}},{"type":"Polygon","arcs":[[-1159,-844,434,-1056]],"id":"DE.NW.05158000.05158012","properties":{"hc-group":"admin3","hc-key":"de-nw-05158000-05158012","hc-a2":"HE","name":"Heiligenhaus","hc-middle-lon":7.003,"hc-middle-lat":51.332}},{"type":"Polygon","arcs":[[454,455,456,457,458,-491,447,448,-269,-268,-267]],"id":"DE.NW.05915000.05915000","properties":{"hc-group":"admin3","hc-key":"de-nw-05915000-05915000","hc-a2":"HA","name":"Hamm","hc-middle-lon":7.814,"hc-middle-lat":51.658}},{"type":"Polygon","arcs":[[-859,-863,1160,1161,-1022]],"id":"DE.NW.05154000.05154004","properties":{"hc-group":"admin3","hc-key":"de-nw-05154000-05154004","hc-a2":"BH","name":"Bedburg-Hau","hc-middle-lon":6.185,"hc-middle-lat":51.766}},{"type":"Polygon","arcs":[[233,-753,-1113,1162,82,-431]],"id":"DE.NW.05754000.05754052","properties":{"hc-group":"admin3","hc-key":"de-nw-05754000-05754052","hc-a2":"W(","name":"Werther (Westf.)","hc-middle-lon":8.403,"hc-middle-lat":52.105}},{"type":"Polygon","arcs":[[1163,-1038,-813,419,420,-1060]],"id":"DE.NW.05366000.05366016","properties":{"hc-group":"admin3","hc-key":"de-nw-05366000-05366016","hc-a2":"EU","name":"Euskirchen","hc-middle-lon":6.808,"hc-middle-lat":50.651}},{"type":"Polygon","arcs":[[-1164,-1059,-717,1164,-865,372,-1039]],"id":"DE.NW.05366000.05366028","properties":{"hc-group":"admin3","hc-key":"de-nw-05366000-05366028","hc-a2":"ME","name":"Mechernich","hc-middle-lon":6.64,"hc-middle-lat":50.595}},{"type":"Polygon","arcs":[[1165,-850,-1135,92,1166]],"id":"DE.NW.05566000.05566092","properties":{"hc-group":"admin3","hc-key":"de-nw-05566000-05566092","hc-a2":"WE","name":"Westerkappeln","hc-middle-lon":7.892,"hc-middle-lat":52.377}},{"type":"Polygon","arcs":[[-1166,1167,94,-1028,-1042,1168,-851]],"id":"DE.NW.05566000.05566088","properties":{"hc-group":"admin3","hc-key":"de-nw-05566000-05566088","hc-a2":"TE","name":"Tecklenburg","hc-middle-lon":7.803,"hc-middle-lat":52.222}},{"type":"Polygon","arcs":[[-1168,-1167,93]],"id":"DE.NW.05566000.05566048","properties":{"hc-group":"admin3","hc-key":"de-nw-05566000-05566048","hc-a2":"LO","name":"Lotte","hc-middle-lon":7.934,"hc-middle-lat":52.278}},{"type":"Polygon","arcs":[[-971,-942,1169,-996,-999]],"id":"DE.NW.05358000.05358028","properties":{"hc-group":"admin3","hc-key":"de-nw-05358000-05358028","hc-a2":"KR","name":"Kreuzau","hc-middle-lon":6.483,"hc-middle-lat":50.742}},{"type":"Polygon","arcs":[[-1170,-941,-948,-366,-365,-997]],"id":"DE.NW.05358000.05358052","properties":{"hc-group":"admin3","hc-key":"de-nw-05358000-05358052","hc-a2":"NÖ","name":"Nörvenich","hc-middle-lon":6.649,"hc-middle-lat":50.802}},{"type":"Polygon","arcs":[[-1169,-1041,-598,-597,-560,-852]],"id":"DE.NW.05566000.05566080","properties":{"hc-group":"admin3","hc-key":"de-nw-05566000-05566080","hc-a2":"SA","name":"Saerbeck","hc-middle-lon":7.644,"hc-middle-lat":52.178}},{"type":"Polygon","arcs":[[-689,-688,28,1170,1171]],"id":"DE.NW.05762000.05762012","properties":{"hc-group":"admin3","hc-key":"de-nw-05762000-05762012","hc-a2":"BO","name":"Borgentreich","hc-middle-lon":9.259,"hc-middle-lat":51.58}},{"type":"Polygon","arcs":[[-276,-275,-274,-503,-505,-504,168]],"id":"DE.NW.05316000.05316000","properties":{"hc-group":"admin3","hc-key":"de-nw-05316000-05316000","hc-a2":"LE","name":"Leverkusen","hc-middle-lon":7.01,"hc-middle-lat":51.053}},{"type":"Polygon","arcs":[[273,-650,-961,-963,1172,404]],"id":"DE.NW.05378000.05378004","properties":{"hc-group":"admin3","hc-key":"de-nw-05378000-05378004","hc-a2":"BG","name":"Bergisch Gladbach","hc-middle-lon":7.168,"hc-middle-lat":50.974}},{"type":"Polygon","arcs":[[107,-567,1173,-1146,-1144]],"id":"DE.NW.05370000.05370036","properties":{"hc-group":"admin3","hc-key":"de-nw-05370000-05370036","hc-a2":"WA","name":"Wassenberg","hc-middle-lon":6.134,"hc-middle-lat":51.131}},{"type":"Polygon","arcs":[[-1174,-566,229,-356,289,290,-1147]],"id":"DE.NW.05370000.05370004","properties":{"hc-group":"admin3","hc-key":"de-nw-05370000-05370004","hc-a2":"ER","name":"Erkelenz","hc-middle-lon":6.362,"hc-middle-lat":51.056}},{"type":"Polygon","arcs":[[-370,-980,-978,-1066,-290,166,-371]],"id":"DE.NW.05358000.05358056","properties":{"hc-group":"admin3","hc-key":"de-nw-05358000-05358056","hc-a2":"TI","name":"Titz","hc-middle-lon":6.404,"hc-middle-lat":51.007}},{"type":"Polygon","arcs":[[-278,-277,-281,-280,-279,-462,-466,-465,-464,-463]],"id":"DE.NW.05111000.05111000","properties":{"hc-group":"admin3","hc-key":"de-nw-05111000-05111000","hc-a2":"DÜ","name":"Düsseldorf","hc-middle-lon":6.788,"hc-middle-lat":51.233}},{"type":"Polygon","arcs":[[-1068,-968,284,-970,-672,-671]],"id":"DE.NW.05162000.05162008","properties":{"hc-group":"admin3","hc-key":"de-nw-05162000-05162008","hc-a2":"GR","name":"Grevenbroich","hc-middle-lon":6.621,"hc-middle-lat":51.106}},{"type":"Polygon","arcs":[[1174,-1102,146,269,270]],"id":"DE.NW.05570000.05570048","properties":{"hc-group":"admin3","hc-key":"de-nw-05570000-05570048","hc-a2":"WA","name":"Wadersloh","hc-middle-lon":8.215,"hc-middle-lat":51.737}},{"type":"Polygon","arcs":[[-1175,271,-1158,1175,-1103]],"id":"DE.NW.05570000.05570008","properties":{"hc-group":"admin3","hc-key":"de-nw-05570000-05570008","hc-a2":"BE","name":"Beckum","hc-middle-lon":8.052,"hc-middle-lat":51.766}},{"type":"Polygon","arcs":[[-1160,-345,-929,-932,464,-846]],"id":"DE.NW.05158000.05158024","properties":{"hc-group":"admin3","hc-key":"de-nw-05158000-05158024","hc-a2":"ME","name":"Mettmann","hc-middle-lon":6.975,"hc-middle-lat":51.259}},{"type":"Polygon","arcs":[[-888,-1125,397,-880,-884]],"id":"DE.NW.05962000.05962020","properties":{"hc-group":"admin3","hc-key":"de-nw-05962000-05962020","hc-a2":"HE","name":"Herscheid","hc-middle-lon":7.751,"hc-middle-lat":51.185}},{"type":"Polygon","arcs":[[-583,-1094,468,1176,1177,-584]],"id":"DE.NW.05562000.05562032","properties":{"hc-group":"admin3","hc-key":"de-nw-05562000-05562032","hc-a2":"RE","name":"Recklinghausen","hc-middle-lon":7.219,"hc-middle-lat":51.611}},{"type":"Polygon","arcs":[[-1111,-1108,-143,80,1178]],"id":"DE.NW.05754000.05754048","properties":{"hc-group":"admin3","hc-key":"de-nw-05754000-05754048","hc-a2":"VE","name":"Versmold","hc-middle-lon":8.164,"hc-middle-lat":52.042}},{"type":"Polygon","arcs":[[-494,-904,-1143,-631]],"id":"DE.NW.05554000.05554028","properties":{"hc-group":"admin3","hc-key":"de-nw-05554000-05554028","hc-a2":"HE","name":"Heiden","hc-middle-lon":6.974,"hc-middle-lat":51.821}},{"type":"Polygon","arcs":[[1179,1180,-1106,144,147,-1105]],"id":"DE.NW.05570000.05570012","properties":{"hc-group":"admin3","hc-key":"de-nw-05570000-05570012","hc-a2":"BE","name":"Beelen","hc-middle-lon":8.095,"hc-middle-lat":51.931}},{"type":"Polygon","arcs":[[-1180,-1104,-1176,-1157,1181,1182]],"id":"DE.NW.05570000.05570020","properties":{"hc-group":"admin3","hc-key":"de-nw-05570000-05570020","hc-a2":"EN","name":"Ennigerloh","hc-middle-lon":8.02,"hc-middle-lat":51.851}},{"type":"Polygon","arcs":[[121,-192,-1072,-1071,39]],"id":"DE.NW.05770000.05770032","properties":{"hc-group":"admin3","hc-key":"de-nw-05770000-05770032","hc-a2":"PW","name":"Porta Westfalica","hc-middle-lon":8.953,"hc-middle-lat":52.223}},{"type":"Polygon","arcs":[[-1182,-1156,1183,263,-1151,1184]],"id":"DE.NW.05570000.05570040","properties":{"hc-group":"admin3","hc-key":"de-nw-05570000-05570040","hc-a2":"SE","name":"Sendenhorst","hc-middle-lon":7.787,"hc-middle-lat":51.853}},{"type":"Polygon","arcs":[[-1019,-1127,533,-912,-1014]],"id":"DE.NW.05974000.05974012","properties":{"hc-group":"admin3","hc-key":"de-nw-05974000-05974012","hc-a2":"EN","name":"Ense","hc-middle-lon":7.962,"hc-middle-lat":51.498}},{"type":"Polygon","arcs":[[400,401,98,-1037,-1122,-1120,-1116,-556,-698]],"id":"DE.NW.05374000.05374040","properties":{"hc-group":"admin3","hc-key":"de-nw-05374000-05374040","hc-a2":"RE","name":"Reichshof","hc-middle-lon":7.693,"hc-middle-lat":50.96}},{"type":"Polygon","arcs":[[183,-177,-176,-1084,-738]],"id":"DE.NW.05762000.05762032","properties":{"hc-group":"admin3","hc-key":"de-nw-05762000-05762032","hc-a2":"ST","name":"Steinheim","hc-middle-lon":9.075,"hc-middle-lat":51.859}},{"type":"Polygon","arcs":[[-184,-183,-744,-750,1185,509]],"id":"DE.NW.05774000.05774004","properties":{"hc-group":"admin3","hc-key":"de-nw-05774000-05774004","hc-a2":"AL","name":"Altenbeken","hc-middle-lon":8.943,"hc-middle-lat":51.74}},{"type":"Polygon","arcs":[[-770,-854,151,-779]],"id":"DE.NW.05954000.05954024","properties":{"hc-group":"admin3","hc-key":"de-nw-05954000-05954024","hc-a2":"SC","name":"Schwelm","hc-middle-lon":7.288,"hc-middle-lat":51.283}},{"type":"Polygon","arcs":[[-841,412,-953,-957,-1030,-1034,1186]],"id":"DE.NW.05170000.05170032","properties":{"hc-group":"admin3","hc-key":"de-nw-05170000-05170032","hc-a2":"RH","name":"Rheinberg","hc-middle-lon":6.633,"hc-middle-lat":51.543}},{"type":"Polygon","arcs":[[-590,-553,-552,-352,-351,-965]],"id":"DE.NW.05374000.05374020","properties":{"hc-group":"admin3","hc-key":"de-nw-05374000-05374020","hc-a2":"LI","name":"Lindlar","hc-middle-lon":7.387,"hc-middle-lat":51.033}},{"type":"Polygon","arcs":[[-1123,-679,-318,162,-984,-1091]],"id":"DE.NW.05558000.05558012","properties":{"hc-group":"admin3","hc-key":"de-nw-05558000-05558012","hc-a2":"CO","name":"Coesfeld","hc-middle-lon":7.152,"hc-middle-lat":51.923}},{"type":"Polygon","arcs":[[-876,507,508,-1186,-749]],"id":"DE.NW.05774000.05774008","properties":{"hc-group":"admin3","hc-key":"de-nw-05774000-05774008","hc-a2":"BL","name":"Bad Lippspringe","hc-middle-lon":8.818,"hc-middle-lat":51.792}},{"type":"Polygon","arcs":[[429,-307,-855,427,428]],"id":"DE.NW.05954000.05954004","properties":{"hc-group":"admin3","hc-key":"de-nw-05954000-05954004","hc-a2":"BR","name":"Breckerfeld","hc-middle-lon":7.482,"hc-middle-lat":51.257}},{"type":"Polygon","arcs":[[-1185,-1150,1187,-1153,86,-1107,-1181,-1183]],"id":"DE.NW.05570000.05570052","properties":{"hc-group":"admin3","hc-key":"de-nw-05570000-05570052","hc-a2":"WA","name":"Warendorf","hc-middle-lon":7.964,"hc-middle-lat":51.939}},{"type":"Polygon","arcs":[[-148,-1110,-617,-1101,-149]],"id":"DE.NW.05754000.05754020","properties":{"hc-group":"admin3","hc-key":"de-nw-05754000-05754020","hc-a2":"HC","name":"Herzebrock-Clarholz","hc-middle-lon":8.231,"hc-middle-lat":51.903}},{"type":"Polygon","arcs":[[-543,-1131,-899,-709]],"id":"DE.NW.05334000.05334036","properties":{"hc-group":"admin3","hc-key":"de-nw-05334000-05334036","hc-a2":"WÜ","name":"Würselen","hc-middle-lon":6.117,"hc-middle-lat":50.83}},{"type":"Polygon","arcs":[[-454,-1154,-1188,-1149,265]],"id":"DE.NW.05570000.05570044","properties":{"hc-group":"admin3","hc-key":"de-nw-05570000-05570044","hc-a2":"TE","name":"Telgte","hc-middle-lon":7.779,"hc-middle-lat":51.981}},{"type":"Polygon","arcs":[[-1115,257,472,469]],"id":"DE.NW.05562000.05562014","properties":{"hc-group":"admin3","hc-key":"de-nw-05562000-05562014","hc-a2":"GL","name":"Gladbeck","hc-middle-lon":6.991,"hc-middle-lat":51.574}},{"type":"Polygon","arcs":[[211,278,-669,1188,-417,410]],"id":"DE.NW.05162000.05162022","properties":{"hc-group":"admin3","hc-key":"de-nw-05162000-05162022","hc-a2":"ME","name":"Meerbusch","hc-middle-lon":6.679,"hc-middle-lat":51.282}},{"type":"Polygon","arcs":[[-923,-1095,322,323,-459,1189]],"id":"DE.NW.05978000.05978040","properties":{"hc-group":"admin3","hc-key":"de-nw-05978000-05978040","hc-a2":"WE","name":"Werne","hc-middle-lon":7.622,"hc-middle-lat":51.68}},{"type":"Polygon","arcs":[[255,-1114,-677,-585,-1178,1190]],"id":"DE.NW.05562000.05562024","properties":{"hc-group":"admin3","hc-key":"de-nw-05562000-05562024","hc-a2":"MA","name":"Marl","hc-middle-lon":7.111,"hc-middle-lat":51.669}},{"type":"Polygon","arcs":[[-469,-468,444,258,-443]],"id":"DE.NW.05916000.05916000","properties":{"hc-group":"admin3","hc-key":"de-nw-05916000-05916000","hc-a2":"HE","name":"Herne","hc-middle-lon":7.21,"hc-middle-lat":51.539}},{"type":"Polygon","arcs":[[442,254,-1191,-1177]],"id":"DE.NW.05562000.05562020","properties":{"hc-group":"admin3","hc-key":"de-nw-05562000-05562020","hc-a2":"HE","name":"Herten","hc-middle-lon":7.157,"hc-middle-lat":51.593}},{"type":"Polygon","arcs":[[-309,-951,-1076,-1119,-1046,425,-311,-310]],"id":"DE.NW.05962000.05962024","properties":{"hc-group":"admin3","hc-key":"de-nw-05962000-05962024","hc-a2":"IS","name":"Iserlohn","hc-middle-lon":7.677,"hc-middle-lat":51.412}},{"type":"MultiPolygon","arcs":[[[-1024,-1161,-862,-864,49,1191]],[[1022,1161]]],"id":"DE.NW.05154000.05154036","properties":{"hc-group":"admin3","hc-key":"de-nw-05154000-05154036","hc-a2":"KL","name":"Kleve","hc-middle-lon":6.107,"hc-middle-lat":51.836}},{"type":"MultiPolygon","arcs":[[[109,71]],[[391,1192]],[[70,394,1193,1194]]],"id":"DE.NW.05958000.05958020","properties":{"hc-group":"admin3","hc-key":"de-nw-05958000-05958020","hc-a2":"HA","name":"Hallenberg","hc-middle-lon":8.617,"hc-middle-lat":51.123}},{"type":"Polygon","arcs":[[71,-1193,392,-1138,-1142,68,1195,-1194]],"id":"DE.NW.05958000.05958048","properties":{"hc-group":"admin3","hc-key":"de-nw-05958000-05958048","hc-a2":"WI","name":"Winterberg","hc-middle-lon":8.512,"hc-middle-lat":51.22}},{"type":"Polygon","arcs":[[81,-1163,-1112,-1179]],"id":"DE.NW.05754000.05754004","properties":{"hc-group":"admin3","hc-key":"de-nw-05754000-05754004","hc-a2":"BO","name":"Borgholzhausen","hc-middle-lon":8.265,"hc-middle-lat":52.113}},{"type":"Polygon","arcs":[[37,-1070,-754]],"id":"DE.NW.05770000.05770028","properties":{"hc-group":"admin3","hc-key":"de-nw-05770000-05770028","hc-a2":"PE","name":"Petershagen","hc-middle-lon":9.031,"hc-middle-lat":52.408}},{"type":"Polygon","arcs":[[63,-819,-801,-828]],"id":"DE.NW.05970000.05970028","properties":{"hc-group":"admin3","hc-key":"de-nw-05970000-05970028","hc-a2":"BL","name":"Bad Laasphe","hc-middle-lon":8.346,"hc-middle-lat":50.92}},{"type":"Polygon","arcs":[[23,-1000,-793]],"id":"DE.NW.05970000.05970008","properties":{"hc-group":"admin3","hc-key":"de-nw-05970000-05970008","hc-a2":"BU","name":"Burbach","hc-middle-lon":8.09,"hc-middle-lat":50.737}},{"type":"Polygon","arcs":[[14,-647,1196,1197]],"id":"DE.NW.05766000.05766012","properties":{"hc-group":"admin3","hc-key":"de-nw-05766000-05766012","hc-a2":"BA","name":"Barntrup","hc-middle-lon":9.169,"hc-middle-lat":52.004}},{"type":"Polygon","arcs":[[65,-834,381,382,-211]],"id":"DE.NW.05958000.05958024","properties":{"hc-group":"admin3","hc-key":"de-nw-05958000-05958024","hc-a2":"MA","name":"Marsberg","hc-middle-lon":8.854,"hc-middle-lat":51.439}},{"type":"Polygon","arcs":[[29,210,179,1198,-1171]],"id":"DE.NW.05762000.05762036","properties":{"hc-group":"admin3","hc-key":"de-nw-05762000-05762036","hc-a2":"WA","name":"Warburg","hc-middle-lon":9.142,"hc-middle-lat":51.493}},{"type":"Polygon","arcs":[[50,-967,-1025,-1192]],"id":"DE.NW.05154000.05154008","properties":{"hc-group":"admin3","hc-key":"de-nw-05154000-05154008","hc-a2":"EA","name":"Emmerich am Rhein","hc-middle-lon":6.287,"hc-middle-lat":51.862}},{"type":"Polygon","arcs":[[78,-1067,-719]],"id":"DE.NW.05366000.05366008","properties":{"hc-group":"admin3","hc-key":"de-nw-05366000-05366008","hc-a2":"BL","name":"Blankenheim","hc-middle-lon":6.686,"hc-middle-lat":50.403}},{"type":"Polygon","arcs":[[53,-908,-498,-1052]],"id":"DE.NW.05554000.05554008","properties":{"hc-group":"admin3","hc-key":"de-nw-05554000-05554008","hc-a2":"BO","name":"Bocholt","hc-middle-lon":6.596,"hc-middle-lat":51.841}},{"type":"Polygon","arcs":[[73,-1148,220]],"id":"DE.NW.05382000.05382072","properties":{"hc-group":"admin3","hc-key":"de-nw-05382000-05382072","hc-a2":"WA","name":"Wachtberg","hc-middle-lon":7.164,"hc-middle-lat":50.623}},{"type":"Polygon","arcs":[[18,1199,-891,-1088]],"id":"DE.NW.05770000.05770044","properties":{"hc-group":"admin3","hc-key":"de-nw-05770000-05770044","hc-a2":"ST","name":"Stemwede","hc-middle-lon":8.442,"hc-middle-lat":52.402}},{"type":"Polygon","arcs":[[-789,-703,-1099,8]],"id":"DE.NW.05566000.05566096","properties":{"hc-group":"admin3","hc-key":"de-nw-05566000-05566096","hc-a2":"WE","name":"Wettringen","hc-middle-lon":7.243,"hc-middle-lat":52.258}},{"type":"Polygon","arcs":[[13,-1198,1200,-563]],"id":"DE.NW.05766000.05766028","properties":{"hc-group":"admin3","hc-key":"de-nw-05766000-05766028","hc-a2":"EX","name":"Extertal","hc-middle-lon":9.105,"hc-middle-lat":52.095}},{"type":"Polygon","arcs":[[69,-1195,-1196]],"id":"DE.NW.05958000.05958028","properties":{"hc-group":"admin3","hc-key":"de-nw-05958000-05958028","hc-a2":"ME","name":"Medebach","hc-middle-lon":8.676,"hc-middle-lat":51.2}},{"type":"Polygon","arcs":[[-531,-1140,-1139,-823,-1132,-836]],"id":"DE.NW.05958000.05958032","properties":{"hc-group":"admin3","hc-key":"de-nw-05958000-05958032","hc-a2":"ME","name":"Meschede","hc-middle-lon":8.259,"hc-middle-lat":51.35}},{"type":"Polygon","arcs":[[41,-578,-1044,-1045]],"id":"DE.NW.05166000.05166004","properties":{"hc-group":"admin3","hc-key":"de-nw-05166000-05166004","hc-a2":"BR","name":"Brüggen","hc-middle-lon":6.149,"hc-middle-lat":51.268}},{"type":"Polygon","arcs":[[19,-892,-1200]],"id":"DE.NW.05770000.05770040","properties":{"hc-group":"admin3","hc-key":"de-nw-05770000-05770040","hc-a2":"RA","name":"Rahden","hc-middle-lon":8.65,"hc-middle-lat":52.462}},{"type":"Polygon","arcs":[[203,-731,-990,-919,-868]],"id":"DE.NW.05362000.05362028","properties":{"hc-group":"admin3","hc-key":"de-nw-05362000-05362028","hc-a2":"HÜ","name":"Hürth","hc-middle-lon":6.853,"hc-middle-lat":50.872}},{"type":"Polygon","arcs":[[-705,-593,-601,-1124]],"id":"DE.NW.05566000.05566064","properties":{"hc-group":"admin3","hc-key":"de-nw-05566000-05566064","hc-a2":"NO","name":"Nordwalde","hc-middle-lon":7.491,"hc-middle-lat":52.099}},{"type":"Polygon","arcs":[[-716,-715,-866,-1165]],"id":"DE.NW.05366000.05366024","properties":{"hc-group":"admin3","hc-key":"de-nw-05366000-05366024","hc-a2":"KA","name":"Kall","hc-middle-lon":6.558,"hc-middle-lat":50.516}},{"type":"Polygon","arcs":[[-827,-1136,-396,-520,-519]],"id":"DE.NW.05966000.05966012","properties":{"hc-group":"admin3","hc-key":"de-nw-05966000-05966012","hc-a2":"FI","name":"Finnentrop","hc-middle-lon":8.005,"hc-middle-lat":51.207}},{"type":"Polygon","arcs":[[-668,-674,-359,-1189]],"id":"DE.NW.05162000.05162016","properties":{"hc-group":"admin3","hc-key":"de-nw-05162000-05162016","hc-a2":"KA","name":"Kaarst","hc-middle-lon":6.623,"hc-middle-lat":51.218}},{"type":"Polygon","arcs":[[-889,-758,-1152,-1086]],"id":"DE.NW.05770000.05770020","properties":{"hc-group":"admin3","hc-key":"de-nw-05770000-05770020","hc-a2":"LÜ","name":"Lübbecke","hc-middle-lon":8.6,"hc-middle-lat":52.31}},{"type":"Polygon","arcs":[[-1033,-1134,-842,-1187]],"id":"DE.NW.05170000.05170044","properties":{"hc-group":"admin3","hc-key":"de-nw-05170000-05170044","hc-a2":"V(","name":"Voerde (Niederrhein)","hc-middle-lon":6.654,"hc-middle-lat":51.6}},{"type":"Polygon","arcs":[[-831,-840,-1129,-1096]],"id":"DE.NW.05974000.05974004","properties":{"hc-group":"admin3","hc-key":"de-nw-05974000-05974004","hc-a2":"AN","name":"Anröchte","hc-middle-lon":8.308,"hc-middle-lat":51.548}},{"type":"Polygon","arcs":[[-1130,-1015,-1012,267]],"id":"DE.NW.05974000.05974048","properties":{"hc-group":"admin3","hc-key":"de-nw-05974000-05974048","hc-a2":"WE","name":"Welver","hc-middle-lon":7.998,"hc-middle-lat":51.617}},{"type":"Polygon","arcs":[[-438,409,441,253,-282]],"id":"DE.NW.05119000.05119000","properties":{"hc-group":"admin3","hc-key":"de-nw-05119000-05119000","hc-a2":"OB","name":"Oberhausen","hc-middle-lon":6.836,"hc-middle-lat":51.514}},{"type":"Polygon","arcs":[[225,-915,310,-423]],"id":"DE.NW.05978000.05978028","properties":{"hc-group":"admin3","hc-key":"de-nw-05978000-05978028","hc-a2":"SC","name":"Schwerte","hc-middle-lon":7.575,"hc-middle-lat":51.435}},{"type":"Polygon","arcs":[[-628,-446,260,-765,-768,-778]],"id":"DE.NW.05954000.05954036","properties":{"hc-group":"admin3","hc-key":"de-nw-05954000-05954036","hc-a2":"WI","name":"Witten","hc-middle-lon":7.324,"hc-middle-lat":51.427}},{"type":"Polygon","arcs":[[-1201,-1197,-646,-763,-564]],"id":"DE.NW.05766000.05766024","properties":{"hc-group":"admin3","hc-key":"de-nw-05766000-05766024","hc-a2":"DÖ","name":"Dörentrup","hc-middle-lon":9.032,"hc-middle-lat":52.034}},{"type":"Polygon","arcs":[[-1155,-448,-450,262,-1184]],"id":"DE.NW.05570000.05570016","properties":{"hc-group":"admin3","hc-key":"de-nw-05570000-05570016","hc-a2":"DR","name":"Drensteinfurt","hc-middle-lon":7.766,"hc-middle-lat":51.772}},{"type":"Polygon","arcs":[[-596,-790,10,-562]],"id":"DE.NW.05566000.05566076","properties":{"hc-group":"admin3","hc-key":"de-nw-05566000-05566076","hc-a2":"RH","name":"Rheine","hc-middle-lon":7.467,"hc-middle-lat":52.267}},{"type":"Polygon","arcs":[[-821,-196,-803,-818]],"id":"DE.NW.05970000.05970020","properties":{"hc-group":"admin3","hc-key":"de-nw-05970000-05970020","hc-a2":"HI","name":"Hilchenbach","hc-middle-lon":8.146,"hc-middle-lat":50.984}},{"type":"Polygon","arcs":[[-458,-925,-924,-1190]],"id":"DE.NW.05978000.05978004","properties":{"hc-group":"admin3","hc-key":"de-nw-05978000-05978004","hc-a2":"BE","name":"Bergkamen","hc-middle-lon":7.627,"hc-middle-lat":51.62}},{"type":"Polygon","arcs":[[-1173,-962,476,477,403]],"id":"DE.NW.05378000.05378028","properties":{"hc-group":"admin3","hc-key":"de-nw-05378000-05378028","hc-a2":"RÖ","name":"Rösrath","hc-middle-lon":7.188,"hc-middle-lat":50.91}},{"type":"Polygon","arcs":[[-740,-690,-1172,-1199,180]],"id":"DE.NW.05762000.05762040","properties":{"hc-group":"admin3","hc-key":"de-nw-05762000-05762040","hc-a2":"WI","name":"Willebadessen","hc-middle-lon":9.093,"hc-middle-lat":51.599}},{"type":"MultiLineString","arcs":[[0],[1,2,3],[4],[5],[6],[-7],[7,8,9,10],[11],[12,13,14,15,16],[17,18,19,20],[21],[22,23,24,25,26],[27,28,29],[30],[31,32,33,34],[35],[35],[35],[36,37,38,39],[40,41,42],[43,44],[45,46,47,48,49,50,51],[52,53,54,55,56,57,58,59],[60],[61],[62,63,64],[65,66,67,68,69,70],[71],[60],[72],[73,74,75],[76,77,78,79],[80,81,82],[83,84],[85,86,87],[88,89,90,91,92,93,94,95,96],[97],[98,99],[100,101],[102,103,104,105,106,107],[108],[-109],[109],[61],[110,111,112],[110,111,112],[113,114,115],[113,114,115],[116],[116],[117,118,119,120],[117,118,119,120],[121],[121],[122,123],[122,123],[124,125,126,127],[124,125,126,127],[128,129],[128,129],[130,131,132,133,134],[130,131,132,133,134],[135],[135],[136,137,138],[136,137,138],[139,140,141],[139,140,141],[142,143,144],[142,143,144],[145,146],[145,146],[147,148,149],[147,148,149],[150,151,152],[150,151,152],[153],[153],[154,155],[154,155],[156],[156],[157,158,159,160,161],[157,158,159,160,161],[162,163,164,165],[162,163,164,165],[166],[166],[167],[167],[168],[168],[169,170],[169,170],[171,172,173,174,175,176],[171,172,173,174,175,176],[177,178],[177,178],[179,180,181],[179,180,181],[182,183],[182,183],[184,185,186,187,188,189,190,191],[184,185,186,187,188,189,190,191],[192,193,194,195,196,197,198,199,200],[192,193,194,195,196,197,198,199,200],[201,202,203,204,205],[201,202,203,204,205],[206],[206],[207,208,209],[207,208,209],[210],[210],[211],[211],[212],[212],[213,214,215,216,217,218,219,220],[213,214,215,216,217,218,219,220],[221,222,223],[221,222,223],[224],[224],[225,226,227],[225,226,227],[228,229],[228,229],[230,231,232],[230,231,232],[233,234,235,236,237],[233,234,235,236,237],[238,239,240],[238,239,240],[241,242,243],[241,242,243],[244],[244],[245,246,247],[245,246,247],[248],[248],[249],[249],[250,251],[250,251],[252],[252],[253],[253],[254,255,256,257],[254,255,256,257],[258],[258],[259],[259],[260,261],[260,261],[262,263,264],[262,263,264],[265],[265],[266,267,268],[266,267,268],[269,270,271,272],[269,270,271,272],[273,274,275],[273,274,275],[276,277],[276,277],[278,279,280],[278,279,280],[281],[281],[282],[282],[283,284,285],[283,284,285],[286,287,288],[286,287,288],[289,290,291,292],[289,290,291,292],[293],[293],[35],[35],[35],[35],[35],[35],[294,295,296,297,298,299,300,301],[294,295,296,297,298,299,300,301],[302,303,304],[302,303,304],[305,306],[305,306],[307,308,309,310],[307,308,309,310],[311],[311],[312,313],[312,313],[314,315,316],[314,315,316],[317,318],[317,318],[319,320,321,322,323],[319,320,321,322,323],[324,325],[324,325],[326,327],[326,327],[328],[328],[329,330,331,332,333,334,335,336,337,338,339,340,341],[329,330,331,332,333,334,335,336,337,338,339,340,341],[342],[342],[343,344,345,346],[343,344,345,346],[347,348,349,350,351,352],[347,348,349,350,351,352],[353],[353],[354],[354],[355],[355],[356,357],[356,357],[358,359],[358,359],[360,361,362],[360,361,362],[363,364,365,366,367,368,369,370],[363,364,365,366,367,368,369,370],[371,372,373,374,375],[371,372,373,374,375],[376,377,378],[376,377,378],[379,380,381,382],[379,380,381,382],[383,384,385,386,387],[383,384,385,386,387],[388,389],[388,389],[390],[390],[391,392,393],[391,392,393],[394],[394],[395,396,397,398,399],[395,396,397,398,399],[400,401],[400,401],[402],[402],[403,404],[403,404],[405,406],[405,406],[407],[407],[408],[408],[409],[409],[410],[410],[411],[411],[412,413],[412,413],[414],[414],[415],[415],[416],[416],[417,418,419,420,421],[417,418,419,420,421],[422],[422],[423,424,425],[423,424,425],[426,427],[426,427],[428,429],[428,429],[430],[430],[431],[431],[432],[432],[433,434,435],[433,434,435],[436],[436],[437],[437],[438],[438],[439],[439],[440],[440],[441],[441],[442],[442],[443],[443],[444],[444],[445,446],[445,446],[447,448],[447,448],[449],[449],[450,451,452,453],[450,451,452,453],[454,455,456,457,458],[454,455,456,457,458],[459,460],[459,460],[461],[461],[462,463,464,465],[462,463,464,465],[466],[466],[467,468],[467,468],[469,470],[469,470],[471],[471],[472],[472],[473,474,475,476,477],[473,474,475,476,477],[478,479,480,481,482,483],[478,479,480,481,482,483],[484,485,486],[484,485,486],[487,488],[487,488],[489],[489],[490],[490],[491,492,493,494,495],[491,492,493,494,495],[496,497,498,499,500],[496,497,498,499,500],[501],[501],[502],[502],[503,504],[503,504],[505],[505],[506,507,508,509],[506,507,508,509],[510,511,512],[510,511,512],[513,514,515,516],[513,514,515,516],[517,518,519],[517,518,519],[61],[61],[520],[520],[521,522,523,524,525],[521,522,523,524,525],[526,527,528,529,530,531,532,533,534],[526,527,528,529,530,531,532,533,534]],"properties":{"hc-group":"__border_lines__"}}],"hc-recommended-transform":{"default":{"crs":"+proj=utm +zone=32 +datum=WGS84 +units=m +no_defs","scale":0.00278573286686,"jsonres":15.5,"jsonmarginX":-999,"jsonmarginY":9851,"xoffset":280371.059111,"yoffset":5820206.261}}}},