{"type":"Topology","objects":{"default":{"type":"GeometryCollection","geometries":[{"type":"Polygon","arcs":[[0]],"id":"DE.NI.03452000.03452501","properties":{"hc-group":"admin3","hc-key":"de-ni-03452000-03452501","hc-a2":"NM","name":"Nordseeinsel Memmert","hc-middle-lon":6.885,"hc-middle-lat":53.643}},{"type":"Polygon","arcs":[[4]],"id":"DE.NI.03457000.03457501","properties":{"hc-group":"admin3","hc-key":"de-ni-03457000-03457501","hc-a2":"IL","name":"Insel Lütje Hörn","hc-middle-lon":6.866,"hc-middle-lat":53.591}},{"type":"Polygon","arcs":[[925,926,927,928,929]],"id":"DE.NI.03458000.03458003","properties":{"hc-group":"admin3","hc-key":"de-ni-03458000-03458003","hc-a2":"DÖ","name":"Dötlingen","hc-middle-lon":8.426,"hc-middle-lat":52.962}},{"type":"Polygon","arcs":[[-926,930,931,651,932,933]],"id":"DE.NI.03458000.03458009","properties":{"hc-group":"admin3","hc-key":"de-ni-03458000-03458009","hc-a2":"HA","name":"Hatten","hc-middle-lon":8.317,"hc-middle-lat":53.042}},{"type":"Polygon","arcs":[[934,935,936,937,938,939]],"id":"DE.NI.03453000.03453009","properties":{"hc-group":"admin3","hc-key":"de-ni-03453000-03453009","hc-a2":"LA","name":"Lastrup","hc-middle-lon":7.898,"hc-middle-lat":52.793}},{"type":"Polygon","arcs":[[-935,940,-466,-252,-257,-256,941],[-7]],"id":"DE.NI.03453000.03453011","properties":{"hc-group":"admin3","hc-key":"de-ni-03453000-03453011","hc-a2":"LÖ","name":"Löningen","hc-middle-lon":7.739,"hc-middle-lat":52.714}},{"type":"MultiPolygon","arcs":[[[6]],[[942,943,-512,465,466,944,945,946,947]]],"id":"DE.NI.03459000.03459025","properties":{"hc-group":"admin3","hc-key":"de-ni-03459000-03459025","hc-a2":"ME","name":"Menslage","hc-middle-lon":7.813,"hc-middle-lat":52.667}},{"type":"MultiPolygon","arcs":[[[948]],[[329,949,950,951,952,953,954,955]],[[956,957,958,959]]],"id":"DE.NI.03353000.03353041","properties":{"hc-group":"admin3","hc-key":"de-ni-03353000-03353041","hc-a2":"WI","name":"Wistedt","hc-middle-lon":9.693,"hc-middle-lat":53.272}},{"type":"MultiPolygon","arcs":[[[960]],[[961,962]],[[963,393,79,964,965]]],"id":"DE.NI.03153000.03153013","properties":{"hc-group":"admin3","hc-key":"de-ni-03153000-03153013","hc-a2":"VI","name":"Vienenburg","hc-middle-lon":10.61,"hc-middle-lat":51.969}},{"type":"MultiPolygon","arcs":[[[966]],[[967,968,-928,969,-242,970,971]]],"id":"DE.NI.03458000.03458012","properties":{"hc-group":"admin3","hc-key":"de-ni-03458000-03458012","hc-a2":"PR","name":"Prinzhöfte","hc-middle-lon":8.568,"hc-middle-lat":52.953}},{"type":"MultiPolygon","arcs":[[[972]],[[973]],[[974]],[[975]],[[976]],[[977]],[[978]],[[979,980,-273,-272,-271,981]],[[-274,-284,982,-275]],[[983,984]],[[985,985,985]]],"id":"DE.NI.03155000.03155003","properties":{"hc-group":"admin3","hc-key":"de-ni-03155000-03155003","hc-a2":"DA","name":"Dassel","hc-middle-lon":9.722,"hc-middle-lat":51.81}},{"type":"MultiPolygon","arcs":[[[82,986]],[[987]],[[988]],[[989]],[[990]],[[991]],[[84,992,993,994,995]],[[398,996]],[[997,401]],[[998]],[[999]],[[1000]]],"id":"DE.NI.03153000.03153016","properties":{"hc-group":"admin3","hc-key":"de-ni-03153000-03153016","hc-a2":"BR","name":"Braunlage","hc-middle-lon":10.61,"hc-middle-lat":51.738}},{"type":"MultiPolygon","arcs":[[[1001]],[[-300,-299,-298,1002,1003,1004]]],"id":"DE.NI.03251000.03251002","properties":{"hc-group":"admin3","hc-key":"de-ni-03251000-03251002","hc-a2":"AS","name":"Asendorf","hc-middle-lon":8.98,"hc-middle-lat":52.771}},{"type":"MultiPolygon","arcs":[[[1005]],[[1006,1007,1008,1009,1010,1011,-737,1012]]],"id":"DE.NI.03355000.03355037","properties":{"hc-group":"admin3","hc-key":"de-ni-03355000-03355037","hc-a2":"TO","name":"Tosterglope","hc-middle-lon":10.869,"hc-middle-lat":53.208}},{"type":"Polygon","arcs":[[1013,1014,1015,1016,1017,747,1018,1019,1020,105]],"id":"DE.NI.03459000.03459014","properties":{"hc-group":"admin3","hc-key":"de-ni-03459000-03459014","hc-a2":"BR","name":"Bramsche","hc-middle-lon":7.992,"hc-middle-lat":52.414}},{"type":"Polygon","arcs":[[-1014,106,1021,1022]],"id":"DE.NI.03459000.03459027","properties":{"hc-group":"admin3","hc-key":"de-ni-03459000-03459027","hc-a2":"NE","name":"Neuenkirchen","hc-middle-lon":7.782,"hc-middle-lat":52.383}},{"type":"Polygon","arcs":[[140,1023,1024]],"id":"DE.NI.03154000.03154020","properties":{"hc-group":"admin3","hc-key":"de-ni-03154000-03154020","hc-a2":"SÖ","name":"Söllingen","hc-middle-lon":10.949,"hc-middle-lat":52.082}},{"type":"MultiPolygon","arcs":[[[1025]],[[1026,1027,1028,1029,1030,1031,1032,1033,1034,1035]],[[1036,1036,1036]],[[-335,1037,1038,1039,1040,1041,1042,1043,1044,1045]]],"id":"DE.NI.03357000.03357044","properties":{"hc-group":"admin3","hc-key":"de-ni-03357000-03357044","hc-a2":"SI","name":"Sittensen","hc-middle-lon":9.506,"hc-middle-lat":53.272}},{"type":"MultiPolygon","arcs":[[[1046]],[[1047,1048,1049,1050,1051,1052,1053,1054,207,1055,1056,1057,1058]]],"id":"DE.NI.03255000.03255002","properties":{"hc-group":"admin3","hc-key":"de-ni-03255000-03255002","hc-a2":"BE","name":"Bevern","hc-middle-lon":9.471,"hc-middle-lat":51.86}},{"type":"MultiPolygon","arcs":[[[9]],[[-337,-759,-758,-757,753,754,755,762,763,764,-339,-338]],[[10]]],"id":"DE.NI.04011000.04011000","properties":{"hc-group":"admin3","hc-key":"de-ni-04011000-04011000","hc-a2":"BR","name":"Bremen","hc-middle-lon":8.793,"hc-middle-lat":53.093}},{"type":"MultiPolygon","arcs":[[[1059]],[[1060,1061,912,913,1062,1063,1064]]],"id":"DE.NI.03254000.03254029","properties":{"hc-group":"admin3","hc-key":"de-ni-03254000-03254029","hc-a2":"SC","name":"Schellerten","hc-middle-lon":10.083,"hc-middle-lat":52.194}},{"type":"MultiPolygon","arcs":[[[1065]],[[1066,1067,204]]],"id":"DE.NI.03255000.03255004","properties":{"hc-group":"admin3","hc-key":"de-ni-03255000-03255004","hc-a2":"BO","name":"Boffzen","hc-middle-lon":9.402,"hc-middle-lat":51.751}},{"type":"MultiPolygon","arcs":[[[7]],[[1068,-691,-690,-689,-688,1069]]],"id":"DE.NI.03353000.03353037","properties":{"hc-group":"admin3","hc-key":"de-ni-03353000-03353037","hc-a2":"VI","name":"Vierhöfen","hc-middle-lon":10.224,"hc-middle-lat":53.268}},{"type":"Polygon","arcs":[[1070,1071,1072,361,-459,444,445,446]],"id":"DE.NI.03151000.03151017","properties":{"hc-group":"admin3","hc-key":"de-ni-03151000-03151017","hc-a2":"ME","name":"Meinersen","hc-middle-lon":10.317,"hc-middle-lat":52.482}},{"type":"Polygon","arcs":[[-1071,447,448,449,450,1073,1074,1075]],"id":"DE.NI.03151000.03151018","properties":{"hc-group":"admin3","hc-key":"de-ni-03151000-03151018","hc-a2":"M(","name":"Müden (Aller)","hc-middle-lon":10.383,"hc-middle-lat":52.511}},{"type":"Polygon","arcs":[[1076,268,1077,1078]],"id":"DE.NI.03255000.03255508","properties":{"hc-group":"admin3","hc-key":"de-ni-03255000-03255508","hc-a2":"WE","name":"Wenzen","hc-middle-lon":9.832,"hc-middle-lat":51.902}},{"type":"Polygon","arcs":[[-1077,1079,-532,1080,-529,-528,267],[1081]],"id":"DE.NI.03255000.03255008","properties":{"hc-group":"admin3","hc-key":"de-ni-03255000-03255008","hc-a2":"DE","name":"Delligsen","hc-middle-lon":9.766,"hc-middle-lat":51.944}},{"type":"MultiPolygon","arcs":[[[-1082]],[[1082,-534,-533,-1080,-1079,1083]],[[-531,-530,-1081]]],"id":"DE.NI.03255000.03255504","properties":{"hc-group":"admin3","hc-key":"de-ni-03255000-03255504","hc-a2":"GR","name":"Grünenplan","hc-middle-lon":9.733,"hc-middle-lat":51.947}},{"type":"Polygon","arcs":[[197,1084,1085,1086,1087]],"id":"DE.NI.03459000.03459005","properties":{"hc-group":"admin3","hc-key":"de-ni-03459000-03459005","hc-a2":"BL","name":"Bad Laer","hc-middle-lon":8.1,"hc-middle-lat":52.073}},{"type":"MultiPolygon","arcs":[[[1088]],[[1089,1090,1091,1092,280,1093]],[[276,277,1094]]],"id":"DE.NI.03255000.03255009","properties":{"hc-group":"admin3","hc-key":"de-ni-03255000-03255009","hc-a2":"DE","name":"Derental","hc-middle-lon":9.417,"hc-middle-lat":51.694}},{"type":"MultiPolygon","arcs":[[[1095]],[[1096,1097,1098,1099]],[[1100,1101]]],"id":"DE.NI.03456000.03456018","properties":{"hc-group":"admin3","hc-key":"de-ni-03456000-03456018","hc-a2":"QU","name":"Quendorf","hc-middle-lon":7.193,"hc-middle-lat":52.342}},{"type":"MultiPolygon","arcs":[[[1102]],[[1103,-350,1104,1105]]],"id":"DE.NI.03456000.03456005","properties":{"hc-group":"admin3","hc-key":"de-ni-03456000-03456005","hc-a2":"GE","name":"Georgsdorf","hc-middle-lon":7.067,"hc-middle-lat":52.577}},{"type":"Polygon","arcs":[[217,1106,1107,1108,1109]],"id":"DE.NI.03352000.03352046","properties":{"hc-group":"admin3","hc-key":"de-ni-03352000-03352046","hc-a2":"OT","name":"Otterndorf","hc-middle-lon":8.896,"hc-middle-lat":53.81}},{"type":"MultiPolygon","arcs":[[[1110]],[[1111,1112]]],"id":"DE.NI.03151000.03151026","properties":{"hc-group":"admin3","hc-key":"de-ni-03151000-03151026","hc-a2":"SC","name":"Schönewörde","hc-middle-lon":10.638,"hc-middle-lat":52.622}},{"type":"Polygon","arcs":[[-358,-650,-653,-652,-651,-361,-360,-359]],"id":"DE.NI.03403000.03403000","properties":{"hc-group":"admin3","hc-key":"de-ni-03403000-03403000","hc-a2":"O(","name":"Oldenburg (Oldb)","hc-middle-lon":8.225,"hc-middle-lat":53.145}},{"type":"Polygon","arcs":[[357,1113,844,837,838,839]],"id":"DE.NI.03451000.03451005","properties":{"hc-group":"admin3","hc-key":"de-ni-03451000-03451005","hc-a2":"RA","name":"Rastede","hc-middle-lon":8.191,"hc-middle-lat":53.284}},{"type":"Polygon","arcs":[[46,1114,1115,1116,1117,1118,1119]],"id":"DE.NI.03456000.03456015","properties":{"hc-group":"admin3","hc-key":"de-ni-03456000-03456015","hc-a2":"NO","name":"Nordhorn","hc-middle-lon":7.097,"hc-middle-lat":52.446}},{"type":"MultiPolygon","arcs":[[[1120]],[[1121,1122,1123,-660,1124,1125,1126]]],"id":"DE.NI.03157000.03157006","properties":{"hc-group":"admin3","hc-key":"de-ni-03157000-03157006","hc-a2":"PE","name":"Peine","hc-middle-lon":10.23,"hc-middle-lat":52.321}},{"type":"Polygon","arcs":[[231,896,-845,-844,1127]],"id":"DE.NI.03455000.03455026","properties":{"hc-group":"admin3","hc-key":"de-ni-03455000-03455026","hc-a2":"VA","name":"Varel","hc-middle-lon":8.121,"hc-middle-lat":53.386}},{"type":"Polygon","arcs":[[1128,1129,1130,1131,1132]],"id":"DE.NI.03454000.03454036","properties":{"hc-group":"admin3","hc-key":"de-ni-03454000-03454036","hc-a2":"ME","name":"Messingen","hc-middle-lon":7.459,"hc-middle-lat":52.47}},{"type":"Polygon","arcs":[[-1129,1133,1134]],"id":"DE.NI.03454000.03454053","properties":{"hc-group":"admin3","hc-key":"de-ni-03454000-03454053","hc-a2":"TH","name":"Thuine","hc-middle-lon":7.492,"hc-middle-lat":52.496}},{"type":"Polygon","arcs":[[1135,503,1136,1137]],"id":"DE.NI.03462000.03462006","properties":{"hc-group":"admin3","hc-key":"de-ni-03462000-03462006","hc-a2":"HO","name":"Holtgast","hc-middle-lon":7.583,"hc-middle-lat":53.636}},{"type":"Polygon","arcs":[[-1136,1138,1139,1140,-663]],"id":"DE.NI.03462000.03462012","properties":{"hc-group":"admin3","hc-key":"de-ni-03462000-03462012","hc-a2":"OC","name":"Ochtersum","hc-middle-lon":7.522,"hc-middle-lat":53.613}},{"type":"MultiPolygon","arcs":[[[1141]],[[1142]],[[-372,-371,1143,1144,-879]]],"id":"DE.NI.03358000.03358017","properties":{"hc-group":"admin3","hc-key":"de-ni-03358000-03358017","hc-a2":"NE","name":"Neuenkirchen","hc-middle-lon":9.707,"hc-middle-lat":53.038}},{"type":"MultiPolygon","arcs":[[[1145]],[[1146,1147,1148,1149,1150,1151,1152,1153]]],"id":"DE.NI.03254000.03254015","properties":{"hc-group":"admin3","hc-key":"de-ni-03254000-03254015","hc-a2":"EV","name":"Everode","hc-middle-lon":9.901,"hc-middle-lat":51.952}},{"type":"MultiPolygon","arcs":[[[1154]],[[1155,1156,1157]]],"id":"DE.NI.03353000.03353017","properties":{"hc-group":"admin3","hc-key":"de-ni-03353000-03353017","hc-a2":"HA","name":"Harmstorf","hc-middle-lon":9.981,"hc-middle-lat":53.345}},{"type":"Polygon","arcs":[[-842,1158,95,-1128,-843]],"id":"DE.NI.03455000.03455025","properties":{"hc-group":"admin3","hc-key":"de-ni-03455000-03455025","hc-a2":"BO","name":"Bockhorn","hc-middle-lon":8.027,"hc-middle-lat":53.334}},{"type":"Polygon","arcs":[[841,1159,1160,1161,1162,-846,840]],"id":"DE.NI.03451000.03451007","properties":{"hc-group":"admin3","hc-key":"de-ni-03451000-03451007","hc-a2":"WE","name":"Westerstede","hc-middle-lon":7.904,"hc-middle-lat":53.266}},{"type":"Polygon","arcs":[[156,1163,1164,1165,1166,1167,1168,1169,1170]],"id":"DE.NI.03359000.03359038","properties":{"hc-group":"admin3","hc-key":"de-ni-03359000-03359038","hc-a2":"ST","name":"Stade","hc-middle-lon":9.517,"hc-middle-lat":53.63}},{"type":"Polygon","arcs":[[1171,1172,1173,1174,1175,-261,1176]],"id":"DE.NI.03459000.03459012","properties":{"hc-group":"admin3","hc-key":"de-ni-03459000-03459012","hc-a2":"BI","name":"Bissendorf","hc-middle-lon":8.215,"hc-middle-lat":52.26}},{"type":"Polygon","arcs":[[-1172,1177,-1019,748,1178,1179]],"id":"DE.NI.03459000.03459029","properties":{"hc-group":"admin3","hc-key":"de-ni-03459000-03459029","hc-a2":"OS","name":"Ostercappeln","hc-middle-lon":8.206,"hc-middle-lat":52.377}},{"type":"Polygon","arcs":[[-1178,-1177,-260,1180,-1020]],"id":"DE.NI.03459000.03459008","properties":{"hc-group":"admin3","hc-key":"de-ni-03459000-03459008","hc-a2":"BE","name":"Belm","hc-middle-lon":8.191,"hc-middle-lat":52.314}},{"type":"MultiPolygon","arcs":[[[1181]],[[1182,1183,1184,1185,1186,1187]]],"id":"DE.NI.03360000.03360006","properties":{"hc-group":"admin3","hc-key":"de-ni-03360000-03360006","hc-a2":"EB","name":"Ebstorf","hc-middle-lon":10.45,"hc-middle-lat":53.029}},{"type":"MultiPolygon","arcs":[[[1188]],[[1189,1190,1191,1192,-1170,1193]]],"id":"DE.NI.03359000.03359022","properties":{"hc-group":"admin3","hc-key":"de-ni-03359000-03359022","hc-a2":"HA","name":"Hammah","hc-middle-lon":9.369,"hc-middle-lat":53.623}},{"type":"MultiPolygon","arcs":[[[1194]],[[1195]],[[1196]],[[1197]]],"id":"DE.NI.03153000.03153001","properties":{"hc-group":"admin3","hc-key":"de-ni-03153000-03153001","hc-a2":"AL","name":"Altenau","hc-middle-lon":10.448,"hc-middle-lat":51.8}},{"type":"MultiPolygon","arcs":[[[1198]],[[1199]],[[-962,1200,-965,80,1201,1202],[-961]]],"id":"DE.NI.03153000.03153002","properties":{"hc-group":"admin3","hc-key":"de-ni-03153000-03153002","hc-a2":"BH","name":"Bad Harzburg","hc-middle-lon":10.636,"hc-middle-lat":51.881}},{"type":"MultiPolygon","arcs":[[[1203]],[[1204]],[[1205]]],"id":"DE.NI.03153000.03153011","properties":{"hc-group":"admin3","hc-key":"de-ni-03153000-03153011","hc-a2":"SI","name":"Schulenberg im Oberharz","hc-middle-lon":10.433,"hc-middle-lat":51.834}},{"type":"Polygon","arcs":[[1206]],"id":"DE.NI.03153000.03153015","properties":{"hc-group":"admin3","hc-key":"de-ni-03153000-03153015","hc-a2":"WI","name":"Wildemann","hc-middle-lon":10.285,"hc-middle-lat":51.826}},{"type":"MultiPolygon","arcs":[[[1207]],[[1208,1209,71,1210]]],"id":"DE.NI.03158000.03158020","properties":{"hc-group":"admin3","hc-key":"de-ni-03158000-03158020","hc-a2":"HO","name":"Hornburg","hc-middle-lon":10.62,"hc-middle-lat":52.015}},{"type":"MultiPolygon","arcs":[[[1211]],[[1212,1213,1214,1215]]],"id":"DE.NI.03158000.03158018","properties":{"hc-group":"admin3","hc-key":"de-ni-03158000-03158018","hc-a2":"HE","name":"Heere","hc-middle-lon":10.235,"hc-middle-lat":52.056}},{"type":"MultiPolygon","arcs":[[[1216]],[[1217]],[[1218,1219,1220,1221]]],"id":"DE.NI.03255000.03255007","properties":{"hc-group":"admin3","hc-key":"de-ni-03255000-03255007","hc-a2":"DE","name":"Deensen","hc-middle-lon":9.594,"hc-middle-lat":51.853}},{"type":"MultiPolygon","arcs":[[[1222]],[[1223]],[[1224]],[[116,538,539,540,541,542,1225,1226,1227,1228,1229],[-18]]],"id":"DE.NI.03156000.03156009","properties":{"hc-group":"admin3","hc-key":"de-ni-03156000-03156009","hc-a2":"HA","name":"Herzberg am Harz","hc-middle-lon":10.348,"hc-middle-lat":51.64}},{"type":"MultiPolygon","arcs":[[[1230]],[[1231,1232,1233,76,1234,1235]]],"id":"DE.NI.03156000.03156012","properties":{"hc-group":"admin3","hc-key":"de-ni-03156000-03156012","hc-a2":"WA","name":"Walkenried","hc-middle-lon":10.659,"hc-middle-lat":51.577}},{"type":"Polygon","arcs":[[1236,1237,1238,1239,1240,1241,1242,1243,1244]],"id":"DE.NI.03352000.03352008","properties":{"hc-group":"admin3","hc-key":"de-ni-03352000-03352008","hc-a2":"BÜ","name":"Bülkau","hc-middle-lon":8.991,"hc-middle-lat":53.758}},{"type":"Polygon","arcs":[[-1237,1245,1246,-1108,1247]],"id":"DE.NI.03352000.03352045","properties":{"hc-group":"admin3","hc-key":"de-ni-03352000-03352045","hc-a2":"OS","name":"Osterbruch","hc-middle-lon":8.946,"hc-middle-lat":53.774}},{"type":"Polygon","arcs":[[1248,1249,1250,1251,1252,1253]],"id":"DE.NI.03454000.03454035","properties":{"hc-group":"admin3","hc-key":"de-ni-03454000-03454035","hc-a2":"ME","name":"Meppen","hc-middle-lon":7.262,"hc-middle-lat":52.695}},{"type":"Polygon","arcs":[[-1249,1254,348,349,350,351,166,1255]],"id":"DE.NI.03454000.03454054","properties":{"hc-group":"admin3","hc-key":"de-ni-03454000-03454054","hc-a2":"TW","name":"Twist","hc-middle-lon":7.071,"hc-middle-lat":52.677}},{"type":"MultiPolygon","arcs":[[[1256]],[[-1083,1257,1258,1259,-535]]],"id":"DE.NI.03255000.03255503","properties":{"hc-group":"admin3","hc-key":"de-ni-03255000-03255503","hc-a2":"ES","name":"Eschershausen","hc-middle-lon":9.685,"hc-middle-lat":51.945}},{"type":"MultiPolygon","arcs":[[[1260]],[[1261,1262,1263,1264,1265]]],"id":"DE.NI.03252000.03252006","properties":{"hc-group":"admin3","hc-key":"de-ni-03252000-03252006","hc-a2":"HA","name":"Hameln","hc-middle-lon":9.371,"hc-middle-lat":52.106}},{"type":"MultiPolygon","arcs":[[[1266]],[[-1262,1267,-832,1268,797,1269]]],"id":"DE.NI.03252000.03252004","properties":{"hc-group":"admin3","hc-key":"de-ni-03252000-03252004","hc-a2":"CO","name":"Coppenbrügge","hc-middle-lon":9.522,"hc-middle-lat":52.107}},{"type":"MultiPolygon","arcs":[[[1270]],[[1271,1272,1273,1274,1275,1276,1277,1278,1279,1280,1281]]],"id":"DE.NI.03357000.03357039","properties":{"hc-group":"admin3","hc-key":"de-ni-03357000-03357039","hc-a2":"R(","name":"Rotenburg (Wümme)","hc-middle-lon":9.377,"hc-middle-lat":53.099}},{"type":"MultiPolygon","arcs":[[[1282]],[[778,1283,1284]]],"id":"DE.NI.03251000.03251022","properties":{"hc-group":"admin3","hc-key":"de-ni-03251000-03251022","hc-a2":"LE","name":"Lembruch","hc-middle-lon":8.375,"hc-middle-lat":52.532}},{"type":"Polygon","arcs":[[-1256,167,1285,1286,1287,1288,1289,-1250]],"id":"DE.NI.03454000.03454018","properties":{"hc-group":"admin3","hc-key":"de-ni-03454000-03454018","hc-a2":"H(","name":"Haren (Ems)","hc-middle-lon":7.172,"hc-middle-lat":52.796}},{"type":"MultiPolygon","arcs":[[[1290]],[[1291,1292,1293,1294,1295]]],"id":"DE.NI.03254000.03254019","properties":{"hc-group":"admin3","hc-key":"de-ni-03254000-03254019","hc-a2":"HA","name":"Harbarnsen","hc-middle-lon":9.947,"hc-middle-lat":51.985}},{"type":"MultiPolygon","arcs":[[[184,1296,1297,1298,1299,1300,1301,1302,1303]],[[1304]],[[1305,1306]]],"id":"DE.NI.03151000.03151021","properties":{"hc-group":"admin3","hc-key":"de-ni-03151000-03151021","hc-a2":"PA","name":"Parsau","hc-middle-lon":10.97,"hc-middle-lat":52.5}},{"type":"Polygon","arcs":[[1307,-891,-916,1308]],"id":"DE.NI.03157000.03157005","properties":{"hc-group":"admin3","hc-key":"de-ni-03157000-03157005","hc-a2":"LE","name":"Lengede","hc-middle-lon":10.335,"hc-middle-lat":52.186}},{"type":"Polygon","arcs":[[-1308,1309,-1127,1310,-752,-892]],"id":"DE.NI.03157000.03157007","properties":{"hc-group":"admin3","hc-key":"de-ni-03157000-03157007","hc-a2":"VE","name":"Vechelde","hc-middle-lon":10.363,"hc-middle-lat":52.25}},{"type":"MultiPolygon","arcs":[[[1311]],[[1312,1313,1314,1315,733,1316]],[[-419,1317]]],"id":"DE.NI.03354000.03354006","properties":{"hc-group":"admin3","hc-key":"de-ni-03354000-03354006","hc-a2":"GÖ","name":"Göhrde","hc-middle-lon":10.967,"hc-middle-lat":53.112}},{"type":"Polygon","arcs":[[29,1318,1319,1320,1321,1322],[1323]],"id":"DE.NI.03256000.03256032","properties":{"hc-group":"admin3","hc-key":"de-ni-03256000-03256032","hc-a2":"ST","name":"Stolzenau","hc-middle-lon":9.021,"hc-middle-lat":52.484}},{"type":"MultiPolygon","arcs":[[[1324]],[[1325,1326,-1301,1327,-328,1328]]],"id":"DE.NI.03151000.03151031","properties":{"hc-group":"admin3","hc-key":"de-ni-03151000-03151031","hc-a2":"TI","name":"Tiddische","hc-middle-lon":10.811,"hc-middle-lat":52.512}},{"type":"MultiPolygon","arcs":[[[1329]],[[1330]],[[186,320,321,-329,-1328,-1300,1331,-1298,1332,-1306,1333],[-1325]]],"id":"DE.NI.03151000.03151024","properties":{"hc-group":"admin3","hc-key":"de-ni-03151000-03151024","hc-a2":"RÜ","name":"Rühen","hc-middle-lon":10.884,"hc-middle-lat":52.491}},{"type":"MultiPolygon","arcs":[[[1334]],[[1335]],[[1336,1337,1338,1339,1340,1341,1342,1343,1344,41,1345]]],"id":"DE.NI.03154000.03154010","properties":{"hc-group":"admin3","hc-key":"de-ni-03154000-03154010","hc-a2":"HE","name":"Helmstedt","hc-middle-lon":10.996,"hc-middle-lat":52.217}},{"type":"MultiPolygon","arcs":[[[17]],[[1346,1347,1348,-540]],[[-542,1349]]],"id":"DE.NI.03152000.03152019","properties":{"hc-group":"admin3","hc-key":"de-ni-03152000-03152019","hc-a2":"RH","name":"Rhumspringe","hc-middle-lon":10.294,"hc-middle-lat":51.587}},{"type":"MultiPolygon","arcs":[[[1350]],[[132,1351,1352,1353]]],"id":"DE.NI.03354000.03354020","properties":{"hc-group":"admin3","hc-key":"de-ni-03354000-03354020","hc-a2":"PR","name":"Prezelle","hc-middle-lon":11.428,"hc-middle-lat":52.954}},{"type":"MultiPolygon","arcs":[[[1354]],[[-267,-266,1355,1356,407,1357,-415,-414]]],"id":"DE.NI.03153000.03153012","properties":{"hc-group":"admin3","hc-key":"de-ni-03153000-03153012","hc-a2":"SE","name":"Seesen","hc-middle-lon":10.146,"hc-middle-lat":51.912}},{"type":"MultiPolygon","arcs":[[[1358]],[[397,-997,399,400,-998,402,1359,404,405,406,-1357,1360,1361,1362,-1202,81,-987,83,-996,1363,396],[-1195],[-1196],[-1197],[-1199],[-1200],[-1198],[-1204],[-1205],[-1206],[-1207],[-988],[-989],[-990],[-991],[-992],[-1355],[-999,1364],[-1000]],[[73,73,73]],[[408,409,-416,-1358]],[[410,411,412,1365,-993,85]]],"id":"DE.NI.03153000.03153504","properties":{"hc-group":"admin3","hc-key":"de-ni-03153000-03153504","hc-a2":"H(","name":"Harz (Landkreis Goslar)","hc-middle-lon":10.276,"hc-middle-lat":51.867}},{"type":"MultiPolygon","arcs":[[[1366]],[[1367,1368,1369,1370,1371,1372,1373,1374,-1375]],[[1375,1376,1377]]],"id":"DE.NI.03254000.03254018","properties":{"hc-group":"admin3","hc-key":"de-ni-03254000-03254018","hc-a2":"G(","name":"Gronau (Leine)","hc-middle-lon":9.773,"hc-middle-lat":52.084}},{"type":"MultiPolygon","arcs":[[[-1324]],[[1378,1379,1380,1381,-1321,1382,290,291,292,293,1383,1384,1385,1386]]],"id":"DE.NI.03256000.03256030","properties":{"hc-group":"admin3","hc-key":"de-ni-03256000-03256030","hc-a2":"ST","name":"Steyerberg","hc-middle-lon":9.01,"hc-middle-lat":52.575}},{"type":"Polygon","arcs":[[-316,-322,1387,1388]],"id":"DE.NI.03154000.03154004","properties":{"hc-group":"admin3","hc-key":"de-ni-03154000-03154004","hc-a2":"DA","name":"Danndorf","hc-middle-lon":10.91,"hc-middle-lat":52.437}},{"type":"Polygon","arcs":[[315,316,317,318,319,322,323,324,325,326,327,328]],"id":"DE.NI.03103000.03103000","properties":{"hc-group":"admin3","hc-key":"de-ni-03103000-03103000","hc-a2":"WO","name":"Wolfsburg","hc-middle-lon":10.782,"hc-middle-lat":52.415}},{"type":"MultiPolygon","arcs":[[[1389]],[[1390,1391,-567,-566,-565,-564,-563,1392]]],"id":"DE.NI.03154000.03154503","properties":{"hc-group":"admin3","hc-key":"de-ni-03154000-03154503","hc-a2":"KÖ","name":"Königslutter","hc-middle-lon":10.796,"hc-middle-lat":52.225}},{"type":"MultiPolygon","arcs":[[[1393]],[[-561,-560,1394,-319,1395,1396,1397,1398,1399,-1393,-562],[-1390]],[[-1392,1400]]],"id":"DE.NI.03154000.03154013","properties":{"hc-group":"admin3","hc-key":"de-ni-03154000-03154013","hc-a2":"KA","name":"Königslutter am Elm","hc-middle-lon":10.805,"hc-middle-lat":52.278}},{"type":"MultiPolygon","arcs":[[[1401]],[[1402]],[[128,1403,130,1404,1405,1406,1407,1408]]],"id":"DE.NI.03354000.03354005","properties":{"hc-group":"admin3","hc-key":"de-ni-03354000-03354005","hc-a2":"GA","name":"Gartow","hc-middle-lon":11.478,"hc-middle-lat":53.018}},{"type":"Polygon","arcs":[[-503,236,237,238,239,1409,1410,1411]],"id":"DE.NI.03452000.03452006","properties":{"hc-group":"admin3","hc-key":"de-ni-03452000-03452006","hc-a2":"GR","name":"Großefehn","hc-middle-lon":7.594,"hc-middle-lat":53.393}},{"type":"Polygon","arcs":[[502,677,661,660,845,846,1412,1413,1414,1415,1416]],"id":"DE.NI.03457000.03457020","properties":{"hc-group":"admin3","hc-key":"de-ni-03457000-03457020","hc-a2":"UP","name":"Uplengen","hc-middle-lon":7.776,"hc-middle-lat":53.33}},{"type":"Polygon","arcs":[[1417,1418,1419,1420,1421,1422]],"id":"DE.NI.03452000.03452010","properties":{"hc-group":"admin3","hc-key":"de-ni-03452000-03452010","hc-a2":"HA","name":"Halbemond","hc-middle-lon":7.287,"hc-middle-lat":53.57}},{"type":"Polygon","arcs":[[-1418,1423,1424,1425]],"id":"DE.NI.03452000.03452016","properties":{"hc-group":"admin3","hc-key":"de-ni-03452000-03452016","hc-a2":"LÜ","name":"Lütetsburg","hc-middle-lon":7.25,"hc-middle-lat":53.6}},{"type":"Polygon","arcs":[[1426,1427,1428,1429,1430]],"id":"DE.NI.03257000.03257013","properties":{"hc-group":"admin3","hc-key":"de-ni-03257000-03257013","hc-a2":"HE","name":"Helpsen","hc-middle-lon":9.132,"hc-middle-lat":52.304}},{"type":"Polygon","arcs":[[-1427,1431,1432,1433,1434,1435,1436,1437,1438,1439,1440,1441,1442]],"id":"DE.NI.03257000.03257035","properties":{"hc-group":"admin3","hc-key":"de-ni-03257000-03257035","hc-a2":"ST","name":"Stadthagen","hc-middle-lon":9.187,"hc-middle-lat":52.295}},{"type":"Polygon","arcs":[[-1433,1443,1444,87,1445,1446]],"id":"DE.NI.03257000.03257023","properties":{"hc-group":"admin3","hc-key":"de-ni-03257000-03257023","hc-a2":"ME","name":"Meerbeck","hc-middle-lon":9.092,"hc-middle-lat":52.363}},{"type":"Polygon","arcs":[[-1434,1447,1448,1449]],"id":"DE.NI.03257000.03257027","properties":{"hc-group":"admin3","hc-key":"de-ni-03257000-03257027","hc-a2":"NO","name":"Nordsehl","hc-middle-lon":9.174,"hc-middle-lat":52.358}},{"type":"Polygon","arcs":[[-1448,-1447,1450,1451]],"id":"DE.NI.03257000.03257025","properties":{"hc-group":"admin3","hc-key":"de-ni-03257000-03257025","hc-a2":"NI","name":"Niedernwöhren","hc-middle-lon":9.149,"hc-middle-lat":52.363}},{"type":"Polygon","arcs":[[1452,1453,1454,1455]],"id":"DE.NI.03454000.03454006","properties":{"hc-group":"admin3","hc-key":"de-ni-03454000-03454006","hc-a2":"BR","name":"Breddenberg","hc-middle-lon":7.59,"hc-middle-lat":52.957}},{"type":"Polygon","arcs":[[-1453,1456,1457,245,246,1458,1459]],"id":"DE.NI.03454000.03454011","properties":{"hc-group":"admin3","hc-key":"de-ni-03454000-03454011","hc-a2":"ES","name":"Esterwegen","hc-middle-lon":7.629,"hc-middle-lat":53.003}},{"type":"Polygon","arcs":[[-1072,-1076,1460,1461,1462,1463]],"id":"DE.NI.03151000.03151015","properties":{"hc-group":"admin3","hc-key":"de-ni-03151000-03151015","hc-a2":"LE","name":"Leiferde","hc-middle-lon":10.417,"hc-middle-lat":52.434}},{"type":"Polygon","arcs":[[586,587,1464,-1125,-659,443,-362]],"id":"DE.NI.03157000.03157001","properties":{"hc-group":"admin3","hc-key":"de-ni-03157000-03157001","hc-a2":"ED","name":"Edemissen","hc-middle-lon":10.291,"hc-middle-lat":52.4}},{"type":"Polygon","arcs":[[-587,-1073,-1464,1465,1466]],"id":"DE.NI.03151000.03151012","properties":{"hc-group":"admin3","hc-key":"de-ni-03151000-03151012","hc-a2":"HI","name":"Hillerse","hc-middle-lon":10.41,"hc-middle-lat":52.402}},{"type":"Polygon","arcs":[[25,1467,1468,1469,1470,1471,1472]],"id":"DE.NI.03152000.03152021","properties":{"hc-group":"admin3","hc-key":"de-ni-03152000-03152021","hc-a2":"RO","name":"Rosdorf","hc-middle-lon":9.865,"hc-middle-lat":51.483}},{"type":"Polygon","arcs":[[1473,1474,1475,1476,658,659,916,1477,1478,1479,1480,1481]],"id":"DE.NI.03241000.03241011","properties":{"hc-group":"admin3","hc-key":"de-ni-03241000-03241011","hc-a2":"LE","name":"Lehrte","hc-middle-lon":10.02,"hc-middle-lat":52.38}},{"type":"Polygon","arcs":[[-1474,1482,-1481,1483,1484,1485,1486,1487,1488,1489]],"id":"DE.NI.03241000.03241008","properties":{"hc-group":"admin3","hc-key":"de-ni-03241000-03241008","hc-a2":"IS","name":"Isernhagen","hc-middle-lon":9.85,"hc-middle-lat":52.454}},{"type":"Polygon","arcs":[[-1469,1490,1491,1492,1493,1494]],"id":"DE.NI.03152000.03152023","properties":{"hc-group":"admin3","hc-key":"de-ni-03152000-03152023","hc-a2":"SC","name":"Scheden","hc-middle-lon":9.751,"hc-middle-lat":51.438}},{"type":"Polygon","arcs":[[-1487,1495,1496,1497,871,872,873,848,1498]],"id":"DE.NI.03241000.03241019","properties":{"hc-group":"admin3","hc-key":"de-ni-03241000-03241019","hc-a2":"WE","name":"Wedemark","hc-middle-lon":9.701,"hc-middle-lat":52.562}},{"type":"Polygon","arcs":[[-1492,1499,1500]],"id":"DE.NI.03152000.03152005","properties":{"hc-group":"admin3","hc-key":"de-ni-03152000-03152005","hc-a2":"BÜ","name":"Bühren","hc-middle-lon":9.673,"hc-middle-lat":51.486}},{"type":"Polygon","arcs":[[1501,1502,1503,1504,-1050,1505]],"id":"DE.NI.03255000.03255030","properties":{"hc-group":"admin3","hc-key":"de-ni-03255000-03255030","hc-a2":"NE","name":"Negenborn","hc-middle-lon":9.612,"hc-middle-lat":51.908}},{"type":"Polygon","arcs":[[-1502,1506,1507,1508]],"id":"DE.NI.03255000.03255021","properties":{"hc-group":"admin3","hc-key":"de-ni-03255000-03255021","hc-a2":"HO","name":"Holenberg","hc-middle-lon":9.579,"hc-middle-lat":51.909}},{"type":"Polygon","arcs":[[-1459,247,1509]],"id":"DE.NI.03454000.03454022","properties":{"hc-group":"admin3","hc-key":"de-ni-03454000-03454022","hc-a2":"HI","name":"Hilkenbrook","hc-middle-lon":7.709,"hc-middle-lat":52.991}},{"type":"MultiPolygon","arcs":[[[1510,1511,1512,1513,-609,1514,1515,1516,-1043,1517]],[[1518,-606,-336,-1046,1519,-1044]],[[1036,1036,1036]],[[1036,1036,1036]],[[8,8,8]]],"id":"DE.NI.03357000.03357050","properties":{"hc-group":"admin3","hc-key":"de-ni-03357000-03357050","hc-a2":"VI","name":"Vierden","hc-middle-lon":9.483,"hc-middle-lat":53.334}},{"type":"Polygon","arcs":[[335,-626,1520,1521,333,334]],"id":"DE.NI.03353000.03353014","properties":{"hc-group":"admin3","hc-key":"de-ni-03353000-03353014","hc-a2":"HA","name":"Halvesbostel","hc-middle-lon":9.648,"hc-middle-lat":53.359}},{"type":"Polygon","arcs":[[-1508,1522,1523,1524,1525,1526,1527]],"id":"DE.NI.03255000.03255025","properties":{"hc-group":"admin3","hc-key":"de-ni-03255000-03255025","hc-a2":"KI","name":"Kirchbrak","hc-middle-lon":9.563,"hc-middle-lat":51.948}},{"type":"Polygon","arcs":[[1528,-1105,-349,-348,-347,-346,1529,-1117]],"id":"DE.NI.03456000.03456025","properties":{"hc-group":"admin3","hc-key":"de-ni-03456000-03456025","hc-a2":"WI","name":"Wietmarschen","hc-middle-lon":7.174,"hc-middle-lat":52.523}},{"type":"Polygon","arcs":[[-1529,-1116,1530,1531,1532,-1106],[-1103]],"id":"DE.NI.03456000.03456017","properties":{"hc-group":"admin3","hc-key":"de-ni-03456000-03456017","hc-a2":"OS","name":"Osterwald","hc-middle-lon":7.039,"hc-middle-lat":52.548}},{"type":"Polygon","arcs":[[172,-644,-643,1533,1534]],"id":"DE.NI.03454000.03454044","properties":{"hc-group":"admin3","hc-key":"de-ni-03454000-03454044","hc-a2":"R(","name":"Rhede (Ems)","hc-middle-lon":7.217,"hc-middle-lat":53.062}},{"type":"Polygon","arcs":[[641,642,1535,1536,1537,1538]],"id":"DE.NI.03457000.03457021","properties":{"hc-group":"admin3","hc-key":"de-ni-03457000-03457021","hc-a2":"WE","name":"Weener","hc-middle-lon":7.34,"hc-middle-lat":53.165}},{"type":"Polygon","arcs":[[-1539,1539,1540,648,175,-174]],"id":"DE.NI.03457000.03457022","properties":{"hc-group":"admin3","hc-key":"de-ni-03457000-03457022","hc-a2":"WE","name":"Westoverledingen","hc-middle-lon":7.441,"hc-middle-lat":53.146}},{"type":"Polygon","arcs":[[109,1541,1542,-1130,-1135,1543,1544,517]],"id":"DE.NI.03454000.03454012","properties":{"hc-group":"admin3","hc-key":"de-ni-03454000-03454012","hc-a2":"FR","name":"Freren","hc-middle-lon":7.579,"hc-middle-lat":52.467}},{"type":"Polygon","arcs":[[-1544,1545,1546,1547,1548,1549,1550]],"id":"DE.NI.03454000.03454031","properties":{"hc-group":"admin3","hc-key":"de-ni-03454000-03454031","hc-a2":"LE","name":"Lengerich","hc-middle-lon":7.53,"hc-middle-lat":52.566}},{"type":"Polygon","arcs":[[-1456,1551,1552,1553,1554,1555,-647,1556,-1457]],"id":"DE.NI.03454000.03454051","properties":{"hc-group":"admin3","hc-key":"de-ni-03454000-03454051","hc-a2":"SU","name":"Surwold","hc-middle-lon":7.495,"hc-middle-lat":53.005}},{"type":"Polygon","arcs":[[-1556,1557,1558,1559,-1534,-642,173,174,-649,-648]],"id":"DE.NI.03454000.03454041","properties":{"hc-group":"admin3","hc-key":"de-ni-03454000-03454041","hc-a2":"PA","name":"Papenburg","hc-middle-lon":7.406,"hc-middle-lat":53.058}},{"type":"Polygon","arcs":[[139,-427,-426,1560,1561]],"id":"DE.NI.03354000.03354022","properties":{"hc-group":"admin3","hc-key":"de-ni-03354000-03354022","hc-a2":"SC","name":"Schnega","hc-middle-lon":10.908,"hc-middle-lat":52.866}},{"type":"Polygon","arcs":[[513,1562,1563,1564]],"id":"DE.NI.03454000.03454009","properties":{"hc-group":"admin3","hc-key":"de-ni-03454000-03454009","hc-a2":"DO","name":"Dohren","hc-middle-lon":7.641,"hc-middle-lat":52.639}},{"type":"Polygon","arcs":[[-514,-513,-944,1565,1566]],"id":"DE.NI.03459000.03459009","properties":{"hc-group":"admin3","hc-key":"de-ni-03459000-03459009","hc-a2":"BE","name":"Berge","hc-middle-lon":7.714,"hc-middle-lat":52.629}},{"type":"Polygon","arcs":[[1567,426,179,1568,1569]],"id":"DE.NI.03360000.03360020","properties":{"hc-group":"admin3","hc-key":"de-ni-03360000-03360020","hc-a2":"SO","name":"Soltendieck","hc-middle-lon":10.782,"hc-middle-lat":52.846}},{"type":"Polygon","arcs":[[-1568,1570,1571,1572,1573,1574,1575,1576,424,425]],"id":"DE.NI.03360000.03360024","properties":{"hc-group":"admin3","hc-key":"de-ni-03360000-03360024","hc-a2":"SU","name":"Suhlendorf","hc-middle-lon":10.779,"hc-middle-lat":52.951}},{"type":"Polygon","arcs":[[171,-1535,-1560,1577,1578,1579]],"id":"DE.NI.03454000.03454020","properties":{"hc-group":"admin3","hc-key":"de-ni-03454000-03454020","hc-a2":"HE","name":"Heede","hc-middle-lon":7.227,"hc-middle-lat":53.009}},{"type":"Polygon","arcs":[[420,1580,1581,1582,417,418,419]],"id":"DE.NI.03360000.03360022","properties":{"hc-group":"admin3","hc-key":"de-ni-03360000-03360022","hc-a2":"ST","name":"Stoetze","hc-middle-lon":10.767,"hc-middle-lat":53.043}},{"type":"Polygon","arcs":[[-421,1583,-1315,1584,1585,1586,1587,-422]],"id":"DE.NI.03354000.03354027","properties":{"hc-group":"admin3","hc-key":"de-ni-03354000-03354027","hc-a2":"ZE","name":"Zernien","hc-middle-lon":10.906,"hc-middle-lat":53.057}},{"type":"Polygon","arcs":[[-1584,-420,-1318,-418,-417,731,732,-1316],[-1312]],"id":"DE.NI.03354000.03354502","properties":{"hc-group":"admin3","hc-key":"de-ni-03354000-03354502","hc-a2":"GÖ","name":"Göhrde","hc-middle-lon":10.837,"hc-middle-lat":53.115}},{"type":"Polygon","arcs":[[-423,-1588,1588,1589,1590]],"id":"DE.NI.03354000.03354024","properties":{"hc-group":"admin3","hc-key":"de-ni-03354000-03354024","hc-a2":"WA","name":"Waddeweitz","hc-middle-lon":10.963,"hc-middle-lat":53.004}},{"type":"Polygon","arcs":[[422,423,-1577,1591,1592,-1581,421]],"id":"DE.NI.03360000.03360018","properties":{"hc-group":"admin3","hc-key":"de-ni-03360000-03360018","hc-a2":"RO","name":"Rosche","hc-middle-lon":10.809,"hc-middle-lat":53.001}},{"type":"Polygon","arcs":[[-424,-1591,1593,137,1594,-1561,-425]],"id":"DE.NI.03354000.03354002","properties":{"hc-group":"admin3","hc-key":"de-ni-03354000-03354002","hc-a2":"CL","name":"Clenze","hc-middle-lon":10.933,"hc-middle-lat":52.952}},{"type":"Polygon","arcs":[[-1594,-1590,1595,1596,136]],"id":"DE.NI.03354000.03354016","properties":{"hc-group":"admin3","hc-key":"de-ni-03354000-03354016","hc-a2":"L(","name":"Luckau (Wendland)","hc-middle-lon":11.05,"hc-middle-lat":52.916}},{"type":"Polygon","arcs":[[1597,1598,911,-1062,1599,1600]],"id":"DE.NI.03254000.03254020","properties":{"hc-group":"admin3","hc-key":"de-ni-03254000-03254020","hc-a2":"HA","name":"Harsum","hc-middle-lon":9.998,"hc-middle-lat":52.206}},{"type":"Polygon","arcs":[[-1598,1601,1602,921,922,1603]],"id":"DE.NI.03254000.03254028","properties":{"hc-group":"admin3","hc-key":"de-ni-03254000-03254028","hc-a2":"SA","name":"Sarstedt","hc-middle-lon":9.853,"hc-middle-lat":52.239}},{"type":"Polygon","arcs":[[1604,1605,1606,1607,1608,1609,1610]],"id":"DE.NI.03256000.03256028","properties":{"hc-group":"admin3","hc-key":"de-ni-03256000-03256028","hc-a2":"SC","name":"Schweringen","hc-middle-lon":9.207,"hc-middle-lat":52.76}},{"type":"Polygon","arcs":[[-1605,1611,298,1612]],"id":"DE.NI.03256000.03256035","properties":{"hc-group":"admin3","hc-key":"de-ni-03256000-03256035","hc-a2":"WA","name":"Warpe","hc-middle-lon":9.081,"hc-middle-lat":52.747}},{"type":"Polygon","arcs":[[69,1613,1614,1615,1616,1617,1618]],"id":"DE.NI.03352000.03352040","properties":{"hc-group":"admin3","hc-key":"de-ni-03352000-03352040","hc-a2":"NO","name":"Nordholz","hc-middle-lon":8.545,"hc-middle-lat":53.777}},{"type":"Polygon","arcs":[[1619,-772,-771,1620]],"id":"DE.NI.03458000.03458011","properties":{"hc-group":"admin3","hc-key":"de-ni-03458000-03458011","hc-a2":"KI","name":"Kirchseelte","hc-middle-lon":8.66,"hc-middle-lat":52.941}},{"type":"Polygon","arcs":[[-1620,1621,1622,-971,-243,-773]],"id":"DE.NI.03458000.03458006","properties":{"hc-group":"admin3","hc-key":"de-ni-03458000-03458006","hc-a2":"GI","name":"Groß Ippener","hc-middle-lon":8.619,"hc-middle-lat":52.977}},{"type":"Polygon","arcs":[[-1623,1623,1624,1625,-972]],"id":"DE.NI.03458000.03458008","properties":{"hc-group":"admin3","hc-key":"de-ni-03458000-03458008","hc-a2":"HA","name":"Harpstedt","hc-middle-lon":8.608,"hc-middle-lat":52.917}},{"type":"Polygon","arcs":[[-1131,-1543,1626,1627]],"id":"DE.NI.03454000.03454003","properties":{"hc-group":"admin3","hc-key":"de-ni-03454000-03454003","hc-a2":"BE","name":"Beesten","hc-middle-lon":7.494,"hc-middle-lat":52.428}},{"type":"Polygon","arcs":[[-330,379,1628,1629,1630,1631,-1027,1632,-331]],"id":"DE.NI.03357000.03357046","properties":{"hc-group":"admin3","hc-key":"de-ni-03357000-03357046","hc-a2":"ST","name":"Stemmen","hc-middle-lon":9.539,"hc-middle-lat":53.231}},{"type":"Polygon","arcs":[[1633,1634,1635,-289,1636]],"id":"DE.NI.03251000.03251003","properties":{"hc-group":"admin3","hc-key":"de-ni-03251000-03251003","hc-a2":"BA","name":"Bahrenborstel","hc-middle-lon":8.753,"hc-middle-lat":52.562}},{"type":"Polygon","arcs":[[-1634,1637,1638,1639,1640,1641,1642]],"id":"DE.NI.03251000.03251043","properties":{"hc-group":"admin3","hc-key":"de-ni-03251000-03251043","hc-a2":"VA","name":"Varrel","hc-middle-lon":8.708,"hc-middle-lat":52.604}},{"type":"Polygon","arcs":[[250,252,253,1643,1644]],"id":"DE.NI.03454000.03454055","properties":{"hc-group":"admin3","hc-key":"de-ni-03454000-03454055","hc-a2":"VR","name":"Vrees","hc-middle-lon":7.764,"hc-middle-lat":52.898}},{"type":"Polygon","arcs":[[-251,-250,-249,-248,-247,1645,1646,-792,1647,1648,1649]],"id":"DE.NI.03453000.03453007","properties":{"hc-group":"admin3","hc-key":"de-ni-03453000-03453007","hc-a2":"FR","name":"Friesoythe","hc-middle-lon":7.832,"hc-middle-lat":52.988}},{"type":"Polygon","arcs":[[-938,1650,1651,1652,1653]],"id":"DE.NI.03453000.03453004","properties":{"hc-group":"admin3","hc-key":"de-ni-03453000-03453004","hc-a2":"CL","name":"Cloppenburg","hc-middle-lon":8.036,"hc-middle-lat":52.858}},{"type":"Polygon","arcs":[[1654,-1017,1655,1656]],"id":"DE.NI.03459000.03459001","properties":{"hc-group":"admin3","hc-key":"de-ni-03459000-03459001","hc-a2":"AL","name":"Alfhausen","hc-middle-lon":7.954,"hc-middle-lat":52.498}},{"type":"Polygon","arcs":[[-1655,1657,1658,746,-1018]],"id":"DE.NI.03459000.03459031","properties":{"hc-group":"admin3","hc-key":"de-ni-03459000-03459031","hc-a2":"RI","name":"Rieste","hc-middle-lon":8.058,"hc-middle-lat":52.465}},{"type":"Polygon","arcs":[[1659,1660,1661,1662]],"id":"DE.NI.03355000.03355001","properties":{"hc-group":"admin3","hc-key":"de-ni-03355000-03355001","hc-a2":"AD","name":"Adendorf","hc-middle-lon":10.456,"hc-middle-lat":53.283}},{"type":"Polygon","arcs":[[-1660,1663,1664,-306,1665,1666,1667,1668]],"id":"DE.NI.03355000.03355011","properties":{"hc-group":"admin3","hc-key":"de-ni-03355000-03355011","hc-a2":"BR","name":"Brietlingen","hc-middle-lon":10.449,"hc-middle-lat":53.339}},{"type":"Polygon","arcs":[[305,306,1669,155,304]],"id":"DE.NI.03353000.03353033","properties":{"hc-group":"admin3","hc-key":"de-ni-03353000-03353033","hc-a2":"TE","name":"Tespe","hc-middle-lon":10.38,"hc-middle-lat":53.392}},{"type":"Polygon","arcs":[[244,-1458,-1557,-646,-645]],"id":"DE.NI.03454000.03454004","properties":{"hc-group":"admin3","hc-key":"de-ni-03454000-03454004","hc-a2":"BO","name":"Bockhorst","hc-middle-lon":7.553,"hc-middle-lat":53.018}},{"type":"Polygon","arcs":[[-245,-790,1670,-1646,-246]],"id":"DE.NI.03453000.03453013","properties":{"hc-group":"admin3","hc-key":"de-ni-03453000-03453013","hc-a2":"SA","name":"Saterland","hc-middle-lon":7.689,"hc-middle-lat":53.079}},{"type":"Polygon","arcs":[[-1554,1671,1672,1673,1674,-1579,1675,1676]],"id":"DE.NI.03454000.03454008","properties":{"hc-group":"admin3","hc-key":"de-ni-03454000-03454008","hc-a2":"DÖ","name":"Dörpen","hc-middle-lon":7.368,"hc-middle-lat":52.968}},{"type":"Polygon","arcs":[[1677,1678,1679,1680,1681]],"id":"DE.NI.03156000.03156004","properties":{"hc-group":"admin3","hc-key":"de-ni-03156000-03156004","hc-a2":"BA","name":"Badenhausen","hc-middle-lon":10.211,"hc-middle-lat":51.772}},{"type":"Polygon","arcs":[[-1678,1682,1683,1684]],"id":"DE.NI.03156000.03156014","properties":{"hc-group":"admin3","hc-key":"de-ni-03156000-03156014","hc-a2":"WI","name":"Windhausen","hc-middle-lon":10.216,"hc-middle-lat":51.791}},{"type":"Polygon","arcs":[[-457,-456,1685,1686,1687,1688]],"id":"DE.NI.03351000.03351019","properties":{"hc-group":"admin3","hc-key":"de-ni-03351000-03351019","hc-a2":"SC","name":"Scharnhorst","hc-middle-lon":10.347,"hc-middle-lat":52.723}},{"type":"Polygon","arcs":[[456,457,737,738,1689,1690,1691]],"id":"DE.NI.03151000.03151028","properties":{"hc-group":"admin3","hc-key":"de-ni-03151000-03151028","hc-a2":"SP","name":"Sprakensehl","hc-middle-lon":10.498,"hc-middle-lat":52.787}},{"type":"Polygon","arcs":[[154,-1670,307,308,309,1692]],"id":"DE.NI.03353000.03353023","properties":{"hc-group":"admin3","hc-key":"de-ni-03353000-03353023","hc-a2":"MA","name":"Marschacht","hc-middle-lon":10.362,"hc-middle-lat":53.415}},{"type":"Polygon","arcs":[[104,-1021,-1181,-259]],"id":"DE.NI.03459000.03459033","properties":{"hc-group":"admin3","hc-key":"de-ni-03459000-03459033","hc-a2":"WA","name":"Wallenhorst","hc-middle-lon":8.017,"hc-middle-lat":52.345}},{"type":"Polygon","arcs":[[-310,1693,1694,519,1695,-312,-311]],"id":"DE.NI.03355000.03355017","properties":{"hc-group":"admin3","hc-key":"de-ni-03355000-03355017","hc-a2":"HA","name":"Handorf","hc-middle-lon":10.338,"hc-middle-lat":53.341}},{"type":"Polygon","arcs":[[310,1696,153,-1693]],"id":"DE.NI.03353000.03353007","properties":{"hc-group":"admin3","hc-key":"de-ni-03353000-03353007","hc-a2":"DR","name":"Drage","hc-middle-lon":10.254,"hc-middle-lat":53.401}},{"type":"MultiPolygon","arcs":[[[-1132,-1628,1697,1698,1699,1700]],[[1701,1702]]],"id":"DE.NI.03454000.03454034","properties":{"hc-group":"admin3","hc-key":"de-ni-03454000-03454034","hc-a2":"LÜ","name":"Lünne","hc-middle-lon":7.406,"hc-middle-lat":52.4}},{"type":"Polygon","arcs":[[-309,1703,1704,1705,-1694]],"id":"DE.NI.03355000.03355042","properties":{"hc-group":"admin3","hc-key":"de-ni-03355000-03355042","hc-a2":"WI","name":"Wittorf","hc-middle-lon":10.364,"hc-middle-lat":53.34}},{"type":"Polygon","arcs":[[-1701,1706,346,1707,1708,1709,-1133]],"id":"DE.NI.03454000.03454032","properties":{"hc-group":"admin3","hc-key":"de-ni-03454000-03454032","hc-a2":"L(","name":"Lingen (Ems)","hc-middle-lon":7.353,"hc-middle-lat":52.513}},{"type":"Polygon","arcs":[[-308,-307,-1665,1710,-1704]],"id":"DE.NI.03355000.03355007","properties":{"hc-group":"admin3","hc-key":"de-ni-03355000-03355007","hc-a2":"BA","name":"Barum","hc-middle-lon":10.389,"hc-middle-lat":53.346}},{"type":"Polygon","arcs":[[-1711,-1664,-1663,1711,1712,1713,-1705]],"id":"DE.NI.03355000.03355004","properties":{"hc-group":"admin3","hc-key":"de-ni-03355000-03355004","hc-a2":"BA","name":"Bardowick","hc-middle-lon":10.33,"hc-middle-lat":53.307}},{"type":"Polygon","arcs":[[181,-741,-740,-739,1714,1715]],"id":"DE.NI.03360000.03360013","properties":{"hc-group":"admin3","hc-key":"de-ni-03360000-03360013","hc-a2":"LÜ","name":"Lüder","hc-middle-lon":10.658,"hc-middle-lat":52.8}},{"type":"Polygon","arcs":[[773,774,1716,1717,-460]],"id":"DE.NI.03460000.03460010","properties":{"hc-group":"admin3","hc-key":"de-ni-03460000-03460010","hc-a2":"VI","name":"Visbek","hc-middle-lon":8.301,"hc-middle-lat":52.812}},{"type":"Polygon","arcs":[[-774,-510,-509,1718,-931,-930,1719]],"id":"DE.NI.03458000.03458007","properties":{"hc-group":"admin3","hc-key":"de-ni-03458000-03458007","hc-a2":"GR","name":"Großenkneten","hc-middle-lon":8.231,"hc-middle-lat":52.942}},{"type":"Polygon","arcs":[[1720,1721,1722,1723]],"id":"DE.NI.03351000.03351003","properties":{"hc-group":"admin3","hc-key":"de-ni-03351000-03351003","hc-a2":"BE","name":"Beedenbostel","hc-middle-lon":10.28,"hc-middle-lat":52.662}},{"type":"Polygon","arcs":[[-1721,1724,1725,1726,1727,1728,1729,1730,1731,1732,1733]],"id":"DE.NI.03351000.03351006","properties":{"hc-group":"admin3","hc-key":"de-ni-03351000-03351006","hc-a2":"CE","name":"Celle","hc-middle-lon":10.101,"hc-middle-lat":52.646}},{"type":"Polygon","arcs":[[-1725,-1724,1734,1735,1736]],"id":"DE.NI.03351000.03351016","properties":{"hc-group":"admin3","hc-key":"de-ni-03351000-03351016","hc-a2":"LA","name":"Lachendorf","hc-middle-lon":10.281,"hc-middle-lat":52.647}},{"type":"Polygon","arcs":[[1737,1738,1739,1740,1741,1742,1743]],"id":"DE.NI.03357000.03357043","properties":{"hc-group":"admin3","hc-key":"de-ni-03357000-03357043","hc-a2":"SE","name":"Selsingen","hc-middle-lon":9.203,"hc-middle-lat":53.37}},{"type":"Polygon","arcs":[[-1738,1744,1745,1746]],"id":"DE.NI.03357000.03357042","properties":{"hc-group":"admin3","hc-key":"de-ni-03357000-03357042","hc-a2":"SE","name":"Seedorf","hc-middle-lon":9.237,"hc-middle-lat":53.33}},{"type":"Polygon","arcs":[[-1173,-1180,1747,193,1748]],"id":"DE.NI.03459000.03459003","properties":{"hc-group":"admin3","hc-key":"de-ni-03459000-03459003","hc-a2":"BE","name":"Bad Essen","hc-middle-lon":8.421,"hc-middle-lat":52.328}},{"type":"Polygon","arcs":[[-255,-254,1749,-936,-942]],"id":"DE.NI.03453000.03453010","properties":{"hc-group":"admin3","hc-key":"de-ni-03453000-03453010","hc-a2":"L(","name":"Lindern (Oldenburg)","hc-middle-lon":7.77,"hc-middle-lat":52.831}},{"type":"Polygon","arcs":[[254,255,1750,1751,1752,1753,1754,-1644]],"id":"DE.NI.03454000.03454057","properties":{"hc-group":"admin3","hc-key":"de-ni-03454000-03454057","hc-a2":"WE","name":"Werlte","hc-middle-lon":7.629,"hc-middle-lat":52.854}},{"type":"Polygon","arcs":[[-1649,1755,507,508,1756,-1652,1757]],"id":"DE.NI.03453000.03453008","properties":{"hc-group":"admin3","hc-key":"de-ni-03453000-03453008","hc-a2":"GA","name":"Garrel","hc-middle-lon":8.029,"hc-middle-lat":52.964}},{"type":"Polygon","arcs":[[-943,1758,1759,1760,1761,1762,-1566]],"id":"DE.NI.03459000.03459016","properties":{"hc-group":"admin3","hc-key":"de-ni-03459000-03459016","hc-a2":"EG","name":"Eggermühlen","hc-middle-lon":7.8,"hc-middle-lat":52.554}},{"type":"Polygon","arcs":[[196,-1088,1763,1764]],"id":"DE.NI.03459000.03459006","properties":{"hc-group":"admin3","hc-key":"de-ni-03459000-03459006","hc-a2":"BR","name":"Bad Rothenfelde","hc-middle-lon":8.158,"hc-middle-lat":52.099}},{"type":"Polygon","arcs":[[511,512,-1565,1765,1766,251]],"id":"DE.NI.03454000.03454021","properties":{"hc-group":"admin3","hc-key":"de-ni-03454000-03454021","hc-a2":"HE","name":"Herzlake","hc-middle-lon":7.592,"hc-middle-lat":52.689}},{"type":"Polygon","arcs":[[-1637,-288,-287,187,1767,1768,1769,1770,1771,-1638]],"id":"DE.NI.03251000.03251044","properties":{"hc-group":"admin3","hc-key":"de-ni-03251000-03251044","hc-a2":"WA","name":"Wagenfeld","hc-middle-lon":8.636,"hc-middle-lat":52.547}},{"type":"Polygon","arcs":[[-1702,1772,1773,343,344,345,-1707,-1700,1774]],"id":"DE.NI.03454000.03454010","properties":{"hc-group":"admin3","hc-key":"de-ni-03454000-03454010","hc-a2":"EM","name":"Emsbüren","hc-middle-lon":7.325,"hc-middle-lat":52.383}},{"type":"Polygon","arcs":[[-345,1775,-1098,1776,-1118,-1530]],"id":"DE.NI.03456000.03456003","properties":{"hc-group":"admin3","hc-key":"de-ni-03456000-03456003","hc-a2":"EN","name":"Engden","hc-middle-lon":7.224,"hc-middle-lat":52.397}},{"type":"MultiPolygon","arcs":[[[189,1777,1778,1779]],[[1780,1781,1782,1783,1784]]],"id":"DE.NI.03251000.03251029","properties":{"hc-group":"admin3","hc-key":"de-ni-03251000-03251029","hc-a2":"QU","name":"Quernheim","hc-middle-lon":8.398,"hc-middle-lat":52.46}},{"type":"Polygon","arcs":[[1785,1786,1787,1788,1789,1790,1791,1792]],"id":"DE.NI.03151000.03151025","properties":{"hc-group":"admin3","hc-key":"de-ni-03151000-03151025","hc-a2":"SA","name":"Sassenburg","hc-middle-lon":10.65,"hc-middle-lat":52.537}},{"type":"Polygon","arcs":[[-1786,1793,1794,1795,1796]],"id":"DE.NI.03151000.03151004","properties":{"hc-group":"admin3","hc-key":"de-ni-03151000-03151004","hc-a2":"BO","name":"Bokensdorf","hc-middle-lon":10.709,"hc-middle-lat":52.502}},{"type":"Polygon","arcs":[[-1547,1797,1798,1799]],"id":"DE.NI.03454000.03454015","properties":{"hc-group":"admin3","hc-key":"de-ni-03454000-03454015","hc-a2":"GE","name":"Gersten","hc-middle-lon":7.515,"hc-middle-lat":52.615}},{"type":"Polygon","arcs":[[-1768,188,-1780,1800,-1781,1801,1802]],"id":"DE.NI.03251000.03251009","properties":{"hc-group":"admin3","hc-key":"de-ni-03251000-03251009","hc-a2":"BR","name":"Brockum","hc-middle-lon":8.423,"hc-middle-lat":52.469}},{"type":"Polygon","arcs":[[-1796,1803,-325,1804]],"id":"DE.NI.03151000.03151039","properties":{"hc-group":"admin3","hc-key":"de-ni-03151000-03151039","hc-a2":"WE","name":"Weyhausen","hc-middle-lon":10.719,"hc-middle-lat":52.465}},{"type":"Polygon","arcs":[[-1799,1805,-1709,1806,1807]],"id":"DE.NI.03454000.03454002","properties":{"hc-group":"admin3","hc-key":"de-ni-03454000-03454002","hc-a2":"BA","name":"Bawinkel","hc-middle-lon":7.398,"hc-middle-lat":52.581}},{"type":"MultiPolygon","arcs":[[[574,575,576,1808,573]],[[1809,1810,571,1811,1812]]],"id":"DE.NI.03158000.03158503","properties":{"hc-group":"admin3","hc-key":"de-ni-03158000-03158503","hc-a2":"VO","name":"Voigtsdahlum","hc-middle-lon":10.874,"hc-middle-lat":52.164}},{"type":"Polygon","arcs":[[-575,1813,-568,-1401,-1391,-1400,1814,1815,1816,1817]],"id":"DE.NI.03154000.03154017","properties":{"hc-group":"admin3","hc-key":"de-ni-03154000-03154017","hc-a2":"RÄ","name":"Räbke","hc-middle-lon":10.863,"hc-middle-lat":52.196}},{"type":"Polygon","arcs":[[-950,330,331,332,-1522,1818,1819,1820,1821,1822,1823,1824,1825]],"id":"DE.NI.03353000.03353018","properties":{"hc-group":"admin3","hc-key":"de-ni-03353000-03353018","hc-a2":"HE","name":"Heidenau","hc-middle-lon":9.62,"hc-middle-lat":53.308}},{"type":"Polygon","arcs":[[-333,1826,-1038,-334]],"id":"DE.NI.03357000.03357029","properties":{"hc-group":"admin3","hc-key":"de-ni-03357000-03357029","hc-a2":"KA","name":"Kalbe","hc-middle-lon":9.564,"hc-middle-lat":53.31}},{"type":"Polygon","arcs":[[-957,1827,1828,378,-383,-382,-381,-380,-956,1829]],"id":"DE.NI.03353000.03353022","properties":{"hc-group":"admin3","hc-key":"de-ni-03353000-03353022","hc-a2":"KÖ","name":"Königsmoor","hc-middle-lon":9.619,"hc-middle-lat":53.238}},{"type":"Polygon","arcs":[[311,312,-521,-520,-519,-693,1830,1831,1832,1833,1834,152,-1697]],"id":"DE.NI.03353000.03353040","properties":{"hc-group":"admin3","hc-key":"de-ni-03353000-03353040","hc-a2":"W(","name":"Winsen (Luhe)","hc-middle-lon":10.224,"hc-middle-lat":53.37}},{"type":"Polygon","arcs":[[-1831,-692,-1069,1835,1836,1837]],"id":"DE.NI.03353000.03353012","properties":{"hc-group":"admin3","hc-key":"de-ni-03353000-03353012","hc-a2":"GA","name":"Garstedt","hc-middle-lon":10.171,"hc-middle-lat":53.282}},{"type":"Polygon","arcs":[[248,1838,1839,1840,-1454,-1460,-1510]],"id":"DE.NI.03454000.03454033","properties":{"hc-group":"admin3","hc-key":"de-ni-03454000-03454033","hc-a2":"LO","name":"Lorup","hc-middle-lon":7.659,"hc-middle-lat":52.936}},{"type":"MultiPolygon","arcs":[[[1841,1842,1843,-1277,1844,906]],[[1845,908]]],"id":"DE.NI.03357000.03357028","properties":{"hc-group":"admin3","hc-key":"de-ni-03357000-03357028","hc-a2":"HO","name":"Horstedt","hc-middle-lon":9.271,"hc-middle-lat":53.177}},{"type":"Polygon","arcs":[[-1842,907,-1846,909,893,1846,1847]],"id":"DE.NI.03357000.03357052","properties":{"hc-group":"admin3","hc-key":"de-ni-03357000-03357052","hc-a2":"VO","name":"Vorwerk","hc-middle-lon":9.095,"hc-middle-lat":53.161}},{"type":"Polygon","arcs":[[-894,-896,1848,1849,-479,-478]],"id":"DE.NI.03356000.03356002","properties":{"hc-group":"admin3","hc-key":"de-ni-03356000-03356002","hc-a2":"GR","name":"Grasberg","hc-middle-lon":9.059,"hc-middle-lat":53.165}},{"type":"MultiPolygon","arcs":[[[-1633,-1036,1850,-1041,1851,-1039,-1827,-332]],[[-1520,-1045]]],"id":"DE.NI.03357000.03357048","properties":{"hc-group":"admin3","hc-key":"de-ni-03357000-03357048","hc-a2":"TI","name":"Tiste","hc-middle-lon":9.597,"hc-middle-lat":53.301}},{"type":"Polygon","arcs":[[1852,1853,1854,1855,1856]],"id":"DE.NI.03358000.03358011","properties":{"hc-group":"admin3","hc-key":"de-ni-03358000-03358011","hc-a2":"GR","name":"Grethem","hc-middle-lon":9.581,"hc-middle-lat":52.734}},{"type":"Polygon","arcs":[[-1853,1857,1858,1859,1860,1861]],"id":"DE.NI.03358000.03358012","properties":{"hc-group":"admin3","hc-key":"de-ni-03358000-03358012","hc-a2":"HA","name":"Hademstorf","hc-middle-lon":9.64,"hc-middle-lat":52.713}},{"type":"Polygon","arcs":[[1862,1863,1864]],"id":"DE.NI.03251000.03251001","properties":{"hc-group":"admin3","hc-key":"de-ni-03251000-03251001","hc-a2":"AF","name":"Affinghausen","hc-middle-lon":8.876,"hc-middle-lat":52.778}},{"type":"Polygon","arcs":[[-1863,1865,1866,1867,1868,1869,1870]],"id":"DE.NI.03251000.03251032","properties":{"hc-group":"admin3","hc-key":"de-ni-03251000-03251032","hc-a2":"SC","name":"Schwaförden","hc-middle-lon":8.879,"hc-middle-lat":52.732}},{"type":"Polygon","arcs":[[1871,1872,1873,1874,1875,1876]],"id":"DE.NI.03359000.03359033","properties":{"hc-group":"admin3","hc-key":"de-ni-03359000-03359033","hc-a2":"NE","name":"Neuenkirchen","hc-middle-lon":9.621,"hc-middle-lat":53.523}},{"type":"Polygon","arcs":[[-1872,1877,1878,1879]],"id":"DE.NI.03359000.03359032","properties":{"hc-group":"admin3","hc-key":"de-ni-03359000-03359032","hc-a2":"MI","name":"Mittelnkirchen","hc-middle-lon":9.63,"hc-middle-lat":53.55}},{"type":"Polygon","arcs":[[-1869,1880,1881,1882,1883]],"id":"DE.NI.03251000.03251031","properties":{"hc-group":"admin3","hc-key":"de-ni-03251000-03251031","hc-a2":"SC","name":"Scholen","hc-middle-lon":8.772,"hc-middle-lat":52.742}},{"type":"Polygon","arcs":[[-1326,1884,-1792,1885,1886]],"id":"DE.NI.03151000.03151002","properties":{"hc-group":"admin3","hc-key":"de-ni-03151000-03151002","hc-a2":"BA","name":"Barwedel","hc-middle-lon":10.74,"hc-middle-lat":52.539}},{"type":"Polygon","arcs":[[-1016,1887,-1760,1888,1889,1890,-1656]],"id":"DE.NI.03459000.03459002","properties":{"hc-group":"admin3","hc-key":"de-ni-03459000-03459002","hc-a2":"AN","name":"Ankum","hc-middle-lon":7.837,"hc-middle-lat":52.538}},{"type":"Polygon","arcs":[[-1015,-1023,1891,1892,-1761,-1888]],"id":"DE.NI.03459000.03459026","properties":{"hc-group":"admin3","hc-key":"de-ni-03459000-03459026","hc-a2":"ME","name":"Merzen","hc-middle-lon":7.807,"hc-middle-lat":52.479}},{"type":"MultiPolygon","arcs":[[[-959,1893,1894]],[[-1829,1895,1896,1897,377]],[[1898,1899]]],"id":"DE.NI.03353000.03353027","properties":{"hc-group":"admin3","hc-key":"de-ni-03353000-03353027","hc-a2":"OT","name":"Otter","hc-middle-lon":9.755,"hc-middle-lat":53.226}},{"type":"Polygon","arcs":[[-379,-378,-377,-376,-375,1900,1901,-1144,-370,-369],[-1142],[-1143]],"id":"DE.NI.03358000.03358019","properties":{"hc-group":"admin3","hc-key":"de-ni-03358000-03358019","hc-a2":"SC","name":"Schneverdingen","hc-middle-lon":9.798,"hc-middle-lat":53.126}},{"type":"Polygon","arcs":[[-732,427,428,1902,1903]],"id":"DE.NI.03355000.03355010","properties":{"hc-group":"admin3","hc-key":"de-ni-03355000-03355010","hc-a2":"BO","name":"Boitze","hc-middle-lon":10.712,"hc-middle-lat":53.167}},{"type":"Polygon","arcs":[[375,1904,1905,1906,1907]],"id":"DE.NI.03353000.03353015","properties":{"hc-group":"admin3","hc-key":"de-ni-03353000-03353015","hc-a2":"HA","name":"Handeloh","hc-middle-lon":9.832,"hc-middle-lat":53.268}},{"type":"Polygon","arcs":[[376,-1898,1908,-1905]],"id":"DE.NI.03353000.03353038","properties":{"hc-group":"admin3","hc-key":"de-ni-03353000-03353038","hc-a2":"WE","name":"Welle","hc-middle-lon":9.786,"hc-middle-lat":53.253}},{"type":"Polygon","arcs":[[199,1909,1910,1911,-1086,1912]],"id":"DE.NI.03459000.03459004","properties":{"hc-group":"admin3","hc-key":"de-ni-03459000-03459004","hc-a2":"BI","name":"Bad Iburg","hc-middle-lon":8.019,"hc-middle-lat":52.145}},{"type":"MultiPolygon","arcs":[[[-1906,-1909,-1897,-1896,-1828,-960,-1895,-1894,-958,-1830,-955,1913,-953,1914,-1824,1915,-1822,1916,1917,1918,1919,1920,1921],[-949]],[[-951,-1826,1922]]],"id":"DE.NI.03353000.03353035","properties":{"hc-group":"admin3","hc-key":"de-ni-03353000-03353035","hc-a2":"TO","name":"Tostedt","hc-middle-lon":9.734,"hc-middle-lat":53.284}},{"type":"Polygon","arcs":[[1923,-1754,1924,1925,1926,-1840]],"id":"DE.NI.03454000.03454048","properties":{"hc-group":"admin3","hc-key":"de-ni-03454000-03454048","hc-a2":"SP","name":"Spahnharrenstätte","hc-middle-lon":7.558,"hc-middle-lat":52.885}},{"type":"Polygon","arcs":[[-1924,-1839,249,-1645,-1755]],"id":"DE.NI.03454000.03454042","properties":{"hc-group":"admin3","hc-key":"de-ni-03454000-03454042","hc-a2":"RA","name":"Rastdorf","hc-middle-lon":7.707,"hc-middle-lat":52.919}},{"type":"Polygon","arcs":[[-1563,514,1927,-1549,1928]],"id":"DE.NI.03454000.03454059","properties":{"hc-group":"admin3","hc-key":"de-ni-03454000-03454059","hc-a2":"WE","name":"Wettrup","hc-middle-lon":7.585,"hc-middle-lat":52.592}},{"type":"Polygon","arcs":[[-515,-1567,-1763,1929,-516]],"id":"DE.NI.03459000.03459011","properties":{"hc-group":"admin3","hc-key":"de-ni-03459000-03459011","hc-a2":"BI","name":"Bippen","hc-middle-lon":7.701,"hc-middle-lat":52.571}},{"type":"Polygon","arcs":[[-1929,-1548,-1800,-1808,1930,-1253,1931,1932,1933,-1766,-1564]],"id":"DE.NI.03454000.03454019","properties":{"hc-group":"admin3","hc-key":"de-ni-03454000-03454019","hc-a2":"HA","name":"Haselünne","hc-middle-lon":7.478,"hc-middle-lat":52.681}},{"type":"MultiPolygon","arcs":[[[-1607,1934,1935,1936,1937,1938,-711,1939,1940]],[[1941,1942,1943,1944,1945]]],"id":"DE.NI.03256000.03256007","properties":{"hc-group":"admin3","hc-key":"de-ni-03256000-03256007","hc-a2":"EY","name":"Eystrup","hc-middle-lon":9.232,"hc-middle-lat":52.783}},{"type":"Polygon","arcs":[[487,558,559,1946,1947,1948]],"id":"DE.NI.03158000.03158006","properties":{"hc-group":"admin3","hc-key":"de-ni-03158000-03158006","hc-a2":"CR","name":"Cremlingen","hc-middle-lon":10.67,"hc-middle-lat":52.257}},{"type":"Polygon","arcs":[[-488,-487,-486,-489,751,752,583,584,585,582]],"id":"DE.NI.03101000.03101000","properties":{"hc-group":"admin3","hc-key":"de-ni-03101000-03101000","hc-a2":"BR","name":"Braunschweig","hc-middle-lon":10.533,"hc-middle-lat":52.273}},{"type":"MultiPolygon","arcs":[[[-1031,1949]],[[1950,1951,1952,1953,-1029]]],"id":"DE.NI.03357000.03357019","properties":{"hc-group":"admin3","hc-key":"de-ni-03357000-03357019","hc-a2":"HA","name":"Hamersen","hc-middle-lon":9.476,"hc-middle-lat":53.252}},{"type":"Polygon","arcs":[[-1942,1954,-1608,-1941,1955,1956]],"id":"DE.NI.03256000.03256008","properties":{"hc-group":"admin3","hc-key":"de-ni-03256000-03256008","hc-a2":"GA","name":"Gandesbergen","hc-middle-lon":9.256,"hc-middle-lat":52.757}},{"type":"Polygon","arcs":[[-559,-583,-315,-314,-320,-1395]],"id":"DE.NI.03154000.03154014","properties":{"hc-group":"admin3","hc-key":"de-ni-03154000-03154014","hc-a2":"LE","name":"Lehre","hc-middle-lon":10.665,"hc-middle-lat":52.341}},{"type":"Polygon","arcs":[[1957,1958,1959,1960,-1886,-1791,1961]],"id":"DE.NI.03151000.03151008","properties":{"hc-group":"admin3","hc-key":"de-ni-03151000-03151008","hc-a2":"EL","name":"Ehra-Lessien","hc-middle-lon":10.774,"hc-middle-lat":52.574}},{"type":"Polygon","arcs":[[-1958,1962,-1112,1963,1964,1965,1966,740,182,1967],[-1111]],"id":"DE.NI.03151000.03151040","properties":{"hc-group":"admin3","hc-key":"de-ni-03151000-03151040","hc-a2":"WI","name":"Wittingen","hc-middle-lon":10.786,"hc-middle-lat":52.675}},{"type":"Polygon","arcs":[[-1967,1968,1969,-1690,739]],"id":"DE.NI.03151000.03151019","properties":{"hc-group":"admin3","hc-key":"de-ni-03151000-03151019","hc-a2":"OB","name":"Obernholz","hc-middle-lon":10.606,"hc-middle-lat":52.767}},{"type":"Polygon","arcs":[[-1968,183,-1304,1970,-1959]],"id":"DE.NI.03151000.03151005","properties":{"hc-group":"admin3","hc-key":"de-ni-03151000-03151005","hc-a2":"BR","name":"Brome","hc-middle-lon":10.929,"hc-middle-lat":52.589}},{"type":"Polygon","arcs":[[-1810,1971,569,1972]],"id":"DE.NI.03158000.03158502","properties":{"hc-group":"admin3","hc-key":"de-ni-03158000-03158502","hc-a2":"BW","name":"Barnstorf-Warle","hc-middle-lon":10.841,"hc-middle-lat":52.174}},{"type":"Polygon","arcs":[[1973,-1346,42,1974,1975]],"id":"DE.NI.03154000.03154003","properties":{"hc-group":"admin3","hc-key":"de-ni-03154000-03154003","hc-a2":"BÜ","name":"Büddenstedt","hc-middle-lon":11.05,"hc-middle-lat":52.147}},{"type":"Polygon","arcs":[[-1974,1976,1977,1978,-1337]],"id":"DE.NI.03154000.03154026","properties":{"hc-group":"admin3","hc-key":"de-ni-03154000-03154026","hc-a2":"WO","name":"Wolsdorf","hc-middle-lon":10.956,"hc-middle-lat":52.2}},{"type":"Polygon","arcs":[[-576,-1818,1979,1980,1981]],"id":"DE.NI.03154000.03154506","properties":{"hc-group":"admin3","hc-key":"de-ni-03154000-03154506","hc-a2":"SC","name":"Schöningen","hc-middle-lon":10.913,"hc-middle-lat":52.158}},{"type":"MultiPolygon","arcs":[[[161,1982,1983]],[[158,1984,1985,1986]]],"id":"DE.NI.03359000.03359020","properties":{"hc-group":"admin3","hc-key":"de-ni-03359000-03359020","hc-a2":"GR","name":"Grünendeich","hc-middle-lon":9.616,"hc-middle-lat":53.573}},{"type":"MultiPolygon","arcs":[[[1987,-1986,-1985,159,160,-1984,1988,-1879,1989,1990]],[[14,1991]]],"id":"DE.NI.03359000.03359039","properties":{"hc-group":"admin3","hc-key":"de-ni-03359000-03359039","hc-a2":"ST","name":"Steinkirchen","hc-middle-lon":9.59,"hc-middle-lat":53.572}},{"type":"MultiPolygon","arcs":[[[-1988,1992,-1164,157,-1987]],[[15,-1992]],[[159,1993,1994,158]]],"id":"DE.NI.03359000.03359026","properties":{"hc-group":"admin3","hc-key":"de-ni-03359000-03359026","hc-a2":"HT","name":"Hollern-Twielenfleth","hc-middle-lon":9.541,"hc-middle-lat":53.596}},{"type":"Polygon","arcs":[[1995,1996,1997]],"id":"DE.NI.03158000.03158036","properties":{"hc-group":"admin3","hc-key":"de-ni-03158000-03158036","hc-a2":"WI","name":"Wittmar","hc-middle-lon":10.646,"hc-middle-lat":52.13}},{"type":"Polygon","arcs":[[-1996,1998,1999,2000,2001,2002,2003,2004,2005]],"id":"DE.NI.03158000.03158032","properties":{"hc-group":"admin3","hc-key":"de-ni-03158000-03158032","hc-a2":"VA","name":"Vahlberg","hc-middle-lon":10.737,"hc-middle-lat":52.116}},{"type":"Polygon","arcs":[[734,2006,556,2007,-1317]],"id":"DE.NI.03354000.03354009","properties":{"hc-group":"admin3","hc-key":"de-ni-03354000-03354009","hc-a2":"H(","name":"Hitzacker (Elbe)","hc-middle-lon":10.996,"hc-middle-lat":53.157}},{"type":"Polygon","arcs":[[-735,-734,-733,-1904,2008,-1013,-736],[-1006]],"id":"DE.NI.03355000.03355025","properties":{"hc-group":"admin3","hc-key":"de-ni-03355000-03355025","hc-a2":"NA","name":"Nahrendorf","hc-middle-lon":10.836,"hc-middle-lat":53.17}},{"type":"Polygon","arcs":[[-2009,-1903,429,2009,2010,2011,2012,-1007]],"id":"DE.NI.03355000.03355013","properties":{"hc-group":"admin3","hc-key":"de-ni-03355000-03355013","hc-a2":"DA","name":"Dahlenburg","hc-middle-lon":10.718,"hc-middle-lat":53.197}},{"type":"Polygon","arcs":[[2013,2014,2015,2016,2017]],"id":"DE.NI.03241000.03241015","properties":{"hc-group":"admin3","hc-key":"de-ni-03241000-03241015","hc-a2":"SE","name":"Seelze","hc-middle-lon":9.575,"hc-middle-lat":52.382}},{"type":"Polygon","arcs":[[-2014,2018,635,636,637,638,639,640,715,2019,2020]],"id":"DE.NI.03241000.03241021","properties":{"hc-group":"admin3","hc-key":"de-ni-03241000-03241021","hc-a2":"WU","name":"Wunstorf","hc-middle-lon":9.38,"hc-middle-lat":52.464}},{"type":"Polygon","arcs":[[-1672,-1553,2021,2022,2023]],"id":"DE.NI.03454000.03454037","properties":{"hc-group":"admin3","hc-key":"de-ni-03454000-03454037","hc-a2":"NE","name":"Neubörger","hc-middle-lon":7.452,"hc-middle-lat":52.958}},{"type":"Polygon","arcs":[[-716,439,440,441,442,89,2024,2025,-717]],"id":"DE.NI.03256000.03256025","properties":{"hc-group":"admin3","hc-key":"de-ni-03256000-03256025","hc-a2":"RL","name":"Rehburg-Loccum","hc-middle-lon":9.096,"hc-middle-lat":52.442}},{"type":"Polygon","arcs":[[-2023,2026,-1926,2027,2028,2029]],"id":"DE.NI.03454000.03454058","properties":{"hc-group":"admin3","hc-key":"de-ni-03454000-03454058","hc-a2":"WE","name":"Werpeloh","hc-middle-lon":7.48,"hc-middle-lat":52.886}},{"type":"Polygon","arcs":[[-2027,-2022,-1552,-1455,-1841,-1927]],"id":"DE.NI.03454000.03454005","properties":{"hc-group":"admin3","hc-key":"de-ni-03454000-03454005","hc-a2":"BÖ","name":"Börger","hc-middle-lon":7.557,"hc-middle-lat":52.922}},{"type":"Polygon","arcs":[[-440,-641,2030,2031]],"id":"DE.NI.03257000.03257010","properties":{"hc-group":"admin3","hc-key":"de-ni-03257000-03257010","hc-a2":"HA","name":"Hagenburg","hc-middle-lon":9.313,"hc-middle-lat":52.428}},{"type":"Polygon","arcs":[[2032,2033,-776,-775,-1720,-929,-969]],"id":"DE.NI.03458000.03458014","properties":{"hc-group":"admin3","hc-key":"de-ni-03458000-03458014","hc-a2":"WI","name":"Wildeshausen","hc-middle-lon":8.396,"hc-middle-lat":52.876}},{"type":"Polygon","arcs":[[-2033,-968,-1626,2034,-767,2035]],"id":"DE.NI.03458000.03458015","properties":{"hc-group":"admin3","hc-key":"de-ni-03458000-03458015","hc-a2":"WI","name":"Winkelsett","hc-middle-lon":8.513,"hc-middle-lat":52.874}},{"type":"Polygon","arcs":[[2036,2037,2038,2039,-1185,2040]],"id":"DE.NI.03360000.03360014","properties":{"hc-group":"admin3","hc-key":"de-ni-03360000-03360014","hc-a2":"NA","name":"Natendorf","hc-middle-lon":10.496,"hc-middle-lat":53.058}},{"type":"Polygon","arcs":[[-2037,2041,-437,-436,-435,-434,-433,2042,2043]],"id":"DE.NI.03360000.03360004","properties":{"hc-group":"admin3","hc-key":"de-ni-03360000-03360004","hc-a2":"BI","name":"Bienenbüttel","hc-middle-lon":10.483,"hc-middle-lat":53.135}},{"type":"Polygon","arcs":[[-508,-507,-658,650,-932,-1719]],"id":"DE.NI.03458000.03458013","properties":{"hc-group":"admin3","hc-key":"de-ni-03458000-03458013","hc-a2":"WA","name":"Wardenburg","hc-middle-lon":8.153,"hc-middle-lat":53.049}},{"type":"Polygon","arcs":[[-1762,-1893,2044,108,-518,-517,-1930]],"id":"DE.NI.03459000.03459017","properties":{"hc-group":"admin3","hc-key":"de-ni-03459000-03459017","hc-a2":"FÜ","name":"Fürstenau","hc-middle-lon":7.696,"hc-middle-lat":52.501}},{"type":"Polygon","arcs":[[-2042,-2041,-1184,2045,-439,-438],[-1182]],"id":"DE.NI.03360000.03360010","properties":{"hc-group":"admin3","hc-key":"de-ni-03360000-03360010","hc-a2":"HA","name":"Hanstedt","hc-middle-lon":10.405,"hc-middle-lat":53.06}},{"type":"Polygon","arcs":[[360,657,790,791,792,2046,-1162,2047]],"id":"DE.NI.03451000.03451004","properties":{"hc-group":"admin3","hc-key":"de-ni-03451000-03451004","hc-a2":"ED","name":"Edewecht","hc-middle-lon":8.018,"hc-middle-lat":53.111}},{"type":"Polygon","arcs":[[516,-1545,-1551,2048]],"id":"DE.NI.03454000.03454001","properties":{"hc-group":"admin3","hc-key":"de-ni-03454000-03454001","hc-a2":"AN","name":"Andervenne","hc-middle-lon":7.59,"hc-middle-lat":52.513}},{"type":"Polygon","arcs":[[2049,824,825,826,2050,2051,2052]],"id":"DE.NI.03359000.03359035","properties":{"hc-group":"admin3","hc-key":"de-ni-03359000-03359035","hc-a2":"OE","name":"Oederquart","hc-middle-lon":9.23,"hc-middle-lat":53.784}},{"type":"Polygon","arcs":[[-2050,2053,222,2054,823]],"id":"DE.NI.03359000.03359040","properties":{"hc-group":"admin3","hc-key":"de-ni-03359000-03359040","hc-a2":"WI","name":"Wischhafen","hc-middle-lon":9.346,"hc-middle-lat":53.79}},{"type":"Polygon","arcs":[[915,892,882,2055,-1063,914],[-1060]],"id":"DE.NI.03254000.03254032","properties":{"hc-group":"admin3","hc-key":"de-ni-03254000-03254032","hc-a2":"SÖ","name":"Söhlde","hc-middle-lon":10.197,"hc-middle-lat":52.203}},{"type":"MultiPolygon","arcs":[[[-1609,-1955,-1946,2056,2057,2058]],[[-1944,2059]]],"id":"DE.NI.03256000.03256011","properties":{"hc-group":"admin3","hc-key":"de-ni-03256000-03256011","hc-a2":"HA","name":"Haßbergen","hc-middle-lon":9.216,"hc-middle-lat":52.728}},{"type":"Polygon","arcs":[[241,243,510,-765,761,242]],"id":"DE.NI.03401000.03401000","properties":{"hc-group":"admin3","hc-key":"de-ni-03401000-03401000","hc-a2":"DE","name":"Delmenhorst","hc-middle-lon":8.662,"hc-middle-lat":53.061}},{"type":"Polygon","arcs":[[-934,2060,655,656,-244,-970,-927],[-967]],"id":"DE.NI.03458000.03458005","properties":{"hc-group":"admin3","hc-key":"de-ni-03458000-03458005","hc-a2":"GA","name":"Ganderkesee","hc-middle-lon":8.523,"hc-middle-lat":53.049}},{"type":"Polygon","arcs":[[-628,-627,-834,-833,-1268,-1266,2061,-629]],"id":"DE.NI.03252000.03252002","properties":{"hc-group":"admin3","hc-key":"de-ni-03252000-03252002","hc-a2":"BM","name":"Bad Münder am Deister","hc-middle-lon":9.424,"hc-middle-lat":52.214}},{"type":"Polygon","arcs":[[627,2062,2063]],"id":"DE.NI.03257000.03257024","properties":{"hc-group":"admin3","hc-key":"de-ni-03257000-03257024","hc-a2":"ME","name":"Messenkamp","hc-middle-lon":9.398,"hc-middle-lat":52.258}},{"type":"Polygon","arcs":[[-1855,2064,-707,2065,2066,2067]],"id":"DE.NI.03358000.03358001","properties":{"hc-group":"admin3","hc-key":"de-ni-03358000-03358001","hc-a2":"A(","name":"Ahlden (Aller)","hc-middle-lon":9.474,"hc-middle-lat":52.752}},{"type":"Polygon","arcs":[[-2066,-706,2068,2069]],"id":"DE.NI.03358000.03358009","properties":{"hc-group":"admin3","hc-key":"de-ni-03358000-03358009","hc-a2":"FR","name":"Frankenfeld","hc-middle-lon":9.402,"hc-middle-lat":52.778}},{"type":"Polygon","arcs":[[-2068,2070,2071,2072,-1856]],"id":"DE.NI.03358000.03358014","properties":{"hc-group":"admin3","hc-key":"de-ni-03358000-03358014","hc-a2":"HO","name":"Hodenhagen","hc-middle-lon":9.597,"hc-middle-lat":52.76}},{"type":"Polygon","arcs":[[-2021,2073,-1497,2074,2075,-2015]],"id":"DE.NI.03241000.03241005","properties":{"hc-group":"admin3","hc-key":"de-ni-03241000-03241005","hc-a2":"GA","name":"Garbsen","hc-middle-lon":9.574,"hc-middle-lat":52.458}},{"type":"Polygon","arcs":[[-1727,2076,2077,-855,-854,2078]],"id":"DE.NI.03351000.03351018","properties":{"hc-group":"admin3","hc-key":"de-ni-03351000-03351018","hc-a2":"NI","name":"Nienhagen","hc-middle-lon":10.097,"hc-middle-lat":52.54}},{"type":"Polygon","arcs":[[35,2079,2080,-317,-1389,2081]],"id":"DE.NI.03154000.03154024","properties":{"hc-group":"admin3","hc-key":"de-ni-03154000-03154024","hc-a2":"VE","name":"Velpke","hc-middle-lon":10.95,"hc-middle-lat":52.411}},{"type":"Polygon","arcs":[[2082,2083,-634,626,-2064,2084,2085,2086]],"id":"DE.NI.03257000.03257018","properties":{"hc-group":"admin3","hc-key":"de-ni-03257000-03257018","hc-a2":"LA","name":"Lauenau","hc-middle-lon":9.433,"hc-middle-lat":52.269}},{"type":"Polygon","arcs":[[-2083,2087,2088,2089]],"id":"DE.NI.03257000.03257032","properties":{"hc-group":"admin3","hc-key":"de-ni-03257000-03257032","hc-a2":"RO","name":"Rodenberg","hc-middle-lon":9.362,"hc-middle-lat":52.311}},{"type":"Polygon","arcs":[[-2089,2090,-1438,2091,2092,2093]],"id":"DE.NI.03257000.03257007","properties":{"hc-group":"admin3","hc-key":"de-ni-03257000-03257007","hc-a2":"BE","name":"Beckedorf","hc-middle-lon":9.32,"hc-middle-lat":52.366}},{"type":"Polygon","arcs":[[-1449,-1452,2094,-442,2095,2096,2097]],"id":"DE.NI.03257000.03257030","properties":{"hc-group":"admin3","hc-key":"de-ni-03257000-03257030","hc-a2":"PO","name":"Pollhagen","hc-middle-lon":9.184,"hc-middle-lat":52.389}},{"type":"Polygon","arcs":[[-2095,-1451,-1446,88,-443]],"id":"DE.NI.03257000.03257037","properties":{"hc-group":"admin3","hc-key":"de-ni-03257000-03257037","hc-a2":"WI","name":"Wiedensahl","hc-middle-lon":9.125,"hc-middle-lat":52.391}},{"type":"MultiPolygon","arcs":[[[213,2098,2099,2100,812]],[[22,-286,-285]],[[2101,-279,-278]]],"id":"DE.NI.03155000.03155012","properties":{"hc-group":"admin3","hc-key":"de-ni-03155000-03155012","hc-a2":"US","name":"Uslar","hc-middle-lon":9.652,"hc-middle-lat":51.643}},{"type":"Polygon","arcs":[[-2100,2102,-984,2103,-980,2104,2105,2106,2107]],"id":"DE.NI.03155000.03155009","properties":{"hc-group":"admin3","hc-key":"de-ni-03155000-03155009","hc-a2":"MO","name":"Moringen","hc-middle-lon":9.862,"hc-middle-lat":51.697}},{"type":"Polygon","arcs":[[-2104,-985,-2103,-2099,214,2108,216,-282,-281,-280,-2102,-277,-276,-983,-283,-981],[-973],[-974],[-975],[-976],[-977],[-978],[-979]],"id":"DE.NI.03155000.03155501","properties":{"hc-group":"admin3","hc-key":"de-ni-03155000-03155501","hc-a2":"S(","name":"Solling (Landkreis Northeim)","hc-middle-lon":9.678,"hc-middle-lat":51.727}},{"type":"Polygon","arcs":[[2109,2110,-2086,2111]],"id":"DE.NI.03257000.03257029","properties":{"hc-group":"admin3","hc-key":"de-ni-03257000-03257029","hc-a2":"PO","name":"Pohle","hc-middle-lon":9.335,"hc-middle-lat":52.261}},{"type":"Polygon","arcs":[[-2110,2112,630,2113,2114,2115,-1441,2116,2117]],"id":"DE.NI.03257000.03257003","properties":{"hc-group":"admin3","hc-key":"de-ni-03257000-03257003","hc-a2":"AU","name":"Auetal","hc-middle-lon":9.27,"hc-middle-lat":52.241}},{"type":"Polygon","arcs":[[2118,2119,2120,2121,-1668,2122]],"id":"DE.NI.03355000.03355015","properties":{"hc-group":"admin3","hc-key":"de-ni-03355000-03355015","hc-a2":"EC","name":"Echem","hc-middle-lon":10.522,"hc-middle-lat":53.336}},{"type":"Polygon","arcs":[[-2119,2123,119,2124,2125,2126,2127]],"id":"DE.NI.03355000.03355018","properties":{"hc-group":"admin3","hc-key":"de-ni-03355000-03355018","hc-a2":"HI","name":"Hittbergen","hc-middle-lon":10.629,"hc-middle-lat":53.367}},{"type":"Polygon","arcs":[[2128,98,2129,2130,2131,2132,-1425]],"id":"DE.NI.03452000.03452009","properties":{"hc-group":"admin3","hc-key":"de-ni-03452000-03452009","hc-a2":"HA","name":"Hagermarsch","hc-middle-lon":7.285,"hc-middle-lat":53.651}},{"type":"Polygon","arcs":[[-2129,-1424,-1423,2133,2134,2135,97]],"id":"DE.NI.03452000.03452019","properties":{"hc-group":"admin3","hc-key":"de-ni-03452000-03452019","hc-a2":"NO","name":"Norden","hc-middle-lon":7.128,"hc-middle-lat":53.58}},{"type":"Polygon","arcs":[[2136,2137,-1864,-1871,2138]],"id":"DE.NI.03251000.03251038","properties":{"hc-group":"admin3","hc-key":"de-ni-03251000-03251038","hc-a2":"SU","name":"Sudwalde","hc-middle-lon":8.836,"hc-middle-lat":52.791}},{"type":"Polygon","arcs":[[-2137,2139,2140,494,2141,2142]],"id":"DE.NI.03251000.03251039","properties":{"hc-group":"admin3","hc-key":"de-ni-03251000-03251039","hc-a2":"SÜ","name":"Süstedt","hc-middle-lon":8.967,"hc-middle-lat":52.866}},{"type":"Polygon","arcs":[[-495,-494,2143,2144,-496]],"id":"DE.NI.03361000.03361004","properties":{"hc-group":"admin3","hc-key":"de-ni-03361000-03361004","hc-a2":"EM","name":"Emtinghausen","hc-middle-lon":8.968,"hc-middle-lat":52.92}},{"type":"Polygon","arcs":[[-1925,-1753,2145,2146,2147,2148,2149,2150,-2028]],"id":"DE.NI.03454000.03454047","properties":{"hc-group":"admin3","hc-key":"de-ni-03454000-03454047","hc-a2":"SÖ","name":"Sögel","hc-middle-lon":7.542,"hc-middle-lat":52.831}},{"type":"Polygon","arcs":[[-2149,2151,2152,-1251,-1290,2153]],"id":"DE.NI.03454000.03454050","properties":{"hc-group":"admin3","hc-key":"de-ni-03454000-03454050","hc-a2":"ST","name":"Stavern","hc-middle-lon":7.457,"hc-middle-lat":52.8}},{"type":"Polygon","arcs":[[-2150,-2154,-1289,2154,2155,2156,2157]],"id":"DE.NI.03454000.03454029","properties":{"hc-group":"admin3","hc-key":"de-ni-03454000-03454029","hc-a2":"LA","name":"Lathen","hc-middle-lon":7.383,"hc-middle-lat":52.843}},{"type":"Polygon","arcs":[[2158,-1273,2159,900,901,2160]],"id":"DE.NI.03357000.03357001","properties":{"hc-group":"admin3","hc-key":"de-ni-03357000-03357001","hc-a2":"AH","name":"Ahausen","hc-middle-lon":9.3,"hc-middle-lat":53.053}},{"type":"Polygon","arcs":[[-2159,2161,2162,2163,2164,-1274]],"id":"DE.NI.03357000.03357020","properties":{"hc-group":"admin3","hc-key":"de-ni-03357000-03357020","hc-a2":"HA","name":"Hassendorf","hc-middle-lon":9.27,"hc-middle-lat":53.108}},{"type":"Polygon","arcs":[[-2165,2165,-1275],[-1271]],"id":"DE.NI.03357000.03357005","properties":{"hc-group":"admin3","hc-key":"de-ni-03357000-03357005","hc-a2":"BÖ","name":"Bötersen","hc-middle-lon":9.31,"hc-middle-lat":53.159}},{"type":"Polygon","arcs":[[-2155,-1288,2166]],"id":"DE.NI.03454000.03454040","properties":{"hc-group":"admin3","hc-key":"de-ni-03454000-03454040","hc-a2":"OB","name":"Oberlangen","hc-middle-lon":7.22,"hc-middle-lat":52.845}},{"type":"Polygon","arcs":[[-1428,-1443,2167]],"id":"DE.NI.03257000.03257026","properties":{"hc-group":"admin3","hc-key":"de-ni-03257000-03257026","hc-a2":"NI","name":"Nienstädt","hc-middle-lon":9.158,"hc-middle-lat":52.294}},{"type":"Polygon","arcs":[[-1910,200,2168,2169]],"id":"DE.NI.03459000.03459020","properties":{"hc-group":"admin3","hc-key":"de-ni-03459000-03459020","hc-a2":"HA","name":"Hagen am Teutoburger Wald","hc-middle-lon":7.936,"hc-middle-lat":52.201}},{"type":"Polygon","arcs":[[-2062,-1265,2170,-632,-631,-630]],"id":"DE.NI.03252000.03252007","properties":{"hc-group":"admin3","hc-key":"de-ni-03252000-03252007","hc-a2":"HO","name":"Hessisch Oldendorf","hc-middle-lon":9.262,"hc-middle-lat":52.165}},{"type":"Polygon","arcs":[[2171,786,765,766,767,2172,2173,2174,2175]],"id":"DE.NI.03251000.03251042","properties":{"hc-group":"admin3","hc-key":"de-ni-03251000-03251042","hc-a2":"TW","name":"Twistringen","hc-middle-lon":8.577,"hc-middle-lat":52.793}},{"type":"Polygon","arcs":[[-2172,2176,2177,2178,2179,785]],"id":"DE.NI.03251000.03251005","properties":{"hc-group":"admin3","hc-key":"de-ni-03251000-03251005","hc-a2":"BA","name":"Barnstorf","hc-middle-lon":8.474,"hc-middle-lat":52.718}},{"type":"Polygon","arcs":[[-2178,2180,2181,2182,2183,2184,2185,2186,2187]],"id":"DE.NI.03251000.03251017","properties":{"hc-group":"admin3","hc-key":"de-ni-03251000-03251017","hc-a2":"EY","name":"Eydelstedt","hc-middle-lon":8.58,"hc-middle-lat":52.679}},{"type":"Polygon","arcs":[[629,-2113,-2112,-2085,-2063,628]],"id":"DE.NI.03257000.03257017","properties":{"hc-group":"admin3","hc-key":"de-ni-03257000-03257017","hc-a2":"HÜ","name":"Hülsede","hc-middle-lon":9.322,"hc-middle-lat":52.219}},{"type":"Polygon","arcs":[[-2090,-2094,2188,2189,-639,2190,2191,2192,-636,-635,-2084]],"id":"DE.NI.03257000.03257006","properties":{"hc-group":"admin3","hc-key":"de-ni-03257000-03257006","hc-a2":"BN","name":"Bad Nenndorf","hc-middle-lon":9.328,"hc-middle-lat":52.349}},{"type":"Polygon","arcs":[[-2147,2193,2194,2195]],"id":"DE.NI.03454000.03454023","properties":{"hc-group":"admin3","hc-key":"de-ni-03454000-03454023","hc-a2":"HÜ","name":"Hüven","hc-middle-lon":7.559,"hc-middle-lat":52.782}},{"type":"Polygon","arcs":[[633,634,-2019,-2018,2196,2197,2198,833]],"id":"DE.NI.03241000.03241002","properties":{"hc-group":"admin3","hc-key":"de-ni-03241000-03241002","hc-a2":"BA","name":"Barsinghausen","hc-middle-lon":9.488,"hc-middle-lat":52.328}},{"type":"Polygon","arcs":[[-2199,2199,2200,2201,2202,-920,-919,830,831,832]],"id":"DE.NI.03241000.03241017","properties":{"hc-group":"admin3","hc-key":"de-ni-03241000-03241017","hc-a2":"SP","name":"Springe","hc-middle-lon":9.57,"hc-middle-lat":52.197}},{"type":"Polygon","arcs":[[371,2203,2204,2205]],"id":"DE.NI.03357000.03357025","properties":{"hc-group":"admin3","hc-key":"de-ni-03357000-03357025","hc-a2":"HE","name":"Hemslingen","hc-middle-lon":9.601,"hc-middle-lat":53.085}},{"type":"MultiPolygon","arcs":[[[-2087,-2111,-2118,-1439,-2091,-2088]],[[2116,1439]]],"id":"DE.NI.03257000.03257002","properties":{"hc-group":"admin3","hc-key":"de-ni-03257000-03257002","hc-a2":"AP","name":"Apelern","hc-middle-lon":9.305,"hc-middle-lat":52.301}},{"type":"MultiPolygon","arcs":[[[-1938,2206]],[[-1956,-1940,-710,2207,2208]]],"id":"DE.NI.03256000.03256009","properties":{"hc-group":"admin3","hc-key":"de-ni-03256000-03256009","hc-a2":"HÄ","name":"Hämelhausen","hc-middle-lon":9.279,"hc-middle-lat":52.779}},{"type":"Polygon","arcs":[[-498,2209,2210,2211,714,-499]],"id":"DE.NI.03361000.03361002","properties":{"hc-group":"admin3","hc-key":"de-ni-03361000-03361002","hc-a2":"BL","name":"Blender","hc-middle-lon":9.135,"hc-middle-lat":52.929}},{"type":"Polygon","arcs":[[497,2212,2213,-2142,495,496]],"id":"DE.NI.03251000.03251033","properties":{"hc-group":"admin3","hc-key":"de-ni-03251000-03251033","hc-a2":"SC","name":"Schwarme","hc-middle-lon":9.047,"hc-middle-lat":52.918}},{"type":"Polygon","arcs":[[-2214,2214,-302,-301,-1005,2215,-1866,-1865,-2138,-2143],[-1002]],"id":"DE.NI.03251000.03251048","properties":{"hc-group":"admin3","hc-key":"de-ni-03251000-03251048","hc-a2":"BV","name":"Bruchhausen-Vilsen","hc-middle-lon":8.956,"hc-middle-lat":52.811}},{"type":"Polygon","arcs":[[-2215,-2213,498,-304,-303]],"id":"DE.NI.03251000.03251026","properties":{"hc-group":"admin3","hc-key":"de-ni-03251000-03251026","hc-a2":"MA","name":"Martfeld","hc-middle-lon":9.093,"hc-middle-lat":52.856}},{"type":"Polygon","arcs":[[-861,2216,2217,2218,2219]],"id":"DE.NI.03351000.03351013","properties":{"hc-group":"admin3","hc-key":"de-ni-03351000-03351013","hc-a2":"HE","name":"Hermannsburg","hc-middle-lon":10.107,"hc-middle-lat":52.824}},{"type":"Polygon","arcs":[[860,861,862,2220,2221,2222,2223,859]],"id":"DE.NI.03358000.03358023","properties":{"hc-group":"admin3","hc-key":"de-ni-03358000-03358023","hc-a2":"WI","name":"Wietzendorf","hc-middle-lon":9.98,"hc-middle-lat":52.929}},{"type":"Polygon","arcs":[[-863,2224,2225,-864]],"id":"DE.NI.03351000.03351501","properties":{"hc-group":"admin3","hc-key":"de-ni-03351000-03351501","hc-a2":"LO","name":"Lohheide","hc-middle-lon":9.842,"hc-middle-lat":52.797}},{"type":"Polygon","arcs":[[-549,-548,2226,2227,2228,-805]],"id":"DE.NI.03152000.03152002","properties":{"hc-group":"admin3","hc-key":"de-ni-03152000-03152002","hc-a2":"BI","name":"Bilshausen","hc-middle-lon":10.158,"hc-middle-lat":51.63}},{"type":"Polygon","arcs":[[548,-553,2229,2230,545,2231]],"id":"DE.NI.03156000.03156015","properties":{"hc-group":"admin3","hc-key":"de-ni-03156000-03156015","hc-a2":"WA","name":"Wulften am Harz","hc-middle-lon":10.19,"hc-middle-lat":51.655}},{"type":"Polygon","arcs":[[530,531,532,2232,2233]],"id":"DE.NI.03254000.03254036","properties":{"hc-group":"admin3","hc-key":"de-ni-03254000-03254036","hc-a2":"CO","name":"Coppengrave","hc-middle-lon":9.736,"hc-middle-lat":51.987}},{"type":"Polygon","arcs":[[-640,-2190,2234,2235,-2031]],"id":"DE.NI.03257000.03257004","properties":{"hc-group":"admin3","hc-key":"de-ni-03257000-03257004","hc-a2":"AU","name":"Auhagen","hc-middle-lon":9.297,"hc-middle-lat":52.396}},{"type":"Polygon","arcs":[[178,505,-241,-240,2236,2237,2238,2239,2240]],"id":"DE.NI.03457000.03457014","properties":{"hc-group":"admin3","hc-key":"de-ni-03457000-03457014","hc-a2":"MO","name":"Moormerland","hc-middle-lon":7.43,"hc-middle-lat":53.322}},{"type":"Polygon","arcs":[[-1555,-1677,2241,-1558]],"id":"DE.NI.03454000.03454038","properties":{"hc-group":"admin3","hc-key":"de-ni-03454000-03454038","hc-a2":"NE","name":"Neulehe","hc-middle-lon":7.453,"hc-middle-lat":53.01}},{"type":"Polygon","arcs":[[-2242,-1676,-1578,-1559]],"id":"DE.NI.03454000.03454030","properties":{"hc-group":"admin3","hc-key":"de-ni-03454000-03454030","hc-a2":"LE","name":"Lehe","hc-middle-lon":7.353,"hc-middle-lat":53}},{"type":"Polygon","arcs":[[-1587,2242,2243,2244,-1596,-1589]],"id":"DE.NI.03354000.03354013","properties":{"hc-group":"admin3","hc-key":"de-ni-03354000-03354013","hc-a2":"KÜ","name":"Küsten","hc-middle-lon":11.099,"hc-middle-lat":52.994}},{"type":"Polygon","arcs":[[-1388,-321,34,-2082]],"id":"DE.NI.03154000.03154007","properties":{"hc-group":"admin3","hc-key":"de-ni-03154000-03154007","hc-a2":"GR","name":"Grafhorst","hc-middle-lon":10.94,"hc-middle-lat":52.445}},{"type":"Polygon","arcs":[[-574,-573,-572,-571,-570,-569,-1814]],"id":"DE.NI.03154000.03154501","properties":{"hc-group":"admin3","hc-key":"de-ni-03154000-03154501","hc-a2":"BR","name":"Brunsleberfeld","hc-middle-lon":10.845,"hc-middle-lat":52.187}},{"type":"MultiPolygon","arcs":[[[-952,-1923,-1825,-1915]],[[-1821,2245,2246,-1917]],[[-1823,-1916]]],"id":"DE.NI.03353000.03353006","properties":{"hc-group":"admin3","hc-key":"de-ni-03353000-03353006","hc-a2":"DO","name":"Dohren","hc-middle-lon":9.705,"hc-middle-lat":53.317}},{"type":"Polygon","arcs":[[-446,2247,-857,2248,2249,2250]],"id":"DE.NI.03351000.03351005","properties":{"hc-group":"admin3","hc-key":"de-ni-03351000-03351005","hc-a2":"BR","name":"Bröckel","hc-middle-lon":10.256,"hc-middle-lat":52.513}},{"type":"Polygon","arcs":[[-2077,-1726,-1737,2251,2252,2253,2254,2255]],"id":"DE.NI.03351000.03351022","properties":{"hc-group":"admin3","hc-key":"de-ni-03351000-03351022","hc-a2":"WI","name":"Wienhausen","hc-middle-lon":10.134,"hc-middle-lat":52.583}},{"type":"MultiPolygon","arcs":[[[2256,2257,-452,-451,2258,-2253]],[[-449,2259]]],"id":"DE.NI.03351000.03351015","properties":{"hc-group":"admin3","hc-key":"de-ni-03351000-03351015","hc-a2":"HO","name":"Hohne","hc-middle-lon":10.362,"hc-middle-lat":52.597}},{"type":"Polygon","arcs":[[-2257,-2252,-1736,2260]],"id":"DE.NI.03351000.03351002","properties":{"hc-group":"admin3","hc-key":"de-ni-03351000-03351002","hc-a2":"AH","name":"Ahnsbeck","hc-middle-lon":10.294,"hc-middle-lat":52.611}},{"type":"MultiPolygon","arcs":[[[-2251,2261,-2254,-2259,-450,-2260,-448,-447]],[[-445,-858,-2248]]],"id":"DE.NI.03351000.03351017","properties":{"hc-group":"admin3","hc-key":"de-ni-03351000-03351017","hc-a2":"LA","name":"Langlingen","hc-middle-lon":10.272,"hc-middle-lat":52.539}},{"type":"Polygon","arcs":[[-2059,2262,2263,2264,2265,-1610]],"id":"DE.NI.03256000.03256001","properties":{"hc-group":"admin3","hc-key":"de-ni-03256000-03256001","hc-a2":"BA","name":"Balge","hc-middle-lon":9.197,"hc-middle-lat":52.712}},{"type":"Polygon","arcs":[[-2262,-2250,2266,-2255]],"id":"DE.NI.03351000.03351007","properties":{"hc-group":"admin3","hc-key":"de-ni-03351000-03351007","hc-a2":"EI","name":"Eicklingen","hc-middle-lon":10.254,"hc-middle-lat":52.533}},{"type":"Polygon","arcs":[[-2266,2267,2268,2269,2270,295,296,297,-1612,-1611]],"id":"DE.NI.03256000.03256036","properties":{"hc-group":"admin3","hc-key":"de-ni-03256000-03256036","hc-a2":"WI","name":"Wietzen","hc-middle-lon":9.045,"hc-middle-lat":52.686}},{"type":"Polygon","arcs":[[2271,-596,-595,2272]],"id":"DE.NI.03357000.03357002","properties":{"hc-group":"admin3","hc-key":"de-ni-03357000-03357002","hc-a2":"AL","name":"Alfstedt","hc-middle-lon":9.062,"hc-middle-lat":53.553}},{"type":"Polygon","arcs":[[-2272,2273,2274,2275,-601,-600,-599,-598,-597]],"id":"DE.NI.03357000.03357012","properties":{"hc-group":"admin3","hc-key":"de-ni-03357000-03357012","hc-a2":"EB","name":"Ebersdorf","hc-middle-lon":8.989,"hc-middle-lat":53.535}},{"type":"MultiPolygon","arcs":[[[262,263,264,265,2276,2277,2278,2279,2280,2281,395]],[[2282,2283,2284]],[[2285,2285,2285]]],"id":"DE.NI.03254000.03254008","properties":{"hc-group":"admin3","hc-key":"de-ni-03254000-03254008","hc-a2":"BO","name":"Bockenem","hc-middle-lon":10.112,"hc-middle-lat":52.008}},{"type":"Polygon","arcs":[[-263,-729,2286,-727,-731,2287,2288]],"id":"DE.NI.03153000.03153014","properties":{"hc-group":"admin3","hc-key":"de-ni-03153000-03153014","hc-a2":"WA","name":"Wallmoden","hc-middle-lon":10.233,"hc-middle-lat":51.995}},{"type":"Polygon","arcs":[[2289,2290,2291,618,813,814,815]],"id":"DE.NI.03359000.03359029","properties":{"hc-group":"admin3","hc-key":"de-ni-03359000-03359029","hc-a2":"KR","name":"Kranenburg","hc-middle-lon":9.192,"hc-middle-lat":53.602}},{"type":"Polygon","arcs":[[-2290,816,2292,2293]],"id":"DE.NI.03359000.03359009","properties":{"hc-group":"admin3","hc-key":"de-ni-03359000-03359009","hc-a2":"BU","name":"Burweg","hc-middle-lon":9.292,"hc-middle-lat":53.629}},{"type":"Polygon","arcs":[[-1876,2294,2295,2296,2297,2298,2299]],"id":"DE.NI.03359000.03359027","properties":{"hc-group":"admin3","hc-key":"de-ni-03359000-03359027","hc-a2":"HO","name":"Horneburg","hc-middle-lon":9.561,"hc-middle-lat":53.51}},{"type":"MultiPolygon","arcs":[[[-2231,2300,2301,2302,-1226,543,544]],[[547,-2232,546]]],"id":"DE.NI.03156000.03156008","properties":{"hc-group":"admin3","hc-key":"de-ni-03156000-03156008","hc-a2":"HA","name":"Hattorf am Harz","hc-middle-lon":10.229,"hc-middle-lat":51.66}},{"type":"Polygon","arcs":[[-544,-543,-1350,-541,-1349,2303,2304]],"id":"DE.NI.03152000.03152029","properties":{"hc-group":"admin3","hc-key":"de-ni-03152000-03152029","hc-a2":"WO","name":"Wollershausen","hc-middle-lon":10.257,"hc-middle-lat":51.606}},{"type":"Polygon","arcs":[[2305,112,340,341,342,-1774]],"id":"DE.NI.03454000.03454045","properties":{"hc-group":"admin3","hc-key":"de-ni-03454000-03454045","hc-a2":"SA","name":"Salzbergen","hc-middle-lon":7.358,"hc-middle-lat":52.292}},{"type":"Polygon","arcs":[[-2306,-1773,-1703,-1775,-1699,2306,111]],"id":"DE.NI.03454000.03454049","properties":{"hc-group":"admin3","hc-key":"de-ni-03454000-03454049","hc-a2":"SP","name":"Spelle","hc-middle-lon":7.482,"hc-middle-lat":52.356}},{"type":"Polygon","arcs":[[-1936,2307,2308,2309,2310]],"id":"DE.NI.03256000.03256014","properties":{"hc-group":"admin3","hc-key":"de-ni-03256000-03256014","hc-a2":"HO","name":"Hoya","hc-middle-lon":9.151,"hc-middle-lat":52.808}},{"type":"Polygon","arcs":[[2311,2312,2313,-2157,2314]],"id":"DE.NI.03454000.03454013","properties":{"hc-group":"admin3","hc-key":"de-ni-03454000-03454013","hc-a2":"FR","name":"Fresenburg","hc-middle-lon":7.332,"hc-middle-lat":52.887}},{"type":"Polygon","arcs":[[-2312,2315,-1286,168,2316,2317]],"id":"DE.NI.03454000.03454052","properties":{"hc-group":"admin3","hc-key":"de-ni-03454000-03454052","hc-a2":"SU","name":"Sustrum","hc-middle-lon":7.136,"hc-middle-lat":52.895}},{"type":"Polygon","arcs":[[-2024,-2030,2318,2319,-1673]],"id":"DE.NI.03454000.03454060","properties":{"hc-group":"admin3","hc-key":"de-ni-03454000-03454060","hc-a2":"WI","name":"Wippingen","hc-middle-lon":7.414,"hc-middle-lat":52.92}},{"type":"Polygon","arcs":[[-2169,201,-258,2320]],"id":"DE.NI.03459000.03459021","properties":{"hc-group":"admin3","hc-key":"de-ni-03459000-03459021","hc-a2":"HA","name":"Hasbergen","hc-middle-lon":7.93,"hc-middle-lat":52.254}},{"type":"Polygon","arcs":[[-946,2321,742,743,2322,2323,2324]],"id":"DE.NI.03459000.03459007","properties":{"hc-group":"admin3","hc-key":"de-ni-03459000-03459007","hc-a2":"BA","name":"Badbergen","hc-middle-lon":8.014,"hc-middle-lat":52.634}},{"type":"Polygon","arcs":[[2325,-1244,2326,2327]],"id":"DE.NI.03352000.03352043","properties":{"hc-group":"admin3","hc-key":"de-ni-03352000-03352043","hc-a2":"OD","name":"Odisheim","hc-middle-lon":8.938,"hc-middle-lat":53.696}},{"type":"Polygon","arcs":[[-2326,2328,2329,2330,2331,-1246,-1245]],"id":"DE.NI.03352000.03352025","properties":{"hc-group":"admin3","hc-key":"de-ni-03352000-03352025","hc-a2":"IH","name":"Ihlienworth","hc-middle-lon":8.895,"hc-middle-lat":53.73}},{"type":"Polygon","arcs":[[-2179,-2188,2332,2333,2334,2335]],"id":"DE.NI.03251000.03251011","properties":{"hc-group":"admin3","hc-key":"de-ni-03251000-03251011","hc-a2":"DI","name":"Dickel","hc-middle-lon":8.457,"hc-middle-lat":52.646}},{"type":"Polygon","arcs":[[2336,-2052,2337,220]],"id":"DE.NI.03359000.03359030","properties":{"hc-group":"admin3","hc-key":"de-ni-03359000-03359030","hc-a2":"KR","name":"Krummendeich","hc-middle-lon":9.213,"hc-middle-lat":53.857}},{"type":"Polygon","arcs":[[-2337,221,-2054,-2053]],"id":"DE.NI.03359000.03359018","properties":{"hc-group":"admin3","hc-key":"de-ni-03359000-03359018","hc-a2":"F(","name":"Freiburg (Elbe)","hc-middle-lon":9.26,"hc-middle-lat":53.859}},{"type":"Polygon","arcs":[[-2334,2338,2339,2340]],"id":"DE.NI.03251000.03251030","properties":{"hc-group":"admin3","hc-key":"de-ni-03251000-03251030","hc-a2":"RE","name":"Rehden","hc-middle-lon":8.481,"hc-middle-lat":52.587}},{"type":"Polygon","arcs":[[-1698,-1627,-1542,110,-2307]],"id":"DE.NI.03454000.03454046","properties":{"hc-group":"admin3","hc-key":"de-ni-03454000-03454046","hc-a2":"SC","name":"Schapen","hc-middle-lon":7.533,"hc-middle-lat":52.379}},{"type":"Polygon","arcs":[[818,2341,-1191,2342],[-1189]],"id":"DE.NI.03359000.03359015","properties":{"hc-group":"admin3","hc-key":"de-ni-03359000-03359015","hc-a2":"EN","name":"Engelschoff","hc-middle-lon":9.342,"hc-middle-lat":53.645}},{"type":"Polygon","arcs":[[-819,-818,-817,-816,2343,2344,-820]],"id":"DE.NI.03352000.03352020","properties":{"hc-group":"admin3","hc-key":"de-ni-03352000-03352020","hc-a2":"HE","name":"Hechthausen","hc-middle-lon":9.224,"hc-middle-lat":53.642}},{"type":"Polygon","arcs":[[-1764,-1087,-1912,2345,-1175,2346,2347]],"id":"DE.NI.03459000.03459022","properties":{"hc-group":"admin3","hc-key":"de-ni-03459000-03459022","hc-a2":"HA","name":"Hilter am Teutoburger Wald","hc-middle-lon":8.198,"hc-middle-lat":52.183}},{"type":"MultiPolygon","arcs":[[[2348,2349,-1054]],[[2350,-1052,2351]]],"id":"DE.NI.03255000.03255505","properties":{"hc-group":"admin3","hc-key":"de-ni-03255000-03255505","hc-a2":"HO","name":"Holzminden","hc-middle-lon":9.514,"hc-middle-lat":51.823}},{"type":"Polygon","arcs":[[-2349,-1053,-2351,2352,-1219,2353,273,2354,2355,2356],[-1047],[-1217],[-1218]],"id":"DE.NI.03255000.03255506","properties":{"hc-group":"admin3","hc-key":"de-ni-03255000-03255506","hc-a2":"ME","name":"Merxhausen","hc-middle-lon":9.599,"hc-middle-lat":51.81}},{"type":"MultiPolygon","arcs":[[[281,202,2357,2358,2359,-1094]],[[2360,2361,-1091,-1090]]],"id":"DE.NI.03255000.03255026","properties":{"hc-group":"admin3","hc-key":"de-ni-03255000-03255026","hc-a2":"LA","name":"Lauenförde","hc-middle-lon":9.406,"hc-middle-lat":51.653}},{"type":"Polygon","arcs":[[2362,-2359,2363,-1067,205,2364,-1092,2365,2366,2367],[-1066],[-1089]],"id":"DE.NI.03255000.03255501","properties":{"hc-group":"admin3","hc-key":"de-ni-03255000-03255501","hc-a2":"BO","name":"Boffzen","hc-middle-lon":9.43,"hc-middle-lat":51.74}},{"type":"Polygon","arcs":[[2368,2369,86,-1445,2370,2371,2372,2373]],"id":"DE.NI.03257000.03257009","properties":{"hc-group":"admin3","hc-key":"de-ni-03257000-03257009","hc-a2":"BÜ","name":"Bückeburg","hc-middle-lon":9.018,"hc-middle-lat":52.312}},{"type":"Polygon","arcs":[[-2369,2374,2375,2376,2377]],"id":"DE.NI.03257000.03257005","properties":{"hc-group":"admin3","hc-key":"de-ni-03257000-03257005","hc-a2":"BE","name":"Bad Eilsen","hc-middle-lon":9.097,"hc-middle-lat":52.243}},{"type":"Polygon","arcs":[[-2299,2378,-1166,2379,2380]],"id":"DE.NI.03359000.03359012","properties":{"hc-group":"admin3","hc-key":"de-ni-03359000-03359012","hc-a2":"DO","name":"Dollern","hc-middle-lon":9.537,"hc-middle-lat":53.538}},{"type":"MultiPolygon","arcs":[[[2381,2382,2383,-397,-413,2384,2385,-411,74,2386,2387,-1233],[-1231]],[[2388,-1236,2389]],[[-404,-403,-402,-401,2390,-1229,2391,2392,-1679,-1685,2393,-405],[-1223],[-1224],[-1225]]],"id":"DE.NI.03156000.03156501","properties":{"hc-group":"admin3","hc-key":"de-ni-03156000-03156501","hc-a2":"H(","name":"Harz (Landkreis Osterode)","hc-middle-lon":10.431,"hc-middle-lat":51.735}},{"type":"Polygon","arcs":[[-2382,-1232,-2389,2394]],"id":"DE.NI.03156000.03156013","properties":{"hc-group":"admin3","hc-key":"de-ni-03156000-03156013","hc-a2":"WI","name":"Wieda","hc-middle-lon":10.579,"hc-middle-lat":51.632}},{"type":"Polygon","arcs":[[-1979,2395,-1815,-1399,2396,-1338]],"id":"DE.NI.03154000.03154021","properties":{"hc-group":"admin3","hc-key":"de-ni-03154000-03154021","hc-a2":"SÜ","name":"Süpplingen","hc-middle-lon":10.905,"hc-middle-lat":52.231}},{"type":"Polygon","arcs":[[-964,2397,2398,2399,-2288,-730,391,392]],"id":"DE.NI.03153000.03153008","properties":{"hc-group":"admin3","hc-key":"de-ni-03153000-03153008","hc-a2":"LI","name":"Liebenburg","hc-middle-lon":10.404,"hc-middle-lat":51.994}},{"type":"Polygon","arcs":[[-1526,2400,2401]],"id":"DE.NI.03255000.03255010","properties":{"hc-group":"admin3","hc-key":"de-ni-03255000-03255010","hc-a2":"DI","name":"Dielmissen","hc-middle-lon":9.606,"hc-middle-lat":51.967}},{"type":"Polygon","arcs":[[2402,2403,2404,2405,2406]],"id":"DE.NI.03152000.03152025","properties":{"hc-group":"admin3","hc-key":"de-ni-03152000-03152025","hc-a2":"SE","name":"Seulingen","hc-middle-lon":10.152,"hc-middle-lat":51.537}},{"type":"Polygon","arcs":[[-2403,2407,2408,2409,2410,2411]],"id":"DE.NI.03152000.03152015","properties":{"hc-group":"admin3","hc-key":"de-ni-03152000-03152015","hc-a2":"LA","name":"Landolfshausen","hc-middle-lon":10.131,"hc-middle-lat":51.537}},{"type":"Polygon","arcs":[[-2411,2412,2413,-808,2414,2415]],"id":"DE.NI.03152000.03152008","properties":{"hc-group":"admin3","hc-key":"de-ni-03152000-03152008","hc-a2":"EB","name":"Ebergötzen","hc-middle-lon":10.088,"hc-middle-lat":51.581}},{"type":"Polygon","arcs":[[-2308,-1935,-1606,-1613,299,300,2416]],"id":"DE.NI.03256000.03256003","properties":{"hc-group":"admin3","hc-key":"de-ni-03256000-03256003","hc-a2":"BÜ","name":"Bücken","hc-middle-lon":9.117,"hc-middle-lat":52.779}},{"type":"Polygon","arcs":[[301,302,2417,-2309,-2417]],"id":"DE.NI.03256000.03256015","properties":{"hc-group":"admin3","hc-key":"de-ni-03256000-03256015","hc-a2":"HO","name":"Hoyerhagen","hc-middle-lon":9.083,"hc-middle-lat":52.828}},{"type":"Polygon","arcs":[[-2418,303,-715,-714,-713,2418,-2310]],"id":"DE.NI.03256000.03256013","properties":{"hc-group":"admin3","hc-key":"de-ni-03256000-03256013","hc-a2":"HI","name":"Hilgermissen","hc-middle-lon":9.116,"hc-middle-lat":52.846}},{"type":"Polygon","arcs":[[712,2419,2420,876,877,708,709,710,711]],"id":"DE.NI.03361000.03361003","properties":{"hc-group":"admin3","hc-key":"de-ni-03361000-03361003","hc-a2":"DÖ","name":"Dörverden","hc-middle-lon":9.215,"hc-middle-lat":52.865}},{"type":"Polygon","arcs":[[-1507,-1506,-1049,2421,-1523]],"id":"DE.NI.03255000.03255015","properties":{"hc-group":"admin3","hc-key":"de-ni-03255000-03255015","hc-a2":"GO","name":"Golmbach","hc-middle-lon":9.552,"hc-middle-lat":51.92}},{"type":"MultiPolygon","arcs":[[[-1939,-2207,-1937,-2311,-2419,-712]],[[-2208,-709,702,2422]]],"id":"DE.NI.03256000.03256010","properties":{"hc-group":"admin3","hc-key":"de-ni-03256000-03256010","hc-a2":"H(","name":"Hassel (Weser)","hc-middle-lon":9.237,"hc-middle-lat":52.805}},{"type":"Polygon","arcs":[[-694,386,-391,388,-681,-680,2423,2424,2425,385]],"id":"DE.NI.03355000.03355029","properties":{"hc-group":"admin3","hc-key":"de-ni-03355000-03355029","hc-a2":"RE","name":"Rehlingen","hc-middle-lon":10.125,"hc-middle-lat":53.075}},{"type":"Polygon","arcs":[[693,383,858,-2224,2426,2427,680,389,390,387]],"id":"DE.NI.03358000.03358016","properties":{"hc-group":"admin3","hc-key":"de-ni-03358000-03358016","hc-a2":"MU","name":"Munster","hc-middle-lon":10.106,"hc-middle-lat":52.985}},{"type":"Polygon","arcs":[[-1603,2428,2429,2430,2431,919,920]],"id":"DE.NI.03254000.03254026","properties":{"hc-group":"admin3","hc-key":"de-ni-03254000-03254026","hc-a2":"NO","name":"Nordstemmen","hc-middle-lon":9.777,"hc-middle-lat":52.164}},{"type":"Polygon","arcs":[[-2429,-1602,-1601,2432]],"id":"DE.NI.03254000.03254017","properties":{"hc-group":"admin3","hc-key":"de-ni-03254000-03254017","hc-a2":"GI","name":"Giesen","hc-middle-lon":9.931,"hc-middle-lat":52.202}},