{"type":"Topology","objects":{"default":{"type":"GeometryCollection","geometries":[{"type":"MultiPolygon","arcs":[[[0]],[[15,16,181,182,183,-64]]],"id":"FR.E.MB","properties":{"hc-group":"admin2","hc-key":"fr-e-mb","hc-a2":"MB","labelrank":"3","hasc":"FR.MB","alt-name":"Bretaña|Brittany","woe-id":"12591798","subregion":null,"fips":"FRA2","name":"Morbihan","type":"Metropolitan department","region":"Bretagne","longitude":"-2.89359","woe-name":"Morbihan","latitude":"47.8699","woe-label":null,"hc-middle-lon":-2.65,"hc-middle-lat":47.82}},{"type":"MultiPolygon","arcs":[[[1]],[[184,-108,-107,23,185]]],"id":"FR.R.VD","properties":{"hc-group":"admin2","hc-key":"fr-r-vd","hc-a2":"VD","labelrank":"3","hasc":"FR.VD","alt-name":null,"woe-id":"12597200","subregion":null,"fips":"FRA5","name":"Vendée","type":"Metropolitan department","region":"Pays de la Loire","longitude":"-1.31827","woe-name":"Vendée","latitude":"46.6893","woe-label":null,"hc-middle-lon":-1.215,"hc-middle-lat":46.679}},{"type":"Polygon","arcs":[[39,186,136,137,138,187]],"id":"FR.K.AD","properties":{"hc-group":"admin2","hc-key":"fr-k-ad","hc-a2":"AD","labelrank":"3","hasc":"FR.AD","alt-name":"Languedoc-Rosellon","woe-id":"12597198","subregion":null,"fips":"FRA9","name":"Aude","type":"Metropolitan department","region":"Languedoc-Roussillon","longitude":"2.48157","woe-name":"Aude","latitude":"43.1004","woe-label":null,"hc-middle-lon":2.505,"hc-middle-lat":43.142}},{"type":"MultiPolygon","arcs":[[[2]],[[188,67,-123,-122,189]]],"id":"FR.U.VC","properties":{"hc-group":"admin2","hc-key":"fr-u-vc","hc-a2":"VC","labelrank":"3","hasc":"FR.VC","alt-name":"Provenza-Alpes-Costa de Azul","woe-id":"12597203","subregion":null,"fips":"FRB8","name":"Vaucluse","type":"Metropolitan department","region":"Provence-Alpes-Côte-d'Azur","longitude":"5.21543","woe-name":"Vaucluse","latitude":"43.9981","woe-label":null,"hc-middle-lon":5.196,"hc-middle-lat":44.01}},{"type":"Polygon","arcs":[[190,-100,-99,97,155,191]],"id":"FR.G.HM","properties":{"hc-group":"admin2","hc-key":"fr-g-hm","hc-a2":"HM","labelrank":"3","hasc":"FR.HM","alt-name":"Champaña-Ardenne","woe-id":"12597145","subregion":null,"fips":"FRA4","name":"Haute-Marne","type":"Metropolitan department","region":"Champagne-Ardenne","longitude":"5.24076","woe-name":"Haute-Marne","latitude":"48.1552","woe-label":null,"hc-middle-lon":5.239,"hc-middle-lat":48.074}},{"type":"Polygon","arcs":[[-191,192,-70,-126,193,172]],"id":"FR.G.MR","properties":{"hc-group":"admin2","hc-key":"fr-g-mr","hc-a2":"MR","labelrank":"3","hasc":"FR.MR","alt-name":"Champaña-Ardenne","woe-id":"12597123","subregion":null,"fips":"FRA4","name":"Marne","type":"Metropolitan department","region":"Champagne-Ardenne","longitude":"4.26395","woe-name":"Marne","latitude":"49.022","woe-label":null,"hc-middle-lon":4.363,"hc-middle-lat":48.943}},{"type":"MultiPolygon","arcs":[[[194]],[[-73,195,12,-74]]],"id":"FR.O.NO","properties":{"hc-group":"admin2","hc-key":"fr-o-no","hc-a2":"NO","labelrank":"3","hasc":"FR.NO","alt-name":null,"woe-id":"12597168","subregion":null,"fips":"FRB4","name":"Nord","type":"Metropolitan department","region":"Nord-Pas-de-Calais","longitude":"3.22709","woe-name":"Nord","latitude":"50.403","woe-label":null,"hc-middle-lon":3.508,"hc-middle-lat":50.257}},{"type":"MultiPolygon","arcs":[[[3]],[[4]],[[14,81,196,197]]],"id":"FR.N.HP","properties":{"hc-group":"admin2","hc-key":"fr-n-hp","hc-a2":"HP","labelrank":"3","hasc":"FR.HP","alt-name":null,"woe-id":"12597169","subregion":null,"fips":"FRB3","name":"Hautes-Pyrénées","type":"Metropolitan department","region":"Midi-Pyrénées","longitude":"0.13923","woe-name":"Hautes-Pyrénées","latitude":"43.0599","woe-label":null,"hc-middle-lon":0.19,"hc-middle-lat":43.017}},{"type":"Polygon","arcs":[[-78,198,199,200,92,93]],"id":"FR.F.IN","properties":{"hc-group":"admin2","hc-key":"fr-f-in","hc-a2":"IN","labelrank":"3","hasc":"FR.IN","alt-name":null,"woe-id":"12597125","subregion":null,"fips":"FRA3","name":"Indre","type":"Metropolitan department","region":"Centre","longitude":"1.61636","woe-name":"Indre","latitude":"46.8003","woe-label":null,"hc-middle-lon":1.523,"hc-middle-lat":46.726}},{"type":"Polygon","arcs":[[77,148,201,202,-175,78]],"id":"FR.T.VN","properties":{"hc-group":"admin2","hc-key":"fr-t-vn","hc-a2":"VN","labelrank":"3","hasc":"FR.VN","alt-name":null,"woe-id":"12597161","subregion":null,"fips":"FRB7","name":"Vienne","type":"Metropolitan department","region":"Poitou-Charentes","longitude":"0.412746","woe-name":"Vienne","latitude":"46.5338","woe-label":null,"hc-middle-lon":0.492,"hc-middle-lat":46.466}},{"type":"Polygon","arcs":[[-146,-148,-147,-81,203,204,-151,47]],"id":"FR.B.DD","properties":{"hc-group":"admin2","hc-key":"fr-b-dd","hc-a2":"DD","labelrank":"3","hasc":"FR.DD","alt-name":null,"woe-id":"12597122","subregion":null,"fips":"FR97","name":"Dordogne","type":"Metropolitan department","region":"Aquitaine","longitude":"0.780505","woe-name":"Dordogne","latitude":"45.1592","woe-label":null,"hc-middle-lon":0.788,"hc-middle-lat":45.073}},{"type":"MultiPolygon","arcs":[[[-48,150,151,48,106,205,206,207,208,209]],[[5]],[[6]]],"id":"FR.T.CM","properties":{"hc-group":"admin2","hc-key":"fr-t-cm","hc-a2":"CM","labelrank":"3","hasc":"FR.CM","alt-name":null,"woe-id":"12597189","subregion":null,"fips":"FRB7","name":"Charente-Maritime","type":"Metropolitan department","region":"Poitou-Charentes","longitude":"-0.714301","woe-name":"Charente-Maritime","latitude":"45.8441","woe-label":null,"hc-middle-lon":-0.715,"hc-middle-lat":45.806}},{"type":"Polygon","arcs":[[210,211,27]],"id":"FR.U.AM","properties":{"hc-group":"admin2","hc-key":"fr-u-am","hc-a2":"AM","labelrank":"3","hasc":"FR.AM","alt-name":"Provenza-Alpes-Costa de Azul","woe-id":"12591800","subregion":null,"fips":"FRB8","name":"Alpes-Maritimes","type":"Metropolitan department","region":"Provence-Alpes-Côte-d'Azur","longitude":"7.18651","woe-name":"Alpes-Maritimes","latitude":"43.8699","woe-label":null,"hc-middle-lon":7.086,"hc-middle-lat":43.875}},{"type":"MultiPolygon","arcs":[[[-211,28,212,213,214,215,216,217]],[[218,218,218]]],"id":"FR.U.VR","properties":{"hc-group":"admin2","hc-key":"fr-u-vr","hc-a2":"VR","labelrank":"3","hasc":"FR.VR","alt-name":"Provenza-Alpes-Costa de Azul","woe-id":"12597187","subregion":null,"fips":"FRB8","name":"Var","type":"Metropolitan department","region":"Provence-Alpes-Côte-d'Azur","longitude":"6.27103","woe-name":"Var","latitude":"43.4095","woe-label":null,"hc-middle-lon":6.175,"hc-middle-lat":43.428}},{"type":"MultiPolygon","arcs":[[[-190,-121,219,26,-212,-218,220]],[[218,218,218]]],"id":"FR.U.AP","properties":{"hc-group":"admin2","hc-key":"fr-u-ap","hc-a2":"AP","labelrank":"3","hasc":"FR.AP","alt-name":"Provenza-Alpes-Costa de Azul","woe-id":"12597191","subregion":null,"fips":"FRB8","name":"Alpes-de-Haute-Provence","type":"Metropolitan department","region":"Provence-Alpes-Côte-d'Azur","longitude":"6.24822","woe-name":"Alpes-de-Haute-Provence","latitude":"44.0454","woe-label":null,"hc-middle-lon":6.291,"hc-middle-lat":44.113}},{"type":"Polygon","arcs":[[30,221,222,223,224,-88,-91]],"id":"FR.V.AI","properties":{"hc-group":"admin2","hc-key":"fr-v-ai","hc-a2":"AI","labelrank":"3","hasc":"FR.AI","alt-name":"Rhone-Alpes","woe-id":"12597195","subregion":null,"fips":"FRB9","name":"Ain","type":"Metropolitan department","region":"Rhône-Alpes","longitude":"5.37744","woe-name":"Ain","latitude":"46.084","woe-label":null,"hc-middle-lon":5.338,"hc-middle-lat":46.091}},{"type":"Polygon","arcs":[[33,124,125,-165,225,226,73]],"id":"FR.S.AS","properties":{"hc-group":"admin2","hc-key":"fr-s-as","hc-a2":"AS","labelrank":"3","hasc":"FR.AS","alt-name":null,"woe-id":"12597170","subregion":null,"fips":"FRB6","name":"Aisne","type":"Metropolitan department","region":"Picardie","longitude":"3.51554","woe-name":"Aisne","latitude":"49.5667","woe-label":null,"hc-middle-lon":3.592,"hc-middle-lat":49.649}},{"type":"Polygon","arcs":[[227,228,229,-213,29,68,-189]],"id":"FR.U.BD","properties":{"hc-group":"admin2","hc-key":"fr-u-bd","hc-a2":"BD","labelrank":"3","hasc":"FR.BD","alt-name":"Provenza-Alpes-Costa de Azul","woe-id":"12597199","subregion":null,"fips":"FRB8","name":"Bouches-du-Rhône","type":"Metropolitan department","region":"Provence-Alpes-Côte-d'Azur","longitude":"5.40444","woe-name":"Bouches-du-Rhône","latitude":"43.5324","woe-label":null,"hc-middle-lon":4.831,"hc-middle-lat":43.647}},{"type":"Polygon","arcs":[[34,-135,35,36,-142,-141,230,231,232,-75,-134]],"id":"FR.N.AV","properties":{"hc-group":"admin2","hc-key":"fr-n-av","hc-a2":"AV","labelrank":"3","hasc":"FR.AV","alt-name":null,"woe-id":"12597173","subregion":null,"fips":"FRB3","name":"Aveyron","type":"Metropolitan department","region":"Midi-Pyrénées","longitude":"2.66383","woe-name":"Aveyron","latitude":"44.2884","woe-label":null,"hc-middle-lon":2.706,"hc-middle-lat":44.34}},{"type":"Polygon","arcs":[[233,-112,-68,-69,9,234,141,41]],"id":"FR.K.GA","properties":{"hc-group":"admin2","hc-key":"fr-k-ga","hc-a2":"GA","labelrank":"3","hasc":"FR.GA","alt-name":"Languedoc-Rosellon","woe-id":"12597193","subregion":null,"fips":"FRA9","name":"Gard","type":"Metropolitan department","region":"Languedoc-Roussillon","longitude":"4.18939","woe-name":"Gard","latitude":"43.9914","woe-label":null,"hc-middle-lon":4.35,"hc-middle-lat":44.024}},{"type":"Polygon","arcs":[[156,123,-71,-193,-192]],"id":"FR.G.AB","properties":{"hc-group":"admin2","hc-key":"fr-g-ab","hc-a2":"AB","labelrank":"3","hasc":"FR.AB","alt-name":"Champaña-Ardenne","woe-id":"12597117","subregion":null,"fips":"FRA4","name":"Aube","type":"Metropolitan department","region":"Champagne-Ardenne","longitude":"4.16252","woe-name":"Aube","latitude":"48.3125","woe-label":null,"hc-middle-lon":4.264,"hc-middle-lat":48.322}},{"type":"Polygon","arcs":[[-157,-156,152,153,235,236,237]],"id":"FR.D.CO","properties":{"hc-group":"admin2","hc-key":"fr-d-co","hc-a2":"CO","labelrank":"3","hasc":"FR.CO","alt-name":"Borgoña|Burgundy","woe-id":"12597144","subregion":null,"fips":"FRA1","name":"Côte-d'Or","type":"Metropolitan department","region":"Bourgogne","longitude":"4.76991","woe-name":"Côte-d'Or","latitude":"47.4003","woe-label":null,"hc-middle-lon":4.755,"hc-middle-lat":47.429}},{"type":"Polygon","arcs":[[154,87,88,89,-181,238,-236]],"id":"FR.D.SL","properties":{"hc-group":"admin2","hc-key":"fr-d-sl","hc-a2":"SL","labelrank":"3","hasc":"FR.SL","alt-name":"Borgoña|Burgundy","woe-id":"12597153","subregion":null,"fips":"FRA1","name":"Saône-et-Loire","type":"Metropolitan department","region":"Bourgogne","longitude":"4.5138","woe-name":"Saône-et-Loire","latitude":"46.6789","woe-label":null,"hc-middle-lon":4.496,"hc-middle-lat":46.601}},{"type":"Polygon","arcs":[[91,-201,239,240,-176,-179]],"id":"FR.F.CH","properties":{"hc-group":"admin2","hc-key":"fr-f-ch","hc-a2":"CH","labelrank":"3","hasc":"FR.CH","alt-name":null,"woe-id":"12597136","subregion":null,"fips":"FRA3","name":"Cher","type":"Metropolitan department","region":"Centre","longitude":"2.51907","woe-name":"Cher","latitude":"47.1356","woe-label":null,"hc-middle-lon":2.517,"hc-middle-lat":47.056}},{"type":"Polygon","arcs":[[-92,-145,-144,241,242,-93]],"id":"FR.L.CR","properties":{"hc-group":"admin2","hc-key":"fr-l-cr","hc-a2":"CR","labelrank":"3","hasc":"FR.CR","alt-name":"Lemosin","woe-id":"12597164","subregion":null,"fips":"FRB1","name":"Creuse","type":"Metropolitan department","region":"Limousin","longitude":"2.04281","woe-name":"Creuse","latitude":"46.0705","woe-label":null,"hc-middle-lon":1.992,"hc-middle-lat":46.063}},{"type":"Polygon","arcs":[[173,-185,243,65,244,245,167,174,-63]],"id":"FR.R.ML","properties":{"hc-group":"admin2","hc-key":"fr-r-ml","hc-a2":"ML","labelrank":"3","hasc":"FR.ML","alt-name":null,"woe-id":"12597202","subregion":null,"fips":"FRA5","name":"Maine-et-Loire","type":"Metropolitan department","region":"Pays de la Loire","longitude":"-0.527847","woe-name":"Maine-et-Loire","latitude":"47.3771","woe-label":null,"hc-middle-lon":-0.591,"hc-middle-lat":47.369}},{"type":"Polygon","arcs":[[62,-203,246,-206,107,-174]],"id":"FR.T.DS","properties":{"hc-group":"admin2","hc-key":"fr-t-ds","hc-a2":"DS","labelrank":"3","hasc":"FR.DS","alt-name":null,"woe-id":"12597184","subregion":null,"fips":"FRB7","name":"Deux-Sèvres","type":"Metropolitan department","region":"Poitou-Charentes","longitude":"-0.300826","woe-name":"Deux-Sèvres","latitude":"46.5681","woe-label":null,"hc-middle-lon":-0.314,"hc-middle-lat":46.52}},{"type":"Polygon","arcs":[[-210,247,248,-207,-247,-202,149,145]],"id":"FR.T.CT","properties":{"hc-group":"admin2","hc-key":"fr-t-ct","hc-a2":"CT","labelrank":"3","hasc":"FR.CT","alt-name":null,"woe-id":"12597157","subregion":null,"fips":"FRB7","name":"Charente","type":"Metropolitan department","region":"Poitou-Charentes","longitude":"0.154828","woe-name":"Charente","latitude":"45.6998","woe-label":null,"hc-middle-lon":0.169,"hc-middle-lat":45.774}},{"type":"Polygon","arcs":[[120,121,249,250,119],[-3]],"id":"FR.V.DM","properties":{"hc-group":"admin2","hc-key":"fr-v-dm","hc-a2":"DM","labelrank":"3","hasc":"FR.DM","alt-name":"Rhone-Alpes","woe-id":"12597190","subregion":null,"fips":"FRB9","name":"Drôme","type":"Metropolitan department","region":"Rhône-Alpes","longitude":"5.13443","woe-name":"Drôme","latitude":"44.7407","woe-label":null,"hc-middle-lon":5.143,"hc-middle-lat":44.771}},{"type":"Polygon","arcs":[[122,111,112,-117,251,252,-250]],"id":"FR.V.AH","properties":{"hc-group":"admin2","hc-key":"fr-v-ah","hc-a2":"AH","labelrank":"3","hasc":"FR.AH","alt-name":"Rhone-Alpes","woe-id":"12597160","subregion":null,"fips":"FRB9","name":"Ardèche","type":"Metropolitan department","region":"Rhône-Alpes","longitude":"4.4999","woe-name":"Ardèche","latitude":"44.8014","woe-label":null,"hc-middle-lon":4.325,"hc-middle-lat":44.674}},{"type":"Polygon","arcs":[[52,253,-158,-162,-161,-95,-97,-96]],"id":"FR.Q.EU","properties":{"hc-group":"admin2","hc-key":"fr-q-eu","hc-a2":"EU","labelrank":"3","hasc":"FR.EU","alt-name":"Alta Normand¡a|Upper Normandy","woe-id":"12597139","subregion":null,"fips":"FRA7","name":"Eure","type":"Metropolitan department","region":"Haute-Normandie","longitude":"0.92951","woe-name":"Eure","latitude":"49.0414","woe-label":null,"hc-middle-lon":1.105,"hc-middle-lat":49.127}},{"type":"Polygon","arcs":[[-128,254,255,256,257,-130]],"id":"FR.J.ES","properties":{"hc-group":"admin2","hc-key":"fr-j-es","hc-a2":"ES","labelrank":"3","hasc":"FR.ES","alt-name":null,"woe-id":"12597118","subregion":null,"fips":"FRA8","name":"Essonne","type":"Metropolitan department","region":"Île-de-France","longitude":"2.29588","woe-name":"Essonne","latitude":"48.5629","woe-label":null,"hc-middle-lon":2.239,"hc-middle-lat":48.517}},{"type":"Polygon","arcs":[[127,258,259,-169,165,94,126]],"id":"FR.F.EL","properties":{"hc-group":"admin2","hc-key":"fr-f-el","hc-a2":"EL","labelrank":"3","hasc":"FR.EL","alt-name":null,"woe-id":"12597129","subregion":null,"fips":"FRA3","name":"Eure-et-Loir","type":"Metropolitan department","region":"Centre","longitude":"1.36704","woe-name":"Eure-et-Loir","latitude":"48.3564","woe-label":null,"hc-middle-lon":1.297,"hc-middle-lat":48.366}},{"type":"Polygon","arcs":[[-138,260,38,-198,261,262,263]],"id":"FR.N.HG","properties":{"hc-group":"admin2","hc-key":"fr-n-hg","hc-a2":"HG","labelrank":"3","hasc":"FR.HG","alt-name":null,"woe-id":"12597186","subregion":null,"fips":"FRB3","name":"Haute-Garonne","type":"Metropolitan department","region":"Midi-Pyrénées","longitude":"1.41673","woe-name":"Haute-Garonne","latitude":"43.5457","woe-label":null,"hc-middle-lon":1.47,"hc-middle-lat":43.563}},{"type":"Polygon","arcs":[[-256,264,265,266,267,268]],"id":"FR.J.HD","properties":{"hc-group":"admin2","hc-key":"fr-j-hd","hc-a2":"HD","labelrank":"3","hasc":"FR.HD","alt-name":null,"woe-id":"15022631","subregion":null,"fips":"FRA8","name":"Hauts-de-Seine","type":"Metropolitan department","region":"Île-de-France","longitude":"2.19706","woe-name":"Hauts-de-Seine","latitude":"48.8557","woe-label":null,"hc-middle-lon":2.244,"hc-middle-lat":48.843}},{"type":"Polygon","arcs":[[-94,-243,269,147,-150,-149]],"id":"FR.L.HV","properties":{"hc-group":"admin2","hc-key":"fr-l-hv","hc-a2":"HV","labelrank":"3","hasc":"FR.HV","alt-name":"Lemosin","woe-id":"12597196","subregion":null,"fips":"FRB1","name":"Haute-Vienne","type":"Metropolitan department","region":"Limousin","longitude":"1.21857","woe-name":"Haute-Vienne","latitude":"45.8465","woe-label":null,"hc-middle-lon":1.148,"hc-middle-lat":45.882}},{"type":"Polygon","arcs":[[166,-246,270,-109,168,169,-56]],"id":"FR.R.ST","properties":{"hc-group":"admin2","hc-key":"fr-r-st","hc-a2":"ST","labelrank":"3","hasc":"FR.ST","alt-name":null,"woe-id":"12597159","subregion":null,"fips":"FRA5","name":"Sarthe","type":"Metropolitan department","region":"Pays de la Loire","longitude":"0.170679","woe-name":"Sarthe","latitude":"47.9682","woe-label":null,"hc-middle-lon":0.259,"hc-middle-lat":47.999}},{"type":"Polygon","arcs":[[55,271,272,273,274,-199,-79,-168,-167]],"id":"FR.F.IL","properties":{"hc-group":"admin2","hc-key":"fr-f-il","hc-a2":"IL","labelrank":"3","hasc":"FR.IL","alt-name":null,"woe-id":"12597121","subregion":null,"fips":"FRA3","name":"Indre-et-Loire","type":"Metropolitan department","region":"Centre","longitude":"0.713649","woe-name":"Indre-et-Loire","latitude":"47.2903","woe-label":null,"hc-middle-lon":0.734,"hc-middle-lat":47.256}},{"type":"Polygon","arcs":[[-253,275,276,-224,277,118,-251]],"id":"FR.V.IS","properties":{"hc-group":"admin2","hc-key":"fr-v-is","hc-a2":"IS","labelrank":"3","hasc":"FR.IS","alt-name":"Rhone-Alpes","woe-id":"12597188","subregion":null,"fips":"FRB9","name":"Isère","type":"Metropolitan department","region":"Rhône-Alpes","longitude":"5.4175","woe-name":"Isère","latitude":"45.2478","woe-label":null,"hc-middle-lon":5.524,"hc-middle-lat":45.286}},{"type":"Polygon","arcs":[[49,90,-155,-154,278,279]],"id":"FR.I.JU","properties":{"hc-group":"admin2","hc-key":"fr-i-ju","hc-a2":"JU","labelrank":"3","hasc":"FR.JU","alt-name":"Franco-Condado","woe-id":"12597120","subregion":null,"fips":"FRA6","name":"Jura","type":"Metropolitan department","region":"Franche-Comté","longitude":"5.72845","woe-name":"Jura Mountains","latitude":"46.732","woe-label":null,"hc-middle-lon":5.751,"hc-middle-lat":46.604}},{"type":"Polygon","arcs":[[-279,-153,-98,104,280,281]],"id":"FR.I.HN","properties":{"hc-group":"admin2","hc-key":"fr-i-hn","hc-a2":"HN","labelrank":"3","hasc":"FR.HN","alt-name":"Franco-Condado","woe-id":"12597119","subregion":null,"fips":"FRA6","name":"Haute-Saône","type":"Metropolitan department","region":"Franche-Comté","longitude":"6.16722","woe-name":"Haute-Saône","latitude":"47.6973","woe-label":null,"hc-middle-lon":6.14,"hc-middle-lat":47.61}},{"type":"Polygon","arcs":[[-276,-252,-116,-115,-114,-90,282]],"id":"FR.V.LR","properties":{"hc-group":"admin2","hc-key":"fr-v-lr","hc-a2":"LR","labelrank":"3","hasc":"FR.LR","alt-name":"Rhone-Alpes","woe-id":"12597165","subregion":null,"fips":"FRB9","name":"Loire","type":"Metropolitan department","region":"Rhône-Alpes","longitude":"4.16239","woe-name":"Loire","latitude":"45.706","woe-label":null,"hc-middle-lon":4.032,"hc-middle-lat":45.81}},{"type":"Polygon","arcs":[[-232,283,-263,284,85,-14,285]],"id":"FR.N.TG","properties":{"hc-group":"admin2","hc-key":"fr-n-tg","hc-a2":"TG","labelrank":"3","hasc":"FR.TG","alt-name":null,"woe-id":"12597168","subregion":null,"fips":"FRB3","name":"Tarn-et-Garonne","type":"Metropolitan department","region":"Midi-Pyrénées","longitude":"1.23277","woe-name":"Tarn-et-Garonne","latitude":"44.0657","woe-label":null,"hc-middle-lon":1.236,"hc-middle-lat":44.074}},{"type":"Polygon","arcs":[[13,-14,79,80,-87,-76,-233,-286]],"id":"FR.N.LO","properties":{"hc-group":"admin2","hc-key":"fr-n-lo","hc-a2":"LO","labelrank":"3","hasc":"FR.LO","alt-name":null,"woe-id":"12597172","subregion":null,"fips":"FRB3","name":"Lot","type":"Metropolitan department","region":"Midi-Pyrénées","longitude":"1.61079","woe-name":"Lot","latitude":"44.6327","woe-label":null,"hc-middle-lon":1.644,"hc-middle-lat":44.618}},{"type":"Polygon","arcs":[[-86,-85,286,287,-204,-80,13]],"id":"FR.B.LG","properties":{"hc-group":"admin2","hc-key":"fr-b-lg","hc-a2":"LG","labelrank":"3","hasc":"FR.LG","alt-name":null,"woe-id":"12597143","subregion":null,"fips":"FR97","name":"Lot-et-Garonne","type":"Metropolitan department","region":"Aquitaine","longitude":"0.449742","woe-name":"Lot-et-Garonne","latitude":"44.3829","woe-label":null,"hc-middle-lon":0.516,"hc-middle-lat":44.402}},{"type":"Polygon","arcs":[[-113,-234,-36,134,42,133,-133,-132]],"id":"FR.K.LZ","properties":{"hc-group":"admin2","hc-key":"fr-k-lz","hc-a2":"LZ","labelrank":"3","hasc":"FR.LZ","alt-name":"Languedoc-Rosellon","woe-id":"12597162","subregion":null,"fips":"FRA9","name":"Lozère","type":"Metropolitan department","region":"Languedoc-Roussillon","longitude":"3.54811","woe-name":"Lozère","latitude":"44.4909","woe-label":null,"hc-middle-lon":3.497,"hc-middle-lat":44.517}},{"type":"Polygon","arcs":[[-66,-65,-184,288,19,20,100,-67]],"id":"FR.E.IV","properties":{"hc-group":"admin2","hc-key":"fr-e-iv","hc-a2":"IV","labelrank":"3","hasc":"FR.IV","alt-name":"Bretaña|Brittany","woe-id":"12597138","subregion":null,"fips":"FRA2","name":"Ille-et-Vilaine","type":"Metropolitan department","region":"Bretagne","longitude":"-1.65623","woe-name":"Ille-et-Vilaine","latitude":"48.1428","woe-label":null,"hc-middle-lon":-1.672,"hc-middle-lat":48.183}},{"type":"Polygon","arcs":[[21,289,290,291]],"id":"FR.M.MM","properties":{"hc-group":"admin2","hc-key":"fr-m-mm","hc-a2":"MM","labelrank":"3","hasc":"FR.MM","alt-name":"Lorena","woe-id":"12597176","subregion":null,"fips":"FRB2","name":"Meurthe-et-Moselle","type":"Metropolitan department","region":"Lorraine","longitude":"6.27603","woe-name":"Meurthe-et-Moselle","latitude":"48.7055","woe-label":null,"hc-middle-lon":6.161,"hc-middle-lat":48.624}},{"type":"Polygon","arcs":[[60,-292,292,99,-173,-172]],"id":"FR.M.MS","properties":{"hc-group":"admin2","hc-key":"fr-m-ms","hc-a2":"MS","labelrank":"3","hasc":"FR.MS","alt-name":"Lorena","woe-id":"12597167","subregion":null,"fips":"FRB2","name":"Meuse","type":"Metropolitan department","region":"Lorraine","longitude":"5.50884","woe-name":"Meuse","latitude":"48.9505","woe-label":null,"hc-middle-lon":5.397,"hc-middle-lat":49.015}},{"type":"Polygon","arcs":[[-237,-239,-180,175,176,293]],"id":"FR.D.NI","properties":{"hc-group":"admin2","hc-key":"fr-d-ni","hc-a2":"NI","labelrank":"3","hasc":"FR.NI","alt-name":"Borgoña|Burgundy","woe-id":"12597128","subregion":null,"fips":"FRA1","name":"Nièvre","type":"Metropolitan department","region":"Bourgogne","longitude":"3.56837","woe-name":"Nièvre","latitude":"47.1505","woe-label":null,"hc-middle-lon":3.437,"hc-middle-lat":47.142}},{"type":"Polygon","arcs":[[-143,76,86,146,-270,-242]],"id":"FR.L.CZ","properties":{"hc-group":"admin2","hc-key":"fr-l-cz","hc-a2":"CZ","labelrank":"3","hasc":"FR.CZ","alt-name":"Lemosin","woe-id":"12597163","subregion":null,"fips":"FRB1","name":"Corrèze","type":"Metropolitan department","region":"Limousin","longitude":"1.90105","woe-name":"Corrèze","latitude":"45.355","woe-label":null,"hc-middle-lon":1.88,"hc-middle-lat":45.347}},{"type":"Polygon","arcs":[[142,143,294,114,295,296]],"id":"FR.C.PD","properties":{"hc-group":"admin2","hc-key":"fr-c-pd","hc-a2":"PD","labelrank":"3","hasc":"FR.PD","alt-name":null,"woe-id":"12597146","subregion":null,"fips":"FR98","name":"Puy-de-Dôme","type":"Metropolitan department","region":"Auvergne","longitude":"3.26844","woe-name":"Puy-de-Dôme","latitude":"45.8135","woe-label":null,"hc-middle-lon":3.078,"hc-middle-lat":45.725}},{"type":"Polygon","arcs":[[82,83,84,-285,-262,-197]],"id":"FR.N.GE","properties":{"hc-group":"admin2","hc-key":"fr-n-ge","hc-a2":"GE","labelrank":"3","hasc":"FR.GE","alt-name":null,"woe-id":"12597194","subregion":null,"fips":"FRB3","name":"Gers","type":"Metropolitan department","region":"Midi-Pyrénées","longitude":"0.537496","woe-name":"Gers","latitude":"43.6809","woe-label":null,"hc-middle-lon":0.446,"hc-middle-lat":43.674}},{"type":"Polygon","arcs":[[-83,-82,43,44,297],[-4],[-5]],"id":"FR.B.PA","properties":{"hc-group":"admin2","hc-key":"fr-b-pa","hc-a2":"PA","labelrank":"3","hasc":"FR.PA","alt-name":null,"woe-id":"12597114","subregion":null,"fips":"FR97","name":"Pyrénées-Atlantiques","type":"Metropolitan department","region":"Aquitaine","longitude":"-0.7499900000000001","woe-name":"Pyrénées-Atlantiques","latitude":"43.259","woe-label":null,"hc-middle-lon":-0.756,"hc-middle-lat":43.27}},{"type":"Polygon","arcs":[[-223,298,32,117,-278]],"id":"FR.V.SV","properties":{"hc-group":"admin2","hc-key":"fr-v-sv","hc-a2":"SV","labelrank":"3","hasc":"FR.SV","alt-name":"Rhone-Alpes","woe-id":"12597180","subregion":null,"fips":"FRB9","name":"Savoie","type":"Metropolitan department","region":"Rhône-Alpes","longitude":"6.47098","woe-name":"Savoie","latitude":"45.4832","woe-label":null,"hc-middle-lon":6.486,"hc-middle-lat":45.45}},{"type":"Polygon","arcs":[[69,70,-129,-131,-258,299,300,301,163,164]],"id":"FR.J.SE","properties":{"hc-group":"admin2","hc-key":"fr-j-se","hc-a2":"SE","labelrank":"3","hasc":"FR.SE","alt-name":null,"woe-id":"12597137","subregion":null,"fips":"FRA8","name":"Seine-et-Marne","type":"Metropolitan department","region":"Île-de-France","longitude":"2.84201","woe-name":"Seine-et-Marne","latitude":"48.5515","woe-label":null,"hc-middle-lon":3.011,"hc-middle-lat":48.683}},{"type":"Polygon","arcs":[[302,303,-268]],"id":"FR.J.VP","properties":{"hc-group":"admin2","hc-key":"fr-j-vp","hc-a2":"VP","labelrank":"3","hasc":"FR.VP","alt-name":"Ville de Paris","woe-id":"12597155","subregion":null,"fips":"FRA8","name":"Paris","type":"Metropolitan department","region":"Île-de-France","longitude":"2.34347","woe-name":"Paris","latitude":"48.8594","woe-label":null,"hc-middle-lon":2.365,"hc-middle-lat":48.859}},{"type":"Polygon","arcs":[[-303,-267,304,-301,305]],"id":"FR.J.SS","properties":{"hc-group":"admin2","hc-key":"fr-j-ss","hc-a2":"SS","labelrank":"3","hasc":"FR.SS","alt-name":null,"woe-id":"12597156","subregion":null,"fips":"FRA8","name":"Seine-Saint-Denis","type":"Metropolitan department","region":"Île-de-France","longitude":"2.51916","woe-name":"Seine-Saint-Denis","latitude":"48.9289","woe-label":null,"hc-middle-lon":2.482,"hc-middle-lat":48.935}},{"type":"Polygon","arcs":[[-306,-300,-257,-269,-304]],"id":"FR.J.VM","properties":{"hc-group":"admin2","hc-key":"fr-j-vm","hc-a2":"VM","labelrank":"3","hasc":"FR.VM","alt-name":null,"woe-id":"12597151","subregion":null,"fips":"FRA8","name":"Val-de-Marne","type":"Metropolitan department","region":"Île-de-France","longitude":"2.5155","woe-name":"Val-de-Marne","latitude":"48.7752","woe-label":null,"hc-middle-lon":2.336,"hc-middle-lat":48.806}},{"type":"Polygon","arcs":[[72,-227,306,159,54,71]],"id":"FR.S.SO","properties":{"hc-group":"admin2","hc-key":"fr-s-so","hc-a2":"SO","labelrank":"3","hasc":"FR.SO","alt-name":null,"woe-id":"12597178","subregion":null,"fips":"FRB6","name":"Somme","type":"Metropolitan department","region":"Picardie","longitude":"2.36029","woe-name":"Somme","latitude":"49.8757","woe-label":null,"hc-middle-lon":2.266,"hc-middle-lat":49.928}},{"type":"Polygon","arcs":[[56,307,-281,105,-171]],"id":"FR.I.TB","properties":{"hc-group":"admin2","hc-key":"fr-i-tb","hc-a2":"TB","labelrank":"3","hasc":"FR.TB","alt-name":"Franco-Condado","woe-id":"12597154","subregion":null,"fips":"FRA6","name":"Territoire de Belfort","type":"Metropolitan department","region":"Franche-Comté","longitude":"6.93675","woe-name":"Belfort","latitude":"47.6568","woe-label":null,"hc-middle-lon":6.809,"hc-middle-lat":47.605}},{"type":"Polygon","arcs":[[-308,57,-280,-282]],"id":"FR.I.DB","properties":{"hc-group":"admin2","hc-key":"fr-i-db","hc-a2":"DB","labelrank":"3","hasc":"FR.DB","alt-name":"Franco-Condado","woe-id":"12597116","subregion":null,"fips":"FRA6","name":"Doubs","type":"Metropolitan department","region":"Franche-Comté","longitude":"6.31895","woe-name":"Doubs","latitude":"47.1584","woe-label":null,"hc-middle-lon":6.389,"hc-middle-lat":47.187}},{"type":"Polygon","arcs":[[-302,-305,-266,308,161,162]],"id":"FR.J.VO","properties":{"hc-group":"admin2","hc-key":"fr-j-vo","hc-a2":"VO","labelrank":"3","hasc":"FR.VO","alt-name":null,"woe-id":"12597124","subregion":null,"fips":"FRA8","name":"Val-d'Oise","type":"Metropolitan department","region":"Île-de-France","longitude":"2.23366","woe-name":"Val-d'Oise","latitude":"49.0754","woe-label":null,"hc-middle-lon":2.092,"hc-middle-lat":49.082}},{"type":"Polygon","arcs":[[-106,-105,98,-293,-291,102,103]],"id":"FR.M.VG","properties":{"hc-group":"admin2","hc-key":"fr-m-vg","hc-a2":"VG","labelrank":"3","hasc":"FR.VG","alt-name":"Lorena","woe-id":"12597174","subregion":null,"fips":"FRB2","name":"Vosges","type":"Metropolitan department","region":"Lorraine","longitude":"6.67053","woe-name":"Vosges","latitude":"48.2445","woe-label":null,"hc-middle-lon":6.579,"hc-middle-lat":48.222}},{"type":"Polygon","arcs":[[-265,-255,-127,160,-309]],"id":"FR.J.YV","properties":{"hc-group":"admin2","hc-key":"fr-j-yv","hc-a2":"YV","labelrank":"3","hasc":"FR.YV","alt-name":null,"woe-id":"12597126","subregion":null,"fips":"FRA8","name":"Yvelines","type":"Metropolitan department","region":"Île-de-France","longitude":"1.90058","woe-name":"Yvelines","latitude":"48.8191","woe-label":null,"hc-middle-lon":1.865,"hc-middle-lat":48.873}},{"type":"Polygon","arcs":[[-170,-260,309,-240,-200,-275,310,311,312]],"id":"FR.F.LC","properties":{"hc-group":"admin2","hc-key":"fr-f-lc","hc-a2":"LC","labelrank":"3","hasc":"FR.LC","alt-name":null,"woe-id":"12597147","subregion":null,"fips":"FRA3","name":"Loir-et-Cher","type":"Metropolitan department","region":"Centre","longitude":"1.59234","woe-name":"Loir-et-Cher","latitude":"47.5484","woe-label":null,"hc-middle-lon":1.383,"hc-middle-lat":47.603}},{"type":"Polygon","arcs":[[7,313]],"id":"FR.H.CS","properties":{"hc-group":"admin2","hc-key":"fr-h-cs","hc-a2":"CS","labelrank":"3","hasc":"FR.CS","alt-name":"C¢rcega|C¢rsega|Corsica","woe-id":"12597134","subregion":null,"fips":"FR14","name":"Corse-du-Sud","type":"Metropolitan department","region":"Corse","longitude":"9.02252","woe-name":"Corse-du-Sud","latitude":"41.8449","woe-label":null,"hc-middle-lon":9.06,"hc-middle-lat":41.741}},{"type":"Polygon","arcs":[[-17,17,314,-182]],"id":"FR.E.FI","properties":{"hc-group":"admin2","hc-key":"fr-e-fi","hc-a2":"FI","labelrank":"3","hasc":"FR.FI","alt-name":"Bretaña|Brittany","woe-id":"12591797","subregion":null,"fips":"FRA2","name":"Finistère","type":"Metropolitan department","region":"Bretagne","longitude":"-3.92644","woe-name":"Finistère","latitude":"48.3309","woe-label":null,"hc-middle-lon":-4.055,"hc-middle-lat":48.267}},{"type":"Polygon","arcs":[[8,-314]],"id":"FR.H.HC","properties":{"hc-group":"admin2","hc-key":"fr-h-hc","hc-a2":"HC","labelrank":"3","hasc":"FR.HC","alt-name":"C¢rcega|C¢rsega|Corsica","woe-id":"12597140","subregion":null,"fips":"FR14","name":"Haute-Corse","type":"Metropolitan department","region":"Corse","longitude":"9.2309","woe-name":"Haute-Corse","latitude":"42.3996","woe-label":null,"hc-middle-lon":9.162,"hc-middle-lat":42.403}},{"type":"Polygon","arcs":[[-21,50,315,316,110,-101]],"id":"FR.P.MH","properties":{"hc-group":"admin2","hc-key":"fr-p-mh","hc-a2":"MH","labelrank":"3","hasc":"FR.MH","alt-name":"Baja Normand¡a|Lower Normandy","woe-id":"12591801","subregion":null,"fips":"FR99","name":"Manche","type":"Metropolitan department","region":"Basse-Normandie","longitude":"-1.34727","woe-name":"Manche","latitude":"49.1637","woe-label":null,"hc-middle-lon":-1.283,"hc-middle-lat":49.083}},{"type":"Polygon","arcs":[[61,171,-194,-125]],"id":"FR.G.AN","properties":{"hc-group":"admin2","hc-key":"fr-g-an","hc-a2":"AN","labelrank":"3","hasc":"FR.AN","alt-name":"Champaña-Ardenne","woe-id":"12597142","subregion":null,"fips":"FRA4","name":"Ardennes","type":"Metropolitan department","region":"Champagne-Ardenne","longitude":"4.62417","woe-name":"Ardennes","latitude":"49.5403","woe-label":null,"hc-middle-lon":4.61,"hc-middle-lat":49.586}},{"type":"Polygon","arcs":[[37,-261,-137,-136]],"id":"FR.N.AG","properties":{"hc-group":"admin2","hc-key":"fr-n-ag","hc-a2":"AG","labelrank":"3","hasc":"FR.AG","alt-name":null,"woe-id":"12597197","subregion":null,"fips":"FRB3","name":"Ariège","type":"Metropolitan department","region":"Midi-Pyrénées","longitude":"1.53654","woe-name":"Ariège","latitude":"42.9046","woe-label":null,"hc-middle-lon":1.432,"hc-middle-lat":42.881}},{"type":"Polygon","arcs":[[58,317,-103,-102]],"id":"FR.A.BR","properties":{"hc-group":"admin2","hc-key":"fr-a-br","hc-a2":"BR","labelrank":"3","hasc":"FR.BR","alt-name":"Alsacia","woe-id":"12597135","subregion":null,"fips":"FR96","name":"Bas-Rhin","type":"Metropolitan department","region":"Alsace","longitude":"7.56628","woe-name":"Bas-Rhin","latitude":"48.6179","woe-label":null,"hc-middle-lon":7.597,"hc-middle-lat":48.729}},{"type":"Polygon","arcs":[[51,95,318,-316]],"id":"FR.P.CV","properties":{"hc-group":"admin2","hc-key":"fr-p-cv","hc-a2":"CV","labelrank":"3","hasc":"FR.CV","alt-name":"Baja Normand¡a|Lower Normandy","woe-id":"12597127","subregion":null,"fips":"FR99","name":"Calvados","type":"Metropolitan department","region":"Basse-Normandie","longitude":"-0.288724","woe-name":"Calvados","latitude":"49.0601","woe-label":null,"hc-middle-lon":-0.35,"hc-middle-lat":49.054}},{"type":"Polygon","arcs":[[74,75,-77,-297,319,132]],"id":"FR.C.CL","properties":{"hc-group":"admin2","hc-key":"fr-c-cl","hc-a2":"CL","labelrank":"3","hasc":"FR.CL","alt-name":null,"woe-id":"12597148","subregion":null,"fips":"FR98","name":"Cantal","type":"Metropolitan department","region":"Auvergne","longitude":"2.74821","woe-name":"Cantal","latitude":"45.1592","woe-label":null,"hc-middle-lon":2.662,"hc-middle-lat":45.025}},{"type":"Polygon","arcs":[[18,-289,-183,-315]],"id":"FR.E.CA","properties":{"hc-group":"admin2","hc-key":"fr-e-ca","hc-a2":"CA","labelrank":"3","hasc":"FR.CA","alt-name":"Bretaña|Brittany","woe-id":"12591799","subregion":null,"fips":"FRA2","name":"Côtes-d'Armor","type":"Metropolitan department","region":"Bretagne","longitude":"-2.93239","woe-name":"Côtes-d'Armor","latitude":"48.4383","woe-label":null,"hc-middle-lon":-2.807,"hc-middle-lat":48.377}},{"type":"Polygon","arcs":[[46,-152,-205,-288,320]],"id":"FR.B.GI","properties":{"hc-group":"admin2","hc-key":"fr-b-gi","hc-a2":"GI","labelrank":"3","hasc":"FR.GI","alt-name":null,"woe-id":"12597132","subregion":null,"fips":"FR97","name":"Gironde","type":"Metropolitan department","region":"Aquitaine","longitude":"-0.515546","woe-name":"Gironde","latitude":"44.7339","woe-label":null,"hc-middle-lon":-0.474,"hc-middle-lat":44.792}},{"type":"Polygon","arcs":[[59,170,-104,-318]],"id":"FR.A.HR","properties":{"hc-group":"admin2","hc-key":"fr-a-hr","hc-a2":"HR","labelrank":"3","hasc":"FR.HR","alt-name":"Alsacia","woe-id":"12597152","subregion":null,"fips":"FR96","name":"Haut-Rhin","type":"Metropolitan department","region":"Alsace","longitude":"7.25359","woe-name":"Haut-Rhin","latitude":"47.886","woe-label":null,"hc-middle-lon":7.242,"hc-middle-lat":47.86}},{"type":"Polygon","arcs":[[31,-299,-222]],"id":"FR.V.HS","properties":{"hc-group":"admin2","hc-key":"fr-v-hs","hc-a2":"HS","labelrank":"3","hasc":"FR.HS","alt-name":"Rhone-Alpes","woe-id":"12597182","subregion":null,"fips":"FRB9","name":"Haute-Savoie","type":"Metropolitan department","region":"Rhône-Alpes","longitude":"6.51823","woe-name":"Haute-Savoie","latitude":"46.0502","woe-label":null,"hc-middle-lon":6.389,"hc-middle-lat":46.02}},{"type":"Polygon","arcs":[[10,-188,139,140,-235]],"id":"FR.K.HE","properties":{"hc-group":"admin2","hc-key":"fr-k-he","hc-a2":"HE","labelrank":"3","hasc":"FR.HE","alt-name":"Languedoc-Rosellon","woe-id":"12597179","subregion":null,"fips":"FRA9","name":"Hérault","type":"Metropolitan department","region":"Languedoc-Roussillon","longitude":"3.27316","woe-name":"Hérault","latitude":"43.5524","woe-label":null,"hc-middle-lon":3.332,"hc-middle-lat":43.567}},{"type":"Polygon","arcs":[[-84,-298,-45,45,-321,-287]],"id":"FR.B.LD","properties":{"hc-group":"admin2","hc-key":"fr-b-ld","hc-a2":"LD","labelrank":"3","hasc":"FR.LD","alt-name":null,"woe-id":"12597149","subregion":null,"fips":"FR97","name":"Landes","type":"Metropolitan department","region":"Aquitaine","longitude":"-0.792307","woe-name":"Landes","latitude":"43.9644","woe-label":null,"hc-middle-lon":-0.8,"hc-middle-lat":43.937}},{"type":"Polygon","arcs":[[24,63,64,-244,-186]],"id":"FR.R.LA","properties":{"hc-group":"admin2","hc-key":"fr-r-la","hc-a2":"LA","labelrank":"3","hasc":"FR.LA","alt-name":null,"woe-id":"12597177","subregion":null,"fips":"FRA5","name":"Loire-Atlantique","type":"Metropolitan department","region":"Pays de la Loire","longitude":"-1.6025","woe-name":"Loire-Atlantique","latitude":"47.3637","woe-label":null,"hc-middle-lon":-1.598,"hc-middle-lat":47.454}},{"type":"Polygon","arcs":[[101,-290,22]],"id":"FR.M.MO","properties":{"hc-group":"admin2","hc-key":"fr-m-mo","hc-a2":"MO","labelrank":"3","hasc":"FR.MO","alt-name":"Lorena","woe-id":"12597171","subregion":null,"fips":"FRB2","name":"Moselle","type":"Metropolitan department","region":"Lorraine","longitude":"6.51862","woe-name":"Moselle","latitude":"49.0845","woe-label":null,"hc-middle-lon":6.477,"hc-middle-lat":49.081}},{"type":"Polygon","arcs":[[-319,96,-166,108,109,-317]],"id":"FR.P.OR","properties":{"hc-group":"admin2","hc-key":"fr-p-or","hc-a2":"OR","labelrank":"3","hasc":"FR.OR","alt-name":"Baja Normand¡a|Lower Normandy","woe-id":"12597150","subregion":null,"fips":"FR99","name":"Orne","type":"Metropolitan department","region":"Basse-Normandie","longitude":"0.06321400000000001","woe-name":"Orne","latitude":"48.6533","woe-label":null,"hc-middle-lon":0.403,"hc-middle-lat":48.608}},{"type":"Polygon","arcs":[[11,-196,-72],[-195]],"id":"FR.O.PC","properties":{"hc-group":"admin2","hc-key":"fr-o-pc","hc-a2":"PC","labelrank":"3","hasc":"FR.PC","alt-name":null,"woe-id":"12597181","subregion":null,"fips":"FRB4","name":"Pas-de-Calais","type":"Metropolitan department","region":"Nord-Pas-de-Calais","longitude":"2.3614","woe-name":"Pas-de-Calais","latitude":"50.4661","woe-label":null,"hc-middle-lon":2.332,"hc-middle-lat":50.458}},{"type":"Polygon","arcs":[[40,135,-187]],"id":"FR.K.PO","properties":{"hc-group":"admin2","hc-key":"fr-k-po","hc-a2":"PO","labelrank":"3","hasc":"FR.PO","alt-name":"Languedoc-Rosellon","woe-id":"12597201","subregion":null,"fips":"FRA9","name":"Pyrénées-Orientales","type":"Metropolitan department","region":"Languedoc-Roussillon","longitude":"2.54908","woe-name":"Pyrénées-Orientales","latitude":"42.5738","woe-label":null,"hc-middle-lon":2.637,"hc-middle-lat":42.615}},{"type":"Polygon","arcs":[[-271,-245,66,-111,-110]],"id":"FR.R.MY","properties":{"hc-group":"admin2","hc-key":"fr-r-my","hc-a2":"MY","labelrank":"3","hasc":"FR.MY","alt-name":null,"woe-id":"12597166","subregion":null,"fips":"FRA5","name":"Mayenne","type":"Metropolitan department","region":"Pays de la Loire","longitude":"-0.635312","woe-name":"Mayenne","latitude":"48.1562","woe-label":null,"hc-middle-lon":-0.643,"hc-middle-lat":48.167}},{"type":"Polygon","arcs":[[53,-160,-159,-254]],"id":"FR.Q.SM","properties":{"hc-group":"admin2","hc-key":"fr-q-sm","hc-a2":"SM","labelrank":"3","hasc":"FR.SM","alt-name":"Alta Normand¡a|Upper Normandy","woe-id":"12597115","subregion":null,"fips":"FRA7","name":"Seine-Maritime","type":"Metropolitan department","region":"Haute-Normandie","longitude":"1.1513","woe-name":"Seine-Maritime","latitude":"49.5936","woe-label":null,"hc-middle-lon":0.917,"hc-middle-lat":49.66}},{"type":"Polygon","arcs":[[-238,-294,177,128,-124]],"id":"FR.D.YO","properties":{"hc-group":"admin2","hc-key":"fr-d-yo","hc-a2":"YO","labelrank":"3","hasc":"FR.YO","alt-name":"Borgoña|Burgundy","woe-id":"12597133","subregion":null,"fips":"FRA1","name":"Yonne","type":"Metropolitan department","region":"Bourgogne","longitude":"3.64262","woe-name":"Yonne","latitude":"47.7715","woe-label":null,"hc-middle-lon":3.554,"hc-middle-lat":47.806}},{"type":"Polygon","arcs":[[178,179,180,113,-295,144]],"id":"FR.C.AL","properties":{"hc-group":"admin2","hc-key":"fr-c-al","hc-a2":"AL","labelrank":"3","hasc":"FR.AL","alt-name":null,"woe-id":"12597131","subregion":null,"fips":"FR98","name":"Allier","type":"Metropolitan department","region":"Auvergne","longitude":"3.18698","woe-name":"Allier","latitude":"46.408","woe-label":null,"hc-middle-lon":3.005,"hc-middle-lat":46.41}},{"type":"Polygon","arcs":[[116,131,-320,-296,115]],"id":"FR.C.HL","properties":{"hc-group":"admin2","hc-key":"fr-c-hl","hc-a2":"HL","labelrank":"3","hasc":"FR.HL","alt-name":null,"woe-id":"12597130","subregion":null,"fips":"FR98","name":"Haute-Loire","type":"Metropolitan department","region":"Auvergne","longitude":"3.72362","woe-name":"Haute-Loire","latitude":"45.1254","woe-label":null,"hc-middle-lon":3.905,"hc-middle-lat":45.076}},{"type":"Polygon","arcs":[[-120,-119,-118,25,-220]],"id":"FR.U.HA","properties":{"hc-group":"admin2","hc-key":"fr-u-ha","hc-a2":"HA","labelrank":"3","hasc":"FR.HA","alt-name":"Provenza-Alpes-Costa de Azul","woe-id":"12597183","subregion":null,"fips":"FRB8","name":"Hautes-Alpes","type":"Metropolitan department","region":"Provence-Alpes-Côte-d'Azur","longitude":"6.37648","woe-name":"Hautes-Alpes","latitude":"44.6732","woe-label":null,"hc-middle-lon":6.327,"hc-middle-lat":44.652}},{"type":"Polygon","arcs":[[-241,-310,-259,129,130,-178,-177]],"id":"FR.F.LT","properties":{"hc-group":"admin2","hc-key":"fr-f-lt","hc-a2":"LT","labelrank":"3","hasc":"FR.LT","alt-name":null,"woe-id":"12597141","subregion":null,"fips":"FRA3","name":"Loiret","type":"Metropolitan department","region":"Centre","longitude":"2.19238","woe-name":"Loiret","latitude":"47.9007","woe-label":null,"hc-middle-lon":2.443,"hc-middle-lat":47.921}},{"type":"Polygon","arcs":[[-226,-164,-163,157,158,-307]],"id":"FR.S.OI","properties":{"hc-group":"admin2","hc-key":"fr-s-oi","hc-a2":"OI","labelrank":"3","hasc":"FR.OI","alt-name":null,"woe-id":"12597158","subregion":null,"fips":"FRB6","name":"Oise","type":"Metropolitan department","region":"Picardie","longitude":"2.64323","woe-name":"Oise","latitude":"49.3967","woe-label":null,"hc-middle-lon":2.397,"hc-middle-lat":49.397}},{"type":"Polygon","arcs":[[-225,-277,-283,-89]],"id":"FR.V.RH","properties":{"hc-group":"admin2","hc-key":"fr-v-rh","hc-a2":"RH","labelrank":"3","hasc":"FR.RH","alt-name":"Rhone-Alpes","woe-id":"12597185","subregion":null,"fips":"FRB9","name":"Rhône","type":"Metropolitan department","region":"Rhône-Alpes","longitude":"4.64841","woe-name":"Rhône","latitude":"45.841","woe-label":null,"hc-middle-lon":4.756,"hc-middle-lat":45.734}},{"type":"Polygon","arcs":[[-140,-139,-264,-284,-231]],"id":"FR.N.TA","properties":{"hc-group":"admin2","hc-key":"fr-n-ta","hc-a2":"TA","labelrank":"3","hasc":"FR.TA","alt-name":null,"woe-id":"12597192","subregion":null,"fips":"FRB3","name":"Tarn","type":"Metropolitan department","region":"Midi-Pyrénées","longitude":"2.13731","woe-name":"Tarn","latitude":"43.8024","woe-label":null,"hc-middle-lon":2.164,"hc-middle-lat":43.78}},{"type":"MultiLineString","arcs":[[0],[1],[2],[3],[4],[5],[6],[7,8],[9,10],[11,12],[13],[14],[-14],[15,16,-17,17,18,19,20],[21,22],[23,24],[25,26,27,28,29],[30,31,32],[33],[34],[35],[36],[37,38],[39,40],[41],[-36],[42],[43,44,-45,45,46],[47],[-48],[48],[49],[-21,50,51],[52,53],[54],[55],[-56],[56,57],[58,59],[60],[61],[62],[-63],[63,64,65,66],[63,64,65,66],[67],[67],[68],[68],[69,70],[69,70],[71,72],[71,72],[73],[73],[74,75],[74,75],[76],[76],[77],[77],[78],[78],[79,80],[79,80],[81,82,83,84,85],[81,82,83,84,85],[86],[86],[87,88,89],[87,88,89],[90],[90],[91],[91],[92,93],[92,93],[94],[94],[95,96],[95,96],[97],[97],[98,99],[98,99],[100],[100],[101,102,103],[101,102,103],[104,105],[104,105],[106,107],[106,107],[108,109,110],[108,109,110],[111,112],[111,112],[113,114,115,116],[113,114,115,116],[117,118,119,120,121,122],[117,118,119,120,121,122],[123],[123],[124,125],[124,125],[126,127],[126,127],[128],[128],[129,130],[129,130],[131,132],[131,132],[133],[133],[134],[134],[135,136,137,138,139,140,141],[135,136,137,138,139,140,141],[142,143,144],[142,143,144],[145],[145],[146,147],[146,147],[148,149],[148,149],[150,151],[150,151],[152,153,154],[152,153,154],[155,156],[155,156],[157,158,159],[157,158,159],[160,161],[160,161],[162,163,164],[162,163,164],[165],[165],[166,167],[166,167],[168,169],[168,169],[170],[170],[171,172],[171,172],[173],[173],[174],[174],[175,176,177],[175,176,177],[178],[178],[179,180],[179,180]],"properties":{"hc-group":"__border_lines__"}},{"type":"Polygon","arcs":[[321]],"id":"FR.RE.RE","properties":{"hc-group":"admin2","hc-key":"fr-re-re","hc-a2":"RE","labelrank":"20","hasc":"FR.RE","alt-name":null,"woe-id":"23424931","subregion":null,"fips":null,"name":"La Réunion","type":"Overseas department","region":"Réunion","longitude":"55.5405","woe-name":"La Réunion","latitude":"-21.1155","woe-label":null,"hc-middle-lon":55.534,"hc-middle-lat":-21.111,"hc-inset":"fr-all-all-reunion"}},{"type":"MultiPolygon","arcs":[[[322]],[[323]]],"id":"FR.YT.YT","properties":{"hc-group":"admin2","hc-key":"fr-yt-yt","hc-a2":"YT","labelrank":"20","hasc":"FR.YT","alt-name":null,"woe-id":"23424886","subregion":null,"fips":null,"name":"Mayotte","type":"Overseas department","region":"Mayotte","longitude":"45.2769","woe-name":"Mayotte","latitude":"-12.7767","woe-label":null,"hc-middle-lon":45.147,"hc-middle-lat":-12.798,"hc-inset":"fr-all-all-mayotte"}},{"type":"Polygon","arcs":[[324]],"id":"FR.GF.GF","properties":{"hc-group":"admin2","hc-key":"fr-gf-gf","hc-a2":"GF","labelrank":"5","hasc":"FR.GF","alt-name":null,"woe-id":"23424811","subregion":null,"fips":"FG01","name":"Guyane française","type":"Overseas department","region":"Guyane française","longitude":"-53.1324","woe-name":"Guyane française","latitude":"3.85831","woe-label":null,"hc-middle-lon":-53.192,"hc-middle-lat":4,"hc-inset":"fr-all-all-guyana"}},{"type":"Polygon","arcs":[[325]],"id":"FR.MQ.MQ","properties":{"hc-group":"admin2","hc-key":"fr-mq-mq","hc-a2":"MQ","labelrank":"4","hasc":"FR.MQ","alt-name":null,"woe-id":"23424884","subregion":null,"fips":null,"name":"Martinique","type":"Overseas department","region":"Martinique","longitude":"-61.064","woe-name":"Martinique","latitude":"14.7245","woe-label":null,"hc-middle-lon":-61.045,"hc-middle-lat":14.708,"hc-inset":"fr-all-all-martinique"}},{"type":"MultiPolygon","arcs":[[[326]],[[327]],[[328]],[[329]],[[330]],[[331]],[[332]],[[333]],[[334]],[[335]],[[336]],[[337]]],"id":"FR.GP.GP","properties":{"hc-group":"admin2","hc-key":"fr-gp-gp","hc-a2":"GP","labelrank":"20","hasc":"FR.GP","alt-name":null,"woe-id":"23424831","subregion":null,"fips":null,"name":"Guadeloupe","type":"Overseas department","region":"Guadeloupe","longitude":"-61.6822","woe-name":"Guadeloupe","latitude":"16.1881","woe-label":null,"hc-middle-lon":-61.668,"hc-middle-lat":16.148,"hc-inset":"fr-all-all-guadeloupe"}}],"hc-recommended-transform":{"default":{"crs":"+proj=lcc +lat_1=46.8 +lat_0=46.8 +lon_0=2.337229166666667 +k_0=0.99987742 +x_0=600000 +y_0=2200000 +ellps=intl +towgs84=-87,-98,-121,0,0,0,0 +units=m +no_defs","scale":0.000622615258227,"jsonres":15.5,"jsonmarginX":-999,"jsonmarginY":9851,"xoffset":73587.9424903,"yoffset":2677333.42515},"fr-all-all-reunion":{"xpan":150,"ypan":630,"crs":"+proj=utm +zone=40 +south +datum=WGS84 +units=m +no_defs","scale":0.000763557633794,"jsonres":15.5,"jsonmarginX":-999,"jsonmarginY":9851,"xoffset":315585.929084,"yoffset":7692417.85149,"geometry":{"type":"Polygon","coordinates":[[[-1.6312369974460945,42.07429790131822],[0.22304705901060873,42.12775919037318],[0.2642924273704315,40.96470524345841],[-1.5539063666157509,40.912369017933344],[-1.6312369974460945,42.07429790131822]]]}},"fr-all-all-mayotte":{"xpan":240,"ypan":630,"crs":"+proj=utm +zone=38 +south +datum=WGS84 +units=m +no_defs","scale":0.00132206425115,"jsonres":15.5,"jsonmarginX":-999,"jsonmarginY":9851,"xoffset":504613.291438,"yoffset":8601873.46699,"geometry":{"type":"Polygon","coordinates":[[[0.22304705901060873,42.12775919037318],[1.6472863641203566,42.14666985795525],[1.6607506925897204,40.98321754454079],[0.2642924273704315,40.96470524345841],[0.22304705901060873,42.12775919037318]]]}},"fr-all-all-guyana":{"xpan":310,"ypan":630,"crs":"+proj=utm +zone=22 +datum=WGS84 +units=m +no_defs","scale":0.000124325372918,"jsonres":15.5,"jsonmarginX":-999,"jsonmarginY":9851,"xoffset":97769.9054769,"yoffset":635816.081323,"geometry":{"type":"Polygon","coordinates":[[[1.6472863641203566,42.14666985795525],[3.1657022599536693,42.14567272668965],[3.1495304813721945,40.982241097236084],[1.6607506925897204,40.98321754454079],[1.6472863641203566,42.14666985795525]]]}},"fr-all-all-martinique":{"xpan":390,"ypan":630,"crs":"+proj=utm +zone=20 +datum=WGS84 +units=m +no_defs","scale":0.000968530558841,"jsonres":15.5,"jsonmarginX":-999,"jsonmarginY":9851,"xoffset":690597.139078,"yoffset":1645548.31731,"geometry":{"type":"Polygon","coordinates":[[[3.1657022599536693,42.14567272668965],[4.7334455322528814,42.12172944548859],[4.686699942573524,40.95880148215718],[3.1495304813721945,40.982241097236084],[3.1657022599536693,42.14567272668965]]]}},"fr-all-all-guadeloupe":{"xpan":470,"ypan":630,"crs":"+proj=utm +zone=20 +datum=WGS84 +units=m +no_defs","scale":0.000579103792655,"jsonres":15.5,"jsonmarginX":-999,"jsonmarginY":9851,"xoffset":628456.113255,"yoffset":1826317.58275,"geometry":{"type":"Polygon","coordinates":[[[4.7334455322528814,42.12172944548859],[6.559777776545214,42.0644173221661],[6.477509743286185,40.90269452500343],[4.686699942573524,40.95880148215718],[4.7334455322528814,42.12172944548859]]]}}},"hc-recommended-mapview":{"padding":[0,0,"5%",0],"insets":[{"id":"fr-reunion","borderPath":{"type":"MultiLineString","coordinates":[[[20,90],[32,90],[32,100]]]},"field":{"type":"Polygon","coordinates":[[[20,90],[32,90],[32,100],[20,100]]]},"geoBounds":{"type":"Polygon","coordinates":[[[55,-20.5],[56,-20.5],[56,-21.5],[55,-21.5]]]},"padding":"10%","projection":{"name":"LambertConformalConic","parallels":[-21],"rotation":[-55]}},{"id":"fr-mayotte","borderPath":{"type":"MultiLineString","coordinates":[[[32,90],[44,90],[44,100]]]},"field":{"type":"Polygon","coordinates":[[[32,90],[44,90],[44,100],[32,100]]]},"geoBounds":{"type":"Polygon","coordinates":[[[45,-12.5],[45.5,-12.5],[45.5,-13],[45,-13]]]},"padding":"10%","projection":{"name":"LambertConformalConic","parallels":[-21],"rotation":[-55]}},{"id":"fr-guyane","borderPath":{"type":"MultiLineString","coordinates":[[[44,90],[56,90],[56,100]]]},"field":{"type":"Polygon","coordinates":[[[44,90],[56,90],[56,100],[44,100]]]},"geoBounds":{"type":"Polygon","coordinates":[[[-54.5,6],[-51.5,6],[-51.5,2],[-54.5,2]]]},"padding":"10%","projection":{"name":"LambertConformalConic","parallels":[4],"rotation":[53]}},{"id":"fr-martinique","borderPath":{"type":"MultiLineString","coordinates":[[[56,90],[68,90],[68,100]]]},"field":{"type":"Polygon","coordinates":[[[56,90],[68,90],[68,100],[56,100]]]},"geoBounds":{"type":"Polygon","coordinates":[[[-61.3,14.9],[-60.7,14.9],[-60.7,14.4],[-61.3,14.4]]]},"padding":"10%","projection":{"name":"LambertConformalConic","parallels":[14.5],"rotation":[61]}},{"id":"fr-guadeloupe","borderPath":{"type":"MultiLineString","coordinates":[[[68,90],[80,90]]]},"field":{"type":"Polygon","coordinates":[[[68,90],[80,90],[80,100],[68,100]]]},"geoBounds":{"type":"Polygon","coordinates":[[[-61.9,16.6],[-60.9,16.6],[-60.9,15.7],[-61.9,15.7]]]},"padding":"10%","projection":{"name":"LambertConformalConic","parallels":[16],"rotation":[61]}}]}}},"arcs":[[[4987,9481],[4,-4],[-14,2],[-1,11],[11,-9]],[[5066,9432],[-5,-2],[-4,10],[8,-2],[1,-6]],[[5675,9064],[-7,0],[-1,6],[5,8],[4,1],[5,-7],[-6,-8]],[[5245,8928],[-3,3],[2,5],[3,-2],[-2,-6]],[[5243,8917],[-2,2],[1,6],[3,-5],[-2,-3]],[[5133,9304],[10,-7],[4,-1],[1,-8],[4,-5],[-3,-12],[-4,10],[-10,13],[-2,10]],[[5120,9332],[7,-1],[-2,-3],[16,-3],[4,-6],[-7,1],[-8,6],[-6,0],[-4,6]],[[6051,8726],[0,-22],[-5,-12],[-4,1],[4,-7],[-7,-6],[1,-8],[-4,-14],[-11,5],[2,4],[-10,7],[-6,0],[-12,10],[1,11],[6,2],[4,6],[-11,2],[0,4],[-8,-1],[1,10],[7,3],[1,10],[-5,5],[-11,-5],[-2,10],[6,1],[2,7],[5,2],[-4,9],[-9,3],[0,6],[-3,9],[11,6],[-10,9],[0,5]],[[5980,8798],[7,5],[2,12],[4,8],[5,-1],[3,6],[18,7],[7,10],[11,0],[5,-7],[4,10],[-3,13],[5,12],[-2,9],[7,3],[2,-7],[3,-18],[-3,-17],[1,-14],[6,-9],[0,-23],[3,-11],[-1,-26],[-13,-22],[0,-12]],[[5611,8946],[-8,4],[-2,9]],[[5601,8959],[-14,-3],[-17,-16],[-10,-5],[-9,-13],[-11,0],[-12,-9]],[[5388,9900],[-4,5],[3,23],[-2,15],[4,15],[-3,11],[7,3],[6,7],[16,7],[12,3]],[[5427,9989],[23,6],[5,0],[11,4],[3,-12],[5,-5],[-3,-7],[1,-10],[9,-5],[8,-11],[10,-3],[6,8],[11,3],[3,-2],[8,-16],[3,-17],[6,-5],[10,4],[3,-5],[10,-1],[3,-5],[1,-17],[3,-3],[4,6],[13,-2],[11,2],[9,-12],[6,0],[-4,-6],[-2,-11],[4,0],[3,-10],[-7,-6],[0,-6]],[[5343,9073],[-1,0]],[[5292,8840],[-7,0],[-3,4],[-7,-7],[-3,6],[-6,2],[-17,-5],[-7,4],[-4,11],[-6,-2],[-6,7]],[[5043,9497],[-4,11],[-26,-4],[-8,8],[14,-1],[5,7],[-8,4],[-14,-4],[0,-6],[-4,5],[-7,-2],[-3,3],[-2,-17],[-1,16],[-5,5],[1,7],[7,3],[-3,7],[-7,-13],[-11,7],[6,11],[-14,-12],[-8,10]],[[4951,9542],[-1,4]],[[4951,9542],[-14,3],[-12,1],[-7,11],[-9,-4],[-6,3],[-10,-10],[-13,0],[3,8],[-8,16],[-8,7],[-17,2],[4,3],[27,7],[6,-1],[-1,12],[-13,7],[-6,-9],[-2,11],[-6,1],[7,5],[12,-2],[18,1],[-11,3],[4,6],[-15,-3],[8,10],[-6,-1],[-16,-8],[-7,2],[-5,-3],[-2,10],[0,11],[5,10],[7,2],[6,7],[14,2],[5,5],[3,-6],[15,8],[13,5],[2,-10],[4,3],[5,-7],[3,14],[15,-6]],[[4943,9668],[6,0],[-1,6],[4,1],[-4,7],[5,7],[13,-3],[12,7],[1,-7],[10,7],[5,-10],[9,-4],[-1,-5],[10,-10],[1,-8],[8,-6],[3,-7],[9,10],[23,15],[-2,-8],[7,3],[3,-10],[6,8],[8,2],[6,-16],[2,0]],[[5086,9647],[-6,15],[4,6],[11,3],[1,-12],[10,-1],[11,4]],[[5117,9662],[5,-16]],[[5718,9779],[14,7],[9,1],[9,-8],[6,-2]],[[5756,9777],[3,-5],[8,1],[7,6],[9,0],[7,-5],[6,1],[8,-4],[7,-10],[-2,-3],[7,-10],[6,-13],[9,-4],[2,9],[15,-4],[1,-9],[5,4],[6,-4],[10,-1],[10,8],[7,-2],[4,-10],[11,-6]],[[5157,9340],[-5,2],[-3,-7],[-13,11],[-7,-2],[-5,11],[-10,1],[-15,10],[-5,19],[-9,10],[-7,11],[-6,4],[-1,7],[2,8],[5,4],[5,11]],[[5083,9440],[-3,8],[-18,7],[6,3],[1,16],[10,1],[7,-2],[15,-9],[-11,12],[-9,3],[-12,-1],[-11,-9],[-7,5],[-7,-2],[1,5],[-10,11],[14,5],[-6,4]],[[5815,9176],[-2,-3],[5,-10],[5,-2],[1,-12],[12,-10],[5,1],[7,-6],[-1,-4],[5,-15],[-6,1],[-4,-4]],[[5842,9112],[0,-5],[-8,-11],[-1,-6],[7,-9],[-3,-3],[0,-8]],[[5837,9070],[10,-16],[3,0],[18,-11],[11,-5],[24,7],[-1,-4],[4,-8],[-5,-13],[-13,-18],[2,-10],[-6,-6],[-5,0],[-4,-8],[-6,0],[-5,-6],[-4,1],[-1,-14],[-5,2],[-4,-4],[-5,1],[-4,-9]],[[5841,8949],[-6,-9],[-11,-1],[-1,-8],[-10,-9],[8,-2],[-1,-9],[-6,-4],[-6,1],[-3,-4],[-11,-2],[0,-7],[-8,4],[-10,-3],[-1,-6],[-4,5],[-7,-1],[-7,7],[-5,-1],[5,-7],[-7,-4],[-7,5],[4,3],[-11,6],[-2,5]],[[5734,8908],[-5,-3],[-6,7],[-16,1],[1,7],[-2,9],[-4,3],[-5,-4],[-15,0],[-5,8],[5,5],[10,1],[4,10],[-5,-2],[-5,6],[-6,4],[-2,-6],[4,-9],[-3,-4],[-8,3],[-8,-8],[-1,-5],[-13,0],[-9,3],[1,8],[-5,4],[-9,-1],[-16,1]],[[5767,9354],[7,-7],[-4,-16],[-12,-5],[0,-11]],[[5758,9315],[13,1],[15,14],[-5,8],[6,10],[7,-3],[10,8],[17,2],[8,-1],[-3,-9],[6,-11],[-3,-6],[-1,-13],[7,-1],[-1,-10],[6,0],[5,-8],[4,-9],[-5,-8],[-14,-6],[-1,-8]],[[5829,9265],[5,-12],[10,-6],[2,-17],[15,-14],[-6,-12],[1,-9],[-5,-6],[-8,-1],[-9,-11],[-9,4],[-10,-5]],[[5603,9845],[5,-2],[2,0]],[[5517,9057],[11,-10]],[[5537,9048],[2,-4]],[[5539,9044],[-8,-11]],[[5402,8823],[-4,6],[-9,1],[-6,5],[-6,-2],[-3,-6],[-10,16],[-16,1],[-5,8],[-13,1],[-5,4]],[[5325,8857],[-11,5],[-6,-1],[-2,-13],[1,-9],[-15,1]],[[5528,8913],[-11,-15],[-7,-23],[1,-15]],[[5511,8860],[-1,-21],[1,-17],[8,-5],[3,-13],[-9,1],[-3,4],[-9,1],[-14,-9],[-6,0],[-5,-5],[2,-4],[-9,2],[-7,-2],[-4,6],[-12,6],[-12,-2],[-8,-8],[-7,2],[-3,9],[-19,9],[5,9]],[[5531,9033],[5,9],[3,2]],[[5528,9047],[-2,5],[-9,5]],[[5226,8860],[-10,-6],[-13,1],[-6,7],[-7,4],[-3,10],[-18,1],[-4,4],[-11,3],[-10,5],[-7,7],[-3,-9],[-8,7],[5,8],[2,15],[-13,5],[-7,-4],[-3,7],[-6,-2],[-5,7],[1,6],[11,2],[5,6],[7,13]],[[5123,8957],[7,-5]],[[5123,8957],[4,6],[11,61],[8,62]],[[5146,9086],[-1,12],[6,15],[12,0],[-1,7],[-9,8],[-6,-10],[-2,-10],[5,68],[4,21],[1,30],[5,10],[2,-5],[12,-11],[13,-17],[4,-25],[3,-9],[7,-8],[7,1],[-10,6],[-3,8],[-3,26]],[[5252,9181],[0,4]],[[5192,9203],[-4,14],[-8,13],[-11,10],[-1,3],[-17,14],[-5,0],[1,11],[8,2],[7,-9],[6,-3],[-12,12],[-2,9],[7,5],[0,8],[-3,8],[4,-1],[-3,12],[-5,7],[-4,1],[2,10],[6,4],[-1,7]],[[5774,9374],[-7,-12],[0,-8]],[[5117,9662],[7,-1],[11,3],[-11,6],[-4,6],[-2,18],[3,21],[-3,-2],[-3,12],[1,17],[-10,16],[-9,8],[1,6],[-6,12],[3,6],[-2,12],[-6,2],[1,7],[10,-5],[18,-5],[8,1],[10,7],[10,-2],[4,-10],[-7,-9],[10,-18],[1,-10],[5,-1]],[[5157,9759],[4,7],[11,-1],[10,-4],[24,-1],[11,-2],[16,-8],[16,5],[9,5],[8,8],[11,3]],[[5277,9771],[10,2],[7,6]],[[5294,9779],[-6,-4],[-14,0],[-13,4],[-2,7],[8,20],[5,6],[13,6],[12,8],[12,6],[8,0],[35,12],[17,14]],[[5369,9858],[8,9],[1,7],[6,5],[9,-4],[1,4],[-11,8],[1,10],[4,3]],[[5304,9528],[0,2]],[[5859,9502],[-11,2],[-6,-10]],[[5842,9494],[-6,-10],[11,2],[4,-4],[-8,-7],[0,-6],[-24,-25],[0,-6],[-6,-5],[-13,-6],[-2,-25],[-13,-11],[-13,-14],[2,-3]],[[5902,9716],[11,2],[13,-2],[14,-8],[9,-3],[-8,-19],[-12,-9],[-1,-6],[-12,-13],[0,-13],[-3,-3],[-3,-13],[1,-7],[-4,-6],[-3,-10],[-8,-16]],[[5896,9590],[0,-10],[4,-7],[-8,-30],[-1,-16],[6,-11],[-9,-6],[-1,-9],[-8,-7],[-11,-1],[-7,3],[-2,6]],[[5710,9795],[5,-9],[3,-7]],[[5610,9843],[6,0],[13,-3],[19,7],[2,13],[9,10],[7,-2],[-7,-23],[5,-6],[-1,-11],[2,-8],[8,1],[11,-6],[9,-10],[6,1],[3,-10],[8,-1]],[[5237,9449],[6,-4]],[[5043,9497],[11,2],[2,5],[8,1],[2,-4],[7,9],[2,12]],[[5075,9522],[5,6],[13,4],[6,-2],[10,4],[8,8],[11,7],[18,-6]],[[5146,9543],[0,4]],[[5146,9547],[7,20],[11,6],[-3,12],[0,12],[-3,13],[3,7],[-1,25]],[[5658,9012],[6,11],[-6,10],[-4,0],[-1,14],[-5,13]],[[5611,8946],[2,6],[17,12],[-1,5],[5,11],[9,-1],[4,14],[-1,10],[12,9]],[[5548,9690],[-6,-5],[-1,-9],[4,-3],[2,-12],[6,-3]],[[5553,9658],[-8,-11],[-3,-1],[-1,-16]],[[5388,9900],[7,-4],[12,2],[5,-6],[15,-9],[5,-6],[10,1],[8,4],[12,-6],[-8,-8],[2,-6],[5,5],[20,-7],[1,7],[5,-13],[5,4],[2,-6],[10,2],[2,5],[9,-3]],[[5515,9856],[5,-4]],[[5520,9852],[25,-1],[9,5],[7,-2],[4,3],[15,-2],[2,-3],[8,3],[2,-7],[11,-3]],[[5505,9110],[-4,6],[-2,9],[-7,16],[-3,-1],[-5,10],[-11,-14],[-5,-14],[-7,-10],[-10,-1],[-3,2],[-9,-6]],[[5439,9107],[-6,10],[2,11],[-5,12],[-3,15]],[[5466,9225],[-2,-11],[-9,2],[-3,-10],[-13,-16],[1,-9],[-8,-14],[1,-9],[-6,-3]],[[5327,9400],[3,-5],[0,-13],[10,-11],[6,0],[8,-15],[-2,-6]],[[5258,9456],[2,-4],[8,-3],[1,-6],[9,-2],[0,-13],[11,-2],[11,3],[2,6],[7,-5],[4,-9],[10,-17],[4,-4]],[[5343,9073],[-5,24],[6,3]],[[5344,9100],[8,14],[9,6],[6,12],[7,11],[-1,14],[3,4]],[[5226,8860],[-1,9],[2,12],[9,8],[0,7],[9,11],[5,11],[0,8],[4,4],[-1,11],[-5,14],[-5,7]],[[5243,8962],[-8,2],[-3,0]],[[5232,8964],[-3,5],[6,16],[1,14],[-3,7],[5,5],[6,0],[6,6],[1,-7],[6,-2],[2,8]],[[5259,9016],[6,1],[6,6],[8,-2],[13,8],[10,2],[6,-5],[7,4]],[[5315,9030],[7,12],[6,0],[4,18],[-5,4],[3,9],[4,-2],[8,2]],[[5427,9155],[-13,0],[-9,-5],[-7,3],[-9,10],[-7,2],[-6,-4]],[[5703,9360],[-11,7],[-10,-2],[-10,1],[-6,-22],[-4,-11],[-2,-12]],[[5660,9321],[-7,2],[-1,8],[-6,7],[-3,-5],[-16,4],[-2,-9]],[[5625,9328],[-8,-7],[-20,3],[-7,-3],[-7,5],[-1,9]],[[5767,9354],[-15,-19],[-13,-1],[-7,10],[-12,-11],[-3,8],[-8,6],[-6,13]],[[5444,9355],[-9,0],[-1,0]],[[5434,9355],[-22,2],[-4,-2],[-6,4],[-2,-6],[-11,-3],[-9,4],[-8,-9]],[[5372,9345],[-7,7],[-9,-4],[-4,2]],[[5321,9665],[5,4],[12,3],[8,8],[13,-3],[7,5],[3,6],[6,5],[4,10]],[[5277,9771],[1,-17],[6,-7],[-3,-5],[7,-13],[-4,-11],[5,-7],[-2,-8]],[[5287,9703],[1,-8],[14,-1],[6,-10],[7,-4],[-1,-9],[7,-6]],[[5753,9564],[-6,-10],[-9,-7],[-1,-16],[-10,-5],[-7,3],[-7,-1],[-4,-9]],[[5753,9564],[-8,4],[-1,8],[-11,11],[5,15],[-7,10],[-4,0],[-7,9],[-6,-1],[2,11]],[[5716,9631],[-10,11],[-13,6],[-13,10],[-4,11]],[[5122,9646],[7,-9],[6,1],[9,9],[16,-5]],[[5902,9716],[-6,-13],[-8,2],[-12,-2],[-4,4],[-12,5],[-6,7],[-8,-22],[9,-6],[1,-9],[8,9],[9,-11],[1,-5],[-4,-8],[2,-4],[-2,-9],[-7,-7],[-9,-2]],[[5854,9645],[4,-5],[-2,-20],[9,-5]],[[5865,9615],[-12,-21],[1,-4],[-6,-16],[-4,-6],[-4,-11],[1,-6],[-5,-3]],[[5753,9564],[5,6],[1,-5],[9,9],[6,-1],[9,-9],[11,2],[10,-6],[7,0],[3,5],[19,-16]],[[5833,9549],[1,-1],[2,0]],[[5157,9340],[3,4],[10,3],[2,-6],[10,2],[6,-4]],[[5188,9339],[10,3],[7,6],[-7,7],[0,13],[2,5],[-4,18],[-5,10],[1,7],[-8,7],[-3,9],[-9,11]],[[5320,9599],[-6,1],[-5,7],[-14,3],[-2,5],[-8,4],[-1,16],[-8,3],[-8,-2],[-12,-11],[-8,0]],[[5248,9625],[-1,7],[-8,9],[-2,7],[-5,2],[-1,-4],[-9,-5],[-12,1],[-5,-4],[-9,0],[-8,-4],[-5,1],[-4,7]],[[5179,9642],[-12,-1],[-7,1]],[[5648,9060],[-12,7],[-4,0],[-5,-6],[-1,5],[-6,1],[-7,-7],[-10,7],[-7,0],[0,10],[-5,7]],[[5591,9084],[-6,17],[-4,24]],[[5582,9335],[-9,-6],[3,-31],[-11,-7]],[[5565,9291],[4,-9],[-3,-14],[9,-20],[10,-10],[4,-12],[-7,-18]],[[5582,9208],[7,2],[3,-3],[11,1],[3,4],[8,-2],[4,3],[4,-8],[0,-8],[9,-5]],[[5631,9192],[1,-7],[-4,-10],[-3,3],[-2,-14],[-5,-2],[-1,-7],[-7,-2],[-5,-11],[-11,-2],[-13,-15]],[[5815,9176],[-9,-3],[-5,-7],[-9,8],[-7,2]],[[5785,9176],[-4,-16],[9,-1],[3,-12],[-1,-8],[-19,0],[-13,-7],[0,-4],[-11,-4],[-3,-5]],[[5746,9119],[-2,-8],[-11,-1],[-4,-12],[4,-6],[-6,-6],[-10,3],[2,-10],[-6,1],[3,-8],[14,-9],[5,-6],[0,-10]],[[5735,9047],[-1,-4],[-7,3],[-7,-8]],[[5720,9038],[-10,6],[-1,5],[-18,6],[1,7],[-11,0],[-20,-7],[-6,11],[-7,0]],[[5648,9066],[0,-6]],[[5616,9562],[-5,7],[-2,-4],[-14,-3],[-11,3],[-1,6],[-15,24],[-3,-2],[-9,5],[3,11],[-8,11],[-8,4],[-2,6]],[[5610,9843],[3,-14],[-3,-11],[2,-7],[-10,-11],[-6,-3],[2,-8],[-2,-11],[1,-11]],[[5597,9767],[-1,-5],[-14,1],[-3,-4],[-17,-6],[3,-14],[5,-3],[-3,-5],[-6,0],[-4,-15],[7,-4],[-13,-16],[-3,-6]],[[5379,9703],[7,-13],[-1,-8],[4,-6],[-3,-6],[15,-19],[4,-14],[10,-3]],[[5415,9634],[7,-17],[-1,-6]],[[5501,9594],[2,7],[7,9],[1,13],[26,2],[4,5]],[[5421,9611],[12,3],[7,6],[4,-5],[5,3],[6,-2]],[[5455,9616],[4,-9],[7,-6],[-2,-7],[-4,-3],[20,-1],[9,5],[3,-4],[9,3]],[[5581,9125],[-11,9],[-7,2],[0,5],[-14,-7],[-11,19]],[[5538,9153],[-10,-5],[-8,-7],[-4,2],[-5,-13],[-6,-20]],[[5517,9057],[2,6],[0,16],[-4,7],[-2,13],[-8,11]],[[5537,9048],[-9,-1]],[[5402,8823],[15,1],[6,12],[13,1]],[[5436,8837],[-1,3],[-8,8],[-6,-2],[-6,3],[-4,9],[9,6],[-3,10],[4,4],[-2,15],[-3,6],[-13,5],[-5,4],[-1,12]],[[5397,8920],[2,7],[7,3],[3,11],[4,-4],[12,4]],[[5425,8941],[5,-4],[10,-1],[4,8],[9,-2],[17,-1]],[[5470,8941],[8,6],[0,8],[-3,5],[2,10],[11,-2],[9,5],[4,6]],[[5501,8979],[10,1],[0,15],[12,0],[7,10],[6,3]],[[5536,9008],[9,13],[-4,7],[-10,5]],[[5466,9225],[-4,15],[4,8],[-2,12]],[[5464,9260],[-4,3],[-4,10],[9,6],[8,14],[-3,14],[0,9]],[[5470,9316],[-8,18],[-12,8],[-6,13]],[[5306,9257],[-10,-11],[-2,-10],[-6,-10],[-11,-8],[-4,-19],[-10,-11],[-11,-3]],[[5376,9161],[-5,8],[0,8],[-9,2],[-4,8],[3,7],[-3,8],[7,9],[-5,2],[-1,8]],[[5359,9221],[-11,5],[1,7],[-5,1],[-6,10],[-16,-3],[-5,3],[-3,11],[-8,2]],[[5352,9350],[-11,-4],[-5,-10],[-8,-1],[-9,-8],[3,-11],[-2,-1]],[[5320,9315],[1,-9],[10,-13],[-10,-7],[-3,-18],[-4,2],[-8,-13]],[[5252,9181],[-3,-5]],[[5249,9176],[-12,-3],[-14,9],[-5,0],[-2,11],[-10,7],[-4,7],[-10,-4]],[[5709,9519],[9,-1],[1,-10],[-6,-5],[8,-28]],[[5721,9475],[-3,-14],[-9,-15],[-6,-3],[0,-6],[-5,-5]],[[5698,9432],[7,-10],[11,-7],[-9,-8],[3,-3],[3,-20],[-5,-9],[5,-9],[-10,-6]],[[5709,9519],[-9,-3],[-9,12],[-7,-2],[-4,6],[-5,-1],[-4,11],[5,3],[-8,16],[-9,11],[-8,4]],[[5651,9576],[-7,-1],[-6,-7],[-18,-3],[-4,-3]],[[5396,9743],[3,5],[5,-2],[-6,22]],[[5398,9768],[4,13],[-4,0],[-3,19],[3,3],[-3,6],[6,8]],[[5401,9817],[-6,17],[-14,15],[-12,9]],[[5379,9703],[-3,5],[0,10],[14,4]],[[5390,9722],[4,15],[2,6]],[[5396,9743],[4,-6],[12,-3],[17,6],[13,-7],[8,2],[22,-12]],[[5472,9723],[3,1],[10,-4],[4,3],[16,-1],[9,4]],[[5514,9726],[5,-2],[3,-13],[12,-11],[3,0],[6,-9],[5,-1]],[[5320,9599],[-1,20],[9,4],[7,10],[-3,12],[-8,8],[-3,12]],[[5304,9528],[-14,-7],[-5,0],[-1,-6],[-11,3]],[[5273,9518],[-6,-31],[-6,-12],[-3,-19]],[[5320,9599],[10,-7],[-7,-6]],[[5323,9586],[-3,-6],[3,-3],[0,-10],[-5,-7],[-3,-16],[-11,-9],[0,-5]],[[5859,9502],[1,6],[-10,9],[1,17],[-14,10],[-1,4]],[[5710,9795],[-7,-8],[-17,2],[-3,-9],[4,-11],[-6,-12],[0,-7],[-6,-7]],[[5675,9743],[-2,-9],[3,-17],[4,-4],[-3,-12],[-7,-7],[0,-12],[6,-6],[0,-7]],[[5237,9449],[-17,-2],[-15,-4],[0,-5],[-7,-4],[-17,0],[-9,1]],[[5258,9456],[-6,1],[-9,-12]],[[5510,9406],[3,11],[-1,6],[1,18],[-8,31],[-9,9],[5,16],[-5,10]],[[5496,9507],[-1,3],[9,3]],[[5504,9513],[-4,15],[-7,6],[0,4],[14,8],[-1,13],[8,7],[3,10],[-6,7],[-3,9],[-7,2]],[[5444,9355],[3,7],[9,7],[18,4],[-3,14],[4,1],[8,10],[10,-1],[8,8],[9,1]],[[5510,9406],[1,-5],[14,-9],[13,0],[6,2],[2,-7],[9,4],[5,8]],[[5560,9399],[10,-18],[0,-8],[20,-12],[2,-19],[-10,-7]],[[4950,9546],[14,11],[0,9],[-14,5],[-6,-1],[-9,17],[2,6],[12,6]],[[4949,9599],[10,-1],[2,-4],[7,2],[4,-3],[11,1],[4,7],[9,-1],[2,-5],[6,1],[10,-5],[4,-5],[8,4],[0,-11],[5,1],[5,7],[3,9],[7,0],[7,-7],[5,2]],[[5058,9591],[8,-11],[-7,-6],[9,-3],[5,-6],[0,-13],[4,0],[-1,-13],[-5,-6],[4,-11]],[[5154,9439],[10,-4],[8,0]],[[5083,9440],[10,-11],[9,-4],[4,-6],[14,-3],[5,3],[-4,8],[0,11],[6,-2],[1,-9],[7,2],[1,9],[8,8],[10,-7]],[[5511,8860],[-16,11],[-13,-11],[-28,2],[-4,-4],[1,-14],[-6,-1],[-7,-8],[-2,2]],[[5470,8941],[-1,-7],[7,-10],[4,3],[6,-8],[7,8],[2,9],[5,-9],[7,0],[1,-5],[15,-5],[5,-4]],[[5741,8984],[-14,-9],[-15,4],[-6,6],[-13,1],[-9,6],[-10,11],[-16,9]],[[5720,9038],[3,-9],[-3,-12],[7,-7],[-4,-14],[6,2],[4,-3],[8,-11]],[[5649,9646],[9,1],[-1,7],[8,3],[-7,5],[8,7],[10,0]],[[5651,9576],[1,11],[10,1],[3,12],[-3,20],[-4,2],[-11,13],[2,11]],[[5649,9646],[-6,3],[-6,-3],[-17,11],[-2,13],[-9,1],[-10,-2],[-18,-17],[-2,-6],[-8,1],[-3,4],[-7,-3],[-1,5],[-7,5]],[[5597,9767],[12,-2],[18,-15],[12,1],[7,-8],[7,3],[10,-2],[9,2],[3,-3]],[[5513,9870],[0,-3],[-6,-1],[0,4],[6,0]],[[5515,9856],[3,18],[3,6],[-3,5],[-9,1],[3,8],[-5,8],[5,6],[-6,10],[-14,3],[-3,5],[2,7],[5,3],[-6,5],[-6,-6],[-20,1],[-10,6],[-2,9],[3,4],[-14,5],[-3,10],[-11,19]],[[5243,8962],[9,5],[2,-10],[9,-4],[1,-13],[5,-6],[8,1],[5,-4],[22,-5]],[[5304,8926],[0,-3],[-14,-22],[10,-8],[-3,-10],[7,4],[3,-10],[-8,-12],[-6,0],[-2,-6],[1,-19]],[[5327,9400],[8,1],[8,36],[7,3],[7,-3],[7,12],[3,1],[-2,11]],[[5365,9461],[8,5],[9,0],[6,8],[11,1],[9,-10]],[[5408,9465],[-5,-12],[9,-4],[7,3],[7,-4],[0,-5],[4,-8],[-1,-8],[4,-7],[-4,-7],[2,-11],[-3,-3],[6,-6],[4,-10],[-3,-9],[3,-11],[-4,-8]],[[5320,9315],[-7,1],[-6,-6],[-8,-1],[-4,6],[-5,-5],[0,-6],[-14,2],[-7,4]],[[5269,9310],[-1,9],[-7,4],[6,17],[-2,5],[-7,-6],[-7,15],[-1,15],[4,9],[-4,9],[3,10],[-2,14],[3,1],[-5,20],[-6,13]],[[5344,9100],[-9,9],[-9,-5],[-5,4],[-2,8],[-9,-2],[-8,3],[-15,-7],[-3,2],[-7,14]],[[5277,9126],[-3,9],[5,4],[-7,2],[-5,-6],[-12,2],[-4,3],[4,7],[-3,4],[6,17],[-3,7],[-6,1]],[[5188,9339],[0,-8],[10,-13],[9,-3],[3,-4],[20,-5],[13,-13]],[[5243,9293],[-4,-6],[2,-13],[-6,-8],[-6,4],[-12,-3],[-1,-23],[11,-7],[-2,-4],[6,-5],[0,-9],[-5,-8],[3,-10],[5,2],[9,-4],[-1,-6]],[[5242,9193],[7,-1],[1,-1]],[[5250,9191],[2,-5]],[[5252,9186],[0,-1]],[[5841,8949],[-4,5],[1,13],[-3,0],[-7,6],[-2,12],[-7,2],[-3,5]],[[5816,8992],[6,3],[1,9],[7,4],[12,-1],[-16,19],[-1,9],[-4,7],[3,13],[6,10],[7,5]],[[5734,8908],[2,7],[6,6],[-6,5],[-1,12],[8,2],[-5,9],[1,10],[-4,4],[2,9]],[[5737,8972],[7,2],[0,2]],[[5744,8976],[-1,6]],[[5743,8982],[0,1],[-2,1]],[[5741,8984],[2,4]],[[5743,8988],[7,-5],[7,3],[6,-10],[20,17],[9,-8],[6,8],[16,1],[2,-2]],[[5741,8984],[0,0]],[[5735,9047],[10,3],[9,-2],[-7,11],[1,3],[7,-4],[-1,9],[4,9],[10,10],[5,0],[9,-12],[2,12],[9,9],[6,-8],[7,-4],[10,0],[4,13],[9,8],[13,8]],[[5743,8988],[-1,-3],[-1,-1]],[[5758,9315],[-11,-5],[1,-22]],[[5748,9288],[-7,-30],[-8,-8],[-5,-1]],[[5728,9249],[-5,9],[-8,10],[-1,7],[-6,5],[-11,-13],[-11,6]],[[5686,9273],[-16,-2],[-1,9],[-7,4],[-7,8],[1,13],[4,16]],[[5514,9726],[4,6],[-2,5],[-11,0],[-1,5],[4,8],[-4,5],[9,4],[3,10],[5,2],[-4,11],[-1,17],[1,9]],[[5517,9808],[-2,9],[-3,1],[2,12],[9,16],[-3,6]],[[5741,8984],[2,-2]],[[5743,8982],[3,-4],[-2,-2]],[[5744,8976],[-7,-4]],[[5501,8979],[-2,6],[-7,2],[-7,-4],[-11,10],[-8,20],[0,5],[-5,9],[-16,14],[-14,7],[-10,-7],[-1,3]],[[5420,9044],[-5,3],[4,12],[-8,2],[1,7]],[[5412,9068],[2,3],[-6,17],[19,14],[7,-1],[5,6]],[[5539,9044],[12,-7],[8,0],[3,8],[4,1],[8,-6],[7,-1],[4,5],[4,13],[-6,18],[8,9]],[[5601,8959],[4,7],[2,12],[-3,7],[-10,8],[-4,0],[-2,10],[-10,0],[-1,9],[-9,5],[-4,-8],[-5,0],[-6,-7],[-5,4],[-2,-5],[-4,6],[-6,1]],[[5698,9432],[-14,-2],[-4,2],[-11,-2],[-19,-8],[-7,7],[-4,8],[-9,3],[-5,5],[-15,11]],[[5610,9456],[-2,13],[-5,0],[-2,13]],[[5601,9482],[-3,11],[4,5],[0,7],[11,20],[1,11],[6,4],[-1,11],[-5,0],[2,11]],[[5560,9399],[10,2],[6,-7],[16,10],[4,1],[0,8],[4,6],[-4,3],[0,7],[-4,6],[5,2],[0,14],[13,5]],[[5408,9465],[6,1],[4,8],[13,-2],[4,5],[-3,8],[3,9],[8,-2],[1,8],[-5,10],[-6,6],[9,5]],[[5442,9521],[12,-4],[6,2],[10,-5],[10,-12],[4,5],[6,-3],[6,3]],[[5464,9260],[-11,-3],[-6,-5],[-10,7],[-12,5],[-5,-8],[-7,-1]],[[5413,9255],[-1,11],[-10,11],[-13,-1],[1,8],[-8,2],[2,11],[-5,18],[-8,8],[-1,7],[4,10],[-2,5]],[[5154,9439],[-1,8],[-6,3],[6,11],[-3,8],[-4,0],[-7,11],[17,8],[18,1],[-4,14],[-14,2],[-3,9],[9,-1],[4,3],[-12,6],[-2,9],[-6,5],[0,7]],[[5146,9547],[9,-5],[13,-2],[3,4],[28,-8],[10,6],[7,-2]],[[5216,9540],[15,-8],[4,3],[1,-10],[4,-3],[8,3],[10,-6],[9,-3],[6,2]],[[5269,9310],[-5,1],[-9,-3],[-8,-13],[-4,-2]],[[5252,9186],[0,4],[-2,1]],[[5250,9191],[-8,2]],[[5648,9066],[2,15],[3,19],[6,12],[-1,19],[8,12],[2,9],[-6,22],[-1,26]],[[5661,9200],[16,6],[14,-12],[2,-14],[-1,-10],[18,-5],[6,5],[3,-12],[-3,-24],[1,-4],[7,0],[9,-9],[13,-2]],[[5631,9192],[11,0],[4,12],[11,5]],[[5657,9209],[1,-4],[3,-5]],[[5294,9779],[7,-7],[5,0],[2,-5],[12,2],[10,-8],[-4,-7],[11,-7],[5,5],[12,7],[6,0],[7,13],[3,2],[13,-2],[12,-6],[3,2]],[[5415,9634],[3,15],[7,4],[0,12],[5,4],[2,8],[9,3]],[[5441,9680],[6,-6],[2,2]],[[5449,9676],[6,-3],[9,1],[7,-6]],[[5471,9668],[-4,-8],[-3,-16],[3,-13],[-12,-15]],[[5421,9611],[-1,-10],[-5,-5],[-5,-11],[-19,-3],[-8,-4],[-2,-7]],[[5381,9571],[-4,1],[-12,-6],[-10,2],[-10,14],[-4,2],[-2,7],[-16,-5]],[[5397,8920],[-5,-3],[-11,7],[-2,-10],[-4,-2],[-6,12],[-6,0],[6,-11],[-12,-5],[-1,-3],[6,-5],[-4,-5],[-9,9],[-7,-2],[-5,-6],[-1,-14],[-9,-5],[-4,-10],[2,-10]],[[5304,8926],[4,2],[11,12],[11,-1],[5,-6],[4,2],[1,14],[3,8],[5,0],[5,9],[-10,9],[-10,17]],[[5333,8992],[18,3],[7,-5],[9,6],[-4,4],[6,5],[6,0],[9,5]],[[5384,9010],[2,-15],[6,-3],[7,-18],[-3,-4],[12,-9],[10,-12],[6,4],[1,-12]],[[5441,9680],[-5,6],[-1,9]],[[5435,9695],[9,8],[5,2]],[[5449,9705],[0,-5],[-4,-3]],[[5445,9697],[-1,-8],[6,-3]],[[5450,9686],[-1,-5],[0,-5]],[[5413,9255],[-2,-4],[-7,1],[-19,-16],[-10,4],[-3,-8],[-9,-5],[-4,-6]],[[5216,9540],[4,5],[-6,6],[4,2],[3,11],[6,3],[-4,10],[7,4],[3,5],[-1,10],[8,9],[-1,15],[9,5]],[[5304,9530],[2,1]],[[5306,9531],[2,1],[4,-1]],[[5312,9531],[13,-5]],[[5325,9526],[1,-8],[10,3],[7,-9],[-2,-5],[6,-11],[-2,-16],[6,-6],[6,-1],[8,-12]],[[5657,9209],[-1,5],[1,6]],[[5657,9220],[8,10],[1,5],[-6,6],[18,2],[8,11],[4,2],[-6,7],[2,10]],[[5728,9249],[13,-29],[13,-7],[1,12],[6,1],[5,-6],[7,-1],[5,-8],[0,-7],[-5,-9],[3,-15],[9,-4]],[[5721,9475],[6,-4],[9,1]],[[5736,9472],[10,-19],[-5,-15],[18,-6],[5,-17],[5,-1],[11,-11],[-10,-10],[0,-6],[-3,-5],[7,-8]],[[5833,9549],[-6,-10],[0,-6],[4,-20]],[[5831,9513],[-18,-4],[-4,-6],[-11,3],[-10,-3],[-4,-9],[-5,0],[-11,-10],[-12,-2],[-17,-11],[-3,1]],[[5625,9328],[4,-10],[-7,-1],[-8,-11],[4,-6],[-4,-7],[6,-4],[1,-9],[5,-5],[-5,-11],[5,-2],[-3,-7],[2,-6],[9,-9],[12,-1],[2,-12],[9,-7]],[[5420,9044],[-10,-3],[-7,-7],[-8,4],[-3,-4],[4,-9],[-12,-15]],[[5333,8992],[-4,4],[-3,14],[-9,3],[7,11],[-2,4],[-5,-3],[-2,5]],[[5343,9073],[5,1],[2,-11],[13,-5],[-2,-5],[7,-2],[9,9],[6,-7],[3,9],[7,-3],[9,7],[10,2]],[[5259,9016],[-2,8],[7,13],[-23,5],[-1,10]],[[5240,9052],[9,7],[-4,10],[8,3],[-1,19],[7,7],[8,11],[-6,10],[16,7]],[[5058,9591],[5,6],[6,12],[7,5],[8,-2],[4,11],[-2,8],[4,11],[-4,5]],[[5756,9777],[0,-15],[6,-11],[2,-8],[-3,-4],[2,-7],[-7,-9],[9,-9],[2,-6],[7,-6],[12,-1],[3,-4],[-2,-6],[7,-10],[5,1],[11,-5],[3,-5],[9,-7],[14,-6],[9,-2],[9,-12]],[[5854,9645],[-2,-1],[-15,-13],[-6,-3],[-13,3],[-4,7],[-9,-8],[-15,-1],[-4,4],[-2,-4],[-9,0],[-3,-6],[-12,-1],[-8,7],[1,11],[-11,1]],[[5742,9641],[-4,13],[3,5],[-2,15],[3,6],[1,13],[-2,5],[8,5],[-2,7],[2,9],[-3,7],[-4,0],[0,12],[-4,2],[3,11],[-3,13],[-6,7],[-12,-4],[-2,12]],[[5742,9641],[-4,-4],[-22,-6]],[[5504,9513],[11,2],[4,-8],[16,-6],[7,4],[7,-2],[0,9],[8,-13],[18,-11],[4,6],[3,-8],[6,3],[2,-9],[11,2]],[[5470,9316],[10,0],[5,12],[6,-3],[1,5],[6,3],[3,-12],[7,-10],[7,1],[4,-6],[8,1],[8,-4],[9,4],[2,-10],[11,1],[8,-7]],[[5582,9208],[-7,4],[-2,-4],[-7,2],[-7,-2],[-9,8],[-9,-2],[-5,3],[-12,-8],[-8,-1]],[[5516,9208],[-9,-9],[-8,11],[-6,4],[-11,-1],[-3,6],[-13,6]],[[5130,8952],[10,1],[12,6],[2,-8],[6,4],[5,-3],[3,6],[6,-1],[10,4],[7,-2],[13,-1],[8,6],[3,-5],[17,5]],[[5748,9288],[3,-2],[2,-13],[6,-3],[3,-7],[12,1],[9,-10],[7,2],[3,9],[5,6],[8,13],[4,-3],[-2,-6],[9,-7],[5,-9],[7,6]],[[5471,9668],[2,8],[-1,8]],[[5472,9684],[-1,7],[1,11],[-3,10]],[[5469,9712],[1,3],[2,8]],[[5445,9697],[9,0],[8,-6]],[[5462,9691],[-2,-5],[-10,0]],[[5449,9705],[11,0],[9,7]],[[5472,9684],[-6,6],[-4,1]],[[5517,9808],[-8,-2],[-12,3],[-7,-12],[-9,0],[-3,-6],[-4,4],[-32,12],[-14,-2],[-8,5],[-10,-2],[-2,5],[-7,4]],[[5842,9494],[-4,17],[-7,2]],[[5435,9695],[-1,7],[3,7],[-9,1],[-4,-7],[-4,9],[-8,-1],[-5,10],[-8,-4],[-9,5]],[[5381,9571],[4,-3],[-2,-5],[3,-9],[-4,-5],[2,-8],[4,-5],[3,4],[7,-5],[1,-7],[8,-4],[3,8],[9,-5],[18,1],[5,-7]],[[5325,9526],[-10,5],[-3,0]],[[5312,9531],[-6,0]],[[5306,9531],[-1,0],[-1,-1]],[[5980,8798],[12,-6],[14,-3],[1,-7],[13,-8],[8,-16],[3,-10],[5,1],[2,-17],[-2,-7],[7,-3],[8,4]],[[4943,9668],[0,-9],[6,-12],[-3,-7],[3,-9],[-4,-4],[4,-3],[3,-11],[-3,-14]],[[5157,9759],[0,-10],[9,-11],[8,2],[5,-25],[-11,-11],[-5,1],[1,-7],[-9,-12],[8,-6],[8,1],[10,-4]],[[5181,9677],[8,-9],[-4,-18],[-6,-8]],[[5896,9590],[-9,5],[0,6],[-14,8],[-1,4],[-7,2]],[[5287,9703],[-12,4],[-10,-6],[-4,3],[-4,-7],[-17,-10],[-14,4],[-3,-4],[-6,6],[-17,-5],[-6,1],[-2,-6],[-11,-6]],[[5516,9208],[1,-10],[9,-2],[4,-18],[5,-5],[-3,-9],[6,-11]],[[5240,9052],[-5,5],[-3,-9],[-12,2],[-1,10],[-11,8],[-8,8],[-3,7],[-16,-4],[-15,2],[1,10],[-7,3],[-14,-8]],[[9969,69],[1,-1],[1,1],[1,-1],[4,0],[1,0],[1,-1],[4,-2],[1,-1],[1,-1],[1,-3],[1,-2],[0,-4],[1,-2],[2,-3],[0,-1],[0,-3],[1,-2],[0,-1],[2,-1],[1,-4],[2,-1],[3,-2],[1,-2],[0,-3],[0,-2],[-1,-2],[-2,-10],[0,-3],[0,-3],[0,-3],[-1,-2],[-1,-1],[-3,0],[-2,0],[-3,-3],[-2,0],[-2,0],[-1,1],[-1,-1],[-2,0],[-3,0],[-2,1],[-1,1],[-3,3],[-2,1],[-4,2],[-1,1],[-2,4],[-1,0],[-2,0],[-1,1],[-1,2],[-2,5],[-2,3],[0,3],[0,2],[0,2],[-4,8],[-1,3],[0,2],[0,3],[0,3],[1,2],[3,2],[1,2],[0,3],[0,2],[0,1],[0,1],[1,1],[3,0],[2,3],[4,3],[4,0],[2,0],[2,-1]],[[9101,1182],[-1,0],[-1,6],[1,2],[1,1],[0,-3],[0,-2],[0,-2],[0,-2]],[[9084,1202],[0,-1],[1,-1],[1,-2],[1,-2],[1,-2],[1,0],[3,0],[2,-1],[1,-1],[1,-2],[0,-2],[-1,-2],[-2,-5],[-1,-1],[1,-1],[0,-2],[2,-1],[-1,-2],[0,-2],[0,-1],[-1,-3],[-2,-2],[0,-3],[1,-4],[0,-1],[-1,-1],[-1,1],[-1,-1],[-1,0],[-1,0],[-1,1],[-1,0],[0,2],[0,1],[-1,1],[-2,-1],[0,1],[2,1],[0,3],[-1,2],[-1,1],[0,1],[1,1],[1,0],[0,-1],[2,-3],[1,-1],[1,1],[0,1],[0,3],[-1,1],[-1,2],[-2,3],[1,1],[0,1],[0,1],[0,2],[-1,4],[0,2],[-1,1],[-1,1],[-1,1],[0,1],[-1,1],[0,2],[0,2],[4,7],[1,-1],[0,-1],[-1,0]],[[860,3507],[-9,-9],[-4,-15],[-6,-10],[-2,-2],[-2,-8],[-3,-3],[-2,-12],[-7,-19],[-12,-30],[-6,-5],[-1,-6],[-4,-7],[1,-10],[-6,-18],[1,-4],[-4,-5],[-7,-24],[0,-4],[-3,-3],[2,-9],[-6,-15],[-3,-4],[-4,-10],[-15,-14],[-2,-8],[-5,-4],[-9,2],[-2,3],[-4,1],[-10,-3],[-2,1],[4,7],[-10,13],[-2,-5],[-9,-8],[-4,-1],[-5,3],[-5,2],[-6,4],[-2,0],[0,5],[-2,3],[-3,-2],[-3,-6],[-3,-1],[-3,-5],[-3,0],[-1,-6],[-7,-6],[-3,1],[-3,-8],[-3,-3],[-4,7],[-7,-1],[-6,2],[-3,4],[-9,3],[-6,7],[2,2],[-3,5],[-5,1],[2,3],[4,-1],[2,1],[3,10],[6,2],[5,10],[6,24],[7,13],[2,9],[0,4],[2,14],[-2,4],[1,2],[0,14],[-3,2],[2,7],[6,14],[3,4],[2,9],[3,5],[1,6],[0,10],[2,11],[-3,5],[-3,-1],[-2,5],[-1,10],[-3,6],[-5,3],[-5,9],[-4,10],[-2,6],[-3,4],[0,6],[1,12],[-4,2],[-2,6],[1,5],[-1,9],[-2,9],[-2,15],[3,11],[-1,12],[0,8],[-4,6],[0,22],[2,3],[0,8],[2,8],[8,15],[0,5],[6,10],[8,11],[6,5],[4,7],[4,17],[1,14],[4,12],[8,-2],[3,-2],[1,2],[10,-9],[9,-7],[6,-5],[6,-3],[3,1],[9,-4],[2,0],[4,-6],[2,1],[-6,9],[13,-8],[4,-5],[6,-3],[1,1],[9,-7],[5,-9],[4,-3],[3,-7],[6,-8],[12,-18],[1,-4],[4,-1],[7,-10],[1,-5],[0,-5],[3,6],[4,0],[4,-7],[-7,-18],[0,-5],[2,5],[1,7],[6,9],[3,-4],[3,-7],[6,-5],[6,-9],[2,-6],[4,-27],[-1,-7],[-5,-5],[-2,-5],[8,5],[2,11],[0,20],[0,5],[2,5],[5,-1],[4,-8],[3,-17],[3,-3],[-2,-3],[2,-5],[2,-1],[-1,-8],[0,-4],[4,-9],[1,-7],[0,-9],[-2,-11]],[[70,4989],[1,-4],[1,1],[2,1],[2,1],[2,0],[-1,0],[0,-1],[0,-1],[-2,-3],[-1,2],[-1,0],[0,-3],[0,-3],[1,0],[1,0],[1,-1],[-3,-2],[1,-1],[-1,-1],[0,-1],[1,0],[1,1],[2,-2],[-1,0],[0,-1],[0,-2],[1,-1],[2,-1],[0,-1],[0,-1],[0,-1],[1,0],[1,-1],[0,-1],[0,-1],[0,-1],[1,1],[0,-2],[0,-2],[0,-1],[1,-2],[-1,0],[0,-1],[0,-1],[1,-1],[0,-1],[0,-3],[1,-1],[0,-1],[-1,-1],[-1,-4],[-1,-2],[-1,0],[-1,-1],[-1,1],[-1,2],[1,1],[1,1],[1,1],[0,2],[-1,2],[-1,-1],[-2,-1],[-1,0],[0,1],[-3,0],[-5,1],[-1,-1],[-2,-1],[-1,0],[-1,0],[-2,5],[0,1],[0,1],[-1,0],[2,4],[2,2],[1,1],[1,-2],[1,-1],[2,1],[0,2],[0,1],[-1,1],[0,2],[-1,3],[-1,-1],[-1,0],[-1,0],[-1,0],[-1,-1],[-1,1],[-1,2],[-3,4],[-2,2],[0,3],[-1,1],[0,1],[-1,1],[1,1],[0,1],[0,1],[0,2],[-1,1],[0,2],[-3,4],[0,2],[-1,1],[1,2],[0,2],[1,1],[3,3],[3,0],[3,-1],[4,-4],[3,-3],[2,-1],[0,-1],[0,-1],[1,-1],[1,-1]],[[16,5135],[1,0],[-1,0]],[[18,5135],[0,-1],[0,1],[0,1],[0,-1]],[[15,5137],[-1,-1],[0,1],[0,2],[1,0],[0,-1],[0,-1]],[[18,5141],[0,-1],[-1,0],[0,1],[1,0]],[[18,5138],[-1,0],[1,1],[1,2],[1,0],[0,-1],[-1,-1],[-1,-1]],[[47,5141],[-3,-1],[-2,0],[-1,4],[-1,2],[0,1],[0,1],[0,1],[1,1],[0,2],[1,2],[1,3],[2,1],[2,0],[2,-3],[1,-4],[1,-2],[0,-1],[0,-2],[0,-1],[-1,-1],[-1,-2],[-2,-1]],[[58,5181],[1,0],[-1,0],[-1,0],[1,0]],[[59,5182],[0,0]],[[64,5200],[-2,-1],[-2,0],[1,1],[3,5],[3,1],[2,-1],[-5,-5]],[[18,5205],[-1,0],[1,1],[1,0],[-1,-1]],[[21,5193],[0,-3],[-2,-1],[0,-1],[0,-7],[1,-5],[0,-7],[0,-7],[-3,-5],[-4,-4],[-4,-3],[-1,3],[1,1],[-1,2],[-1,1],[0,1],[-1,1],[-1,2],[0,1],[-1,1],[0,1],[-2,5],[0,11],[-1,5],[1,2],[-1,2],[0,1],[-1,2],[0,2],[0,4],[0,2],[1,1],[1,4],[2,2],[1,0],[1,0],[0,-2],[1,0],[2,-1],[4,-2],[2,-2],[2,-3],[-1,-1],[1,0],[1,-2],[0,2],[1,1],[1,0],[1,-1],[0,-3]],[[21,5193],[0,1],[1,2],[1,8],[1,1],[1,1],[1,0],[0,1],[0,3],[-1,0],[0,1],[-2,1],[0,4],[-1,2],[0,1],[1,2],[1,2],[1,1],[1,1],[2,2],[0,1],[1,0],[3,-3],[1,-3],[1,-3],[0,-3],[0,-4],[0,-1],[1,-2],[1,-2],[1,-2],[1,-1],[1,-1],[1,1],[0,-1],[2,0],[1,0],[1,-1],[2,-2],[1,-2],[5,-5],[1,0],[1,-1],[-1,-1],[-1,0],[-2,1],[-1,0],[-1,1],[-15,-6],[-3,-2],[-1,0],[-2,0],[-2,1],[-1,2],[-2,1],[0,2],[-1,2]]],"bbox":[-61.79784099608821,-21.370764085123668,55.854502821191,51.08754136401353],"transform":{"scale":[0.011766411022830206,0.007246555200433763],"translate":[-61.79784099608821,-21.370764085123668]},"title":"France, admin2 (2015)","version":"2.1.0","copyright":"Copyright (c) 2023 Highsoft AS, Based on data from Natural Earth","copyrightShort":"Natural Earth","copyrightUrl":"http://www.naturalearthdata.com"}