{"type":"Topology","objects":{"default":{"type":"GeometryCollection","geometries":[{"type":"MultiPolygon","arcs":[[[-263,595,263,-564,-563,-562,-617]],[[177,-565,178,-566]],[[179,-567]]],"id":"CA.YT.6001","properties":{"hc-group":"admin2","hc-key":"ca-yt-6001","hc-a2":"YU","name":"Yukon","type":"TER","hc-middle-lon":-136.464,"hc-middle-lat":63.533}},{"type":"MultiPolygon","arcs":[[[0,674]],[[1,2]],[[-225,353,675,676,677,418,419,420,678,422,679,443,-571,-570,-569,-568,182]],[[680,680,680]],[[4,680]],[[681,681,681]],[[6,-7,682]],[[7,8]],[[9,10]],[[12,683]],[[684,685,426,686,687,429,688,431,689,433,690,435,691,437,692,439,440,441,693]],[[694,14,15]],[[183,-572]],[[184,-573]],[[187,573]],[[-18,17,695]],[[189,-575]],[[-418,417,696]]],"id":"CA.ON.3560","properties":{"hc-group":"admin2","hc-key":"ca-on-3560","hc-a2":"KE","name":"Kenora","type":"DIS","hc-middle-lon":-86.909,"hc-middle-lat":53.563}},{"type":"MultiPolygon","arcs":[[[697,698,699,631,453,588,243,589,244,226,246,590,247,249,251,252,-231,-230,229,233,234,-235,239,240,310,311,334,628,335,336,337,620,621,700,623,701,702,703,625,704,705,706,707,708,709,710,711,712,713],[714,237]],[[193,-576]],[[195,-577]],[[197,-578]],[[199,199,199]],[[201,202]]],"id":"CA.QC.2499","properties":{"hc-group":"admin2","hc-key":"ca-qc-2499","hc-a2":"ND","name":"Nord-du-Québec","type":"CDR","hc-middle-lon":-72.823,"hc-middle-lat":56.326}},{"type":"Polygon","arcs":[[-698,715,716,717,718,719,720]],"id":"CA.QC.2489","properties":{"hc-group":"admin2","hc-key":"ca-qc-2489","hc-a2":"LV","name":"La Vallée-de-l'Or","type":"MRC","hc-middle-lon":-76.346,"hc-middle-lat":48.46}},{"type":"MultiPolygon","arcs":[[[32]],[[200,203,312,721,320,722,-621,330,331,332,-629,333]],[[204,-579]],[[324,723,322,724]],[[33,725]],[[314,726]],[[35,727]],[[316,728]],[[318,729]],[[328,730]],[[326,731]]],"id":"CA.NL.1011","properties":{"hc-group":"admin2","hc-key":"ca-nl-1011","hc-a2":"DN","name":"Division No. 11","type":"CDR","hc-middle-lon":-62.654,"hc-middle-lat":56.702}},{"type":"MultiPolygon","arcs":[[[206,732,733,343,734,348,735,350,736,352,629,-339,-581,-580]],[[49]],[[50]],[[208,209,-582]],[[211,-212,737]],[[213,583]],[[215,584]],[[217,217,217]],[[738,738,738]],[[346,739]],[[51,-52,740]],[[53]],[[54]]],"id":"CA.NU.6205","properties":{"hc-group":"admin2","hc-key":"ca-nu-6205","hc-a2":"KE","name":"Keewatin","type":"REG","hc-middle-lon":-96.475,"hc-middle-lat":64.731}},{"type":"Polygon","arcs":[[338,-630,339,214,581,210,218,219,216,211,212,567,741,742,-663]],"id":"CA.MB.4623","properties":{"hc-group":"admin2","hc-key":"ca-mb-4623","hc-a2":"DN","name":"Division No. 23","type":"CDR","hc-middle-lon":-97.975,"hc-middle-lat":58.249}},{"type":"MultiPolygon","arcs":[[[143]],[[144]],[[477,743,744,745,746],[747]]],"id":"CA.BC.5945","properties":{"hc-group":"admin2","hc-key":"ca-bc-5945","hc-a2":"CC","name":"Central Coast","type":"RD","hc-middle-lon":-127.125,"hc-middle-lat":52.069}},{"type":"MultiPolygon","arcs":[[[476,-747,748,749]],[[474,750]]],"id":"CA.BC.5943","properties":{"hc-group":"admin2","hc-key":"ca-bc-5943","hc-a2":"MW","name":"Mount Waddington","type":"RD","hc-middle-lon":-126.624,"hc-middle-lat":50.91}},{"type":"MultiPolygon","arcs":[[[145]],[[146]],[[751,480,752,753,754,755,756,757,-744,478]],[[147,758]]],"id":"CA.BC.5949","properties":{"hc-group":"admin2","hc-key":"ca-bc-5949","hc-a2":"KS","name":"Kitimat-Stikine","type":"RD","hc-middle-lon":-130.253,"hc-middle-lat":56.999}},{"type":"MultiPolygon","arcs":[[[142],[759]],[[-752,479]],[[149]],[[150]],[[148,758]],[[151]],[[152]]],"id":"CA.BC.5947","properties":{"hc-group":"admin2","hc-key":"ca-bc-5947","hc-a2":"SQ","name":"Skeena-Queen Charlotte","type":"RD","hc-middle-lon":-129.924,"hc-middle-lat":54.344}},{"type":"MultiPolygon","arcs":[[[48],[760]],[[55]],[[56]],[[57]],[[58]],[[59]],[[60]],[[61]],[[62]],[[63]],[[64]],[[65]],[[66]],[[67]],[[68]],[[69]],[[70]],[[71]],[[72]],[[73]],[[74]],[[220,221,-586,272,-271,602,487,-280,605]],[[75]],[[76]],[[77]],[[78]],[[79]],[[80]],[[81]],[[82]],[[83]],[[84]],[[85]],[[86]],[[87]],[[88]],[[89]],[[90]],[[91]],[[92]],[[223,224]],[[192,191]],[[225,225,225]],[[227,227,227]],[[228,229,230]],[[234,232]],[[235,236,237,238]],[[761,762,763,342,-734,764],[765]],[[93,766]],[[97,-98,767]],[[95,768]],[[99,769]],[[111,770]],[[109,771]],[[107,772]],[[113,773]],[[575,194]],[[349,-736]],[[351,-737]],[[52,51]],[[344,345,-740,347,-735]],[[241,-589]],[[242,-590]],[[245,-591]],[[248,248,248]],[[250,591]],[[578,205]],[[196,576]],[[577,198]],[[101,774,103,775]],[[105,776]],[[253,254,-593]],[[256,257,-594]],[[777,115]],[[117]],[[118]],[[119]],[[120]],[[121]],[[122]],[[123]],[[124]],[[125]],[[126]],[[127]],[[128]],[[129]]],"id":"CA.NU.6204","properties":{"hc-group":"admin2","hc-key":"ca-nu-6204","hc-a2":"BA","name":"Baffin","type":"REG","hc-middle-lon":-69.277,"hc-middle-lat":67.211}},{"type":"MultiPolygon","arcs":[[[130]],[[131]],[[132]],[[133]],[[134]],[[135]],[[136]],[[137,138]],[[139]],[[-765,-733,617,618,619,340,341,-764,778,779]],[[266,600,274,603,275,269,268,277,604,278,-595]],[[260,260,260]],[[96,97,98,-767,94,-769]],[[-776,104,-777,106,-773,108,-772,110,-770,100]],[[114,-774]],[[112,-771]],[[102,-775]],[[-778,116]],[[140]]],"id":"CA.NU.6208","properties":{"hc-group":"admin2","hc-key":"ca-nu-6208","hc-a2":"KI","name":"Kitikmeot","type":"REG","hc-middle-lon":-109.465,"hc-middle-lat":66.296}},{"type":"Polygon","arcs":[[-599,-598,780,781,782,783,784,649,650,484]],"id":"CA.AB.4817","properties":{"hc-group":"admin2","hc-key":"ca-ab-4817","hc-a2":"DN","name":"Division No. 17","type":"CDR","hc-middle-lon":-116.2,"hc-middle-lat":56.948}},{"type":"Polygon","arcs":[[454,-651,785,786,787,616,486,656]],"id":"CA.BC.5959","properties":{"hc-group":"admin2","hc-key":"ca-bc-5959","hc-a2":"NR","name":"Northern Rockies","type":"RD","hc-middle-lon":-123.804,"hc-middle-lat":59.05}},{"type":"Polygon","arcs":[[788,-650,-649,-648,-647,789,790,791,792,793,-787]],"id":"CA.BC.5955","properties":{"hc-group":"admin2","hc-key":"ca-bc-5955","hc-a2":"PR","name":"Peace River","type":"RD","hc-middle-lon":-123.053,"hc-middle-lat":56.979}},{"type":"Polygon","arcs":[[-596,262,-788,-794,794,-757,795,796,797,-753,481]],"id":"CA.BC.5957","properties":{"hc-group":"admin2","hc-key":"ca-bc-5957","hc-a2":"ST","name":"Stikine","type":"REG","hc-middle-lon":-132.371,"hc-middle-lat":59.034}},{"type":"Polygon","arcs":[[207,579,798,799,800,-618],[801]],"id":"CA.NT.6106","properties":{"hc-group":"admin2","hc-key":"ca-nt-6106","hc-a2":"R6","name":"Region 6","type":"REG","hc-middle-lon":-108.63,"hc-middle-lat":63.847}},{"type":"MultiPolygon","arcs":[[[155]],[[156]],[[157]],[[566,181,565,-179,564,309,-620,802,563]],[[222,585,-222]],[[265,-601]],[[267,601]],[[268,-269,803]],[[261,260]],[[-603,270,271]],[[592,-255,255]],[[593,-258,258]],[[-604,273]],[[276,-605]],[[279,280,-606]],[[158]],[[159]],[[594,259]]],"id":"CA.NT.6101","properties":{"hc-group":"admin2","hc-key":"ca-nt-6101","hc-a2":"R1","name":"Region 1","type":"REG","hc-middle-lon":-129.77,"hc-middle-lat":68.373}},{"type":"Polygon","arcs":[[22]],"id":"CA.QC.2401","properties":{"hc-group":"admin2","hc-key":"ca-qc-2401","hc-a2":"LÎ","name":"Les Îles-de-la-Madeleine","type":"TÉ","hc-middle-lon":-61.898,"hc-middle-lat":47.386}},{"type":"Polygon","arcs":[[804,-781,-597,606,-282]],"id":"CA.AB.4816","properties":{"hc-group":"admin2","hc-key":"ca-ab-4816","hc-a2":"DN","name":"Division No. 16","type":"CDR","hc-middle-lon":-111.942,"hc-middle-lat":58.473}},{"type":"Polygon","arcs":[[281,-607,599,662,663,805,806,807,808,-608]],"id":"CA.SK.4718","properties":{"hc-group":"admin2","hc-key":"ca-sk-4718","hc-a2":"DN","name":"Division No. 18","type":"CDR","hc-middle-lon":-105.786,"hc-middle-lat":56.88}},{"type":"Polygon","arcs":[[809,-676,354,-632,-631,355,-637,810,811,812,813,814,815]],"id":"CA.ON.3556","properties":{"hc-group":"admin2","hc-key":"ca-on-3556","hc-a2":"CO","name":"Cochrane","type":"DIS","hc-middle-lon":-81.813,"hc-middle-lat":50.258}},{"type":"Polygon","arcs":[[816,558,817,818]],"id":"CA.SK.4702","properties":{"hc-group":"admin2","hc-key":"ca-sk-4702","hc-a2":"DN","name":"Division No.  2","type":"CDR","hc-middle-lon":-104.237,"hc-middle-lat":49.527}},{"type":"Polygon","arcs":[[-817,819,671,672,557]],"id":"CA.SK.4701","properties":{"hc-group":"admin2","hc-key":"ca-sk-4701","hc-a2":"DN","name":"Division No.  1","type":"CDR","hc-middle-lon":-102.292,"hc-middle-lat":49.529}},{"type":"Polygon","arcs":[[820,821,822,-814,823,415,824,-677]],"id":"CA.ON.3558","properties":{"hc-group":"admin2","hc-key":"ca-on-3558","hc-a2":"TB","name":"Thunder Bay","type":"DIS","hc-middle-lon":-88.602,"hc-middle-lat":50.043}},{"type":"MultiPolygon","arcs":[[[540,825,826,827,828]],[[829,829,829]],[[829,829,829]]],"id":"CA.QC.2402","properties":{"hc-group":"admin2","hc-key":"ca-qc-2402","hc-a2":"LR","name":"Le Rocher-Percé","type":"MRC","hc-middle-lon":-64.778,"hc-middle-lat":48.568}},{"type":"Polygon","arcs":[[830,831,832,833,834,835,836,837,838,839]],"id":"CA.QC.2462","properties":{"hc-group":"admin2","hc-key":"ca-qc-2462","hc-a2":"MA","name":"Matawinie","type":"MRC","hc-middle-lon":-73.915,"hc-middle-lat":46.544}},{"type":"Polygon","arcs":[[-840,840,841,-716,-714,842,843,844,845,846,847,848]],"id":"CA.QC.2490","properties":{"hc-group":"admin2","hc-key":"ca-qc-2490","hc-a2":"LT","name":"La Tuque","type":"TÉ","hc-middle-lon":-74.424,"hc-middle-lat":48.225}},{"type":"Polygon","arcs":[[285,849,850]],"id":"CA.NB.1315","properties":{"hc-group":"admin2","hc-key":"ca-nb-1315","hc-a2":"GL","name":"Gloucester","type":"CT","hc-middle-lon":-64.766,"hc-middle-lat":47.787}},{"type":"MultiPolygon","arcs":[[[851,-705,626,852,502,853]],[[-701,622]],[[854,-702,624,-704]]],"id":"CA.QC.2497","properties":{"hc-group":"admin2","hc-key":"ca-qc-2497","hc-a2":"SR","name":"Sept-Rivières--Caniapiscau","type":"CDR","hc-middle-lon":-68.141,"hc-middle-lat":52.492}},{"type":"Polygon","arcs":[[-854,503,855,856,857,858]],"id":"CA.QC.2496","properties":{"hc-group":"admin2","hc-key":"ca-qc-2496","hc-a2":"MA","name":"Manicouagan","type":"MRC","hc-middle-lon":-68.92,"hc-middle-lat":50.686}},{"type":"Polygon","arcs":[[859,667,668,860,861,862]],"id":"CA.SK.4709","properties":{"hc-group":"admin2","hc-key":"ca-sk-4709","hc-a2":"DN","name":"Division No.  9","type":"CDR","hc-middle-lon":-103.028,"hc-middle-lat":51.718}},{"type":"MultiPolygon","arcs":[[[18,-19,863]],[[404,-404,403]],[[864,864,864]],[[407,-408,865]],[[411,866]],[[867,867,867]],[[868,398,399,869]],[[19,870]],[[409,871]],[[872,401]],[[873,873,873]],[[20]]],"id":"CA.ON.3551","properties":{"hc-group":"admin2","hc-key":"ca-on-3551","hc-a2":"MA","name":"Manitoulin","type":"DIS","hc-middle-lon":-82.513,"hc-middle-lat":45.894}},{"type":"MultiPolygon","arcs":[[[23,-24,874]],[[875,876,877,878,879,880,881]]],"id":"CA.QC.2458","properties":{"hc-group":"admin2","hc-key":"ca-qc-2458","hc-a2":"LO","name":"Longueuil","type":"TÉ","hc-middle-lon":-73.418,"hc-middle-lat":45.527}},{"type":"Polygon","arcs":[[882,883,884,885,886,887,888,889,890,891,892,893,894,895,896,897,898,899,900,901]],"id":"CA.BC.5933","properties":{"hc-group":"admin2","hc-key":"ca-bc-5933","hc-a2":"TN","name":"Thompson-Nicola","type":"RD","hc-middle-lon":-120.918,"hc-middle-lat":50.618}},{"type":"Polygon","arcs":[[902,903,-900,904,905,-749,-746,906,907,908,909,910,911,-887,912,913,914,915]],"id":"CA.BC.5941","properties":{"hc-group":"admin2","hc-key":"ca-bc-5941","hc-a2":"CA","name":"Cariboo","type":"RD","hc-middle-lon":-123.121,"hc-middle-lat":52.383}},{"type":"Polygon","arcs":[[916,291,292,917,918,919,920,921,922,923,924],[925,925,925]],"id":"CA.NS.1209","properties":{"hc-group":"admin2","hc-key":"ca-ns-1209","hc-a2":"HA","name":"Halifax","type":"CTY","hc-middle-lon":-63.678,"hc-middle-lat":44.7}},{"type":"Polygon","arcs":[[926,927,928,307,929]],"id":"CA.NS.1213","properties":{"hc-group":"admin2","hc-key":"ca-ns-1213","hc-a2":"GU","name":"Guysborough","type":"CTY","hc-middle-lon":-61.827,"hc-middle-lat":45.272}},{"type":"Polygon","arcs":[[295,930,931]],"id":"CA.NS.1201","properties":{"hc-group":"admin2","hc-key":"ca-ns-1201","hc-a2":"SH","name":"Shelburne","type":"CTY","hc-middle-lon":-65.507,"hc-middle-lat":43.83}},{"type":"MultiPolygon","arcs":[[[141,674]],[[570,185,572,186,571,190,574,552,932,933,934,935]],[[188,573]]],"id":"CA.MB.4601","properties":{"hc-group":"admin2","hc-key":"ca-mb-4601","hc-a2":"DN","name":"Division No.  1","type":"CDR","hc-middle-lon":-95.371,"hc-middle-lat":49.358}},{"type":"Polygon","arcs":[[464,936,937]],"id":"CA.BC.5929","properties":{"hc-group":"admin2","hc-key":"ca-bc-5929","hc-a2":"SC","name":"Sunshine Coast","type":"RD","hc-middle-lon":-123.832,"hc-middle-lat":49.861}},{"type":"MultiPolygon","arcs":[[[938]],[[939,940,941,942,943,944,945,946,947,948,949]]],"id":"CA.SK.4711","properties":{"hc-group":"admin2","hc-key":"ca-sk-4711","hc-a2":"DN","name":"Division No. 11","type":"CDR","hc-middle-lon":-106.042,"hc-middle-lat":51.749}},{"type":"Polygon","arcs":[[286,287,288,950,951,952,953,954,-850]],"id":"CA.NB.1309","properties":{"hc-group":"admin2","hc-key":"ca-nb-1309","hc-a2":"NO","name":"Northumberland","type":"CT","hc-middle-lon":-65.325,"hc-middle-lat":46.992}},{"type":"Polygon","arcs":[[955,956,-720,957,635,636,-356]],"id":"CA.QC.2486","properties":{"hc-group":"admin2","hc-key":"ca-qc-2486","hc-a2":"RN","name":"Rouyn-Noranda","type":"TÉ","hc-middle-lon":-78.306,"hc-middle-lat":47.758}},{"type":"Polygon","arcs":[[630,-700,958,-956]],"id":"CA.QC.2487","properties":{"hc-group":"admin2","hc-key":"ca-qc-2487","hc-a2":"AO","name":"Abitibi-Ouest","type":"MRC","hc-middle-lon":-79.088,"hc-middle-lat":48.718}},{"type":"Polygon","arcs":[[959,-699,-721,-957]],"id":"CA.QC.2488","properties":{"hc-group":"admin2","hc-key":"ca-qc-2488","hc-a2":"AB","name":"Abitibi","type":"MRC","hc-middle-lon":-78.434,"hc-middle-lat":48.621}},{"type":"MultiPolygon","arcs":[[[-825,416,417,-678]],[[960,10]],[[16,17,-695]],[[419,-420,961]],[[3,680]],[[421,-679]],[[5,681]],[[-7,6,962]],[[8,-9,963]],[[423,-694,442,-680]],[[425,-686]],[[427,-687]],[[13,-684]],[[438,-693]],[[436,-692]],[[434,-691]],[[432,-690]],[[-685,424]],[[-688,428]],[[430,-689]],[[11,964]]],"id":"CA.ON.3559","properties":{"hc-group":"admin2","hc-key":"ca-on-3559","hc-a2":"RR","name":"Rainy River","type":"DIS","hc-middle-lon":-92.23,"hc-middle-lat":48.578}},{"type":"Polygon","arcs":[[-707,965,966,967,968,969,970,-712,971,972,973,974]],"id":"CA.QC.2492","properties":{"hc-group":"admin2","hc-key":"ca-qc-2492","hc-a2":"MC","name":"Maria-Chapdelaine","type":"MRC","hc-middle-lon":-72.463,"hc-middle-lat":50.129}},{"type":"Polygon","arcs":[[975,-357,632,633,634,-958,-719]],"id":"CA.QC.2485","properties":{"hc-group":"admin2","hc-key":"ca-qc-2485","hc-a2":"TÉ","name":"Témiscamingue","type":"MRC","hc-middle-lon":-78.624,"hc-middle-lat":47.093}},{"type":"Polygon","arcs":[[363,976,977,978,979]],"id":"CA.ON.3507","properties":{"hc-group":"admin2","hc-key":"ca-on-3507","hc-a2":"LA","name":"Leeds and Grenville","type":"UC","hc-middle-lon":-75.912,"hc-middle-lat":44.704}},{"type":"Polygon","arcs":[[37,980,981,982,46,983]],"id":"CA.NL.1005","properties":{"hc-group":"admin2","hc-key":"ca-nl-1005","hc-a2":"DN","name":"Division No.  5","type":"CDR","hc-middle-lon":-58.106,"hc-middle-lat":49.281}},{"type":"Polygon","arcs":[[455,-655,-654,984,-888,985,986,987,988,-908,989,-792,990,991]],"id":"CA.BC.5953","properties":{"hc-group":"admin2","hc-key":"ca-bc-5953","hc-a2":"FF","name":"Fraser-Fort George","type":"RD","hc-middle-lon":-121.867,"hc-middle-lat":53.978}},{"type":"Polygon","arcs":[[992,993,-800,994,598,-657,485,561,995]],"id":"CA.NT.6104","properties":{"hc-group":"admin2","hc-key":"ca-nt-6104","hc-a2":"R4","name":"Region 4","type":"REG","hc-middle-lon":-121.932,"hc-middle-lat":61.547}},{"type":"Polygon","arcs":[[996,997,998,999,1000,-944,1001,1002,1003,1004,949],[-939]],"id":"CA.SK.4712","properties":{"hc-group":"admin2","hc-key":"ca-sk-4712","hc-a2":"DN","name":"Division No. 12","type":"CDR","hc-middle-lon":-108.278,"hc-middle-lat":51.724}},{"type":"MultiPolygon","arcs":[[[-808,1005,-945,-1001,1006]],[[1007,1007,1007]]],"id":"CA.SK.4716","properties":{"hc-group":"admin2","hc-key":"ca-sk-4716","hc-a2":"DN","name":"Division No. 16","type":"CDR","hc-middle-lon":-107.011,"hc-middle-lat":53.456}},{"type":"Polygon","arcs":[[1008,1009,1010,1011,1012]],"id":"CA.NB.1304","properties":{"hc-group":"admin2","hc-key":"ca-nb-1304","hc-a2":"QU","name":"Queens","type":"CT","hc-middle-lon":-66.079,"hc-middle-lat":45.872}},{"type":"MultiPolygon","arcs":[[[-951,289,1013,-1013]],[[287,-288,1014]]],"id":"CA.NB.1308","properties":{"hc-group":"admin2","hc-key":"ca-nb-1308","hc-a2":"KE","name":"Kent","type":"CT","hc-middle-lon":-64.599,"hc-middle-lat":46.294}},{"type":"Polygon","arcs":[[-1012,1015,1016,-952]],"id":"CA.NB.1303","properties":{"hc-group":"admin2","hc-key":"ca-nb-1303","hc-a2":"SU","name":"Sunbury","type":"CT","hc-middle-lon":-66.667,"hc-middle-lat":45.598}},{"type":"Polygon","arcs":[[1017,1018,1019,-1010,1020]],"id":"CA.NB.1305","properties":{"hc-group":"admin2","hc-key":"ca-nb-1305","hc-a2":"KI","name":"Kings","type":"CT","hc-middle-lon":-65.709,"hc-middle-lat":45.524}},{"type":"Polygon","arcs":[[1021,489,1022,-1018]],"id":"CA.NB.1306","properties":{"hc-group":"admin2","hc-key":"ca-nb-1306","hc-a2":"AL","name":"Albert","type":"CT","hc-middle-lon":-64.892,"hc-middle-lat":45.779}},{"type":"Polygon","arcs":[[488,-1022,-1021,-1009,-1014,290,-616]],"id":"CA.NB.1307","properties":{"hc-group":"admin2","hc-key":"ca-nb-1307","hc-a2":"WE","name":"Westmorland","type":"CT","hc-middle-lon":-65.194,"hc-middle-lat":46.114}},{"type":"Polygon","arcs":[[377,1023,1024,1025]],"id":"CA.ON.3520","properties":{"hc-group":"admin2","hc-key":"ca-on-3520","hc-a2":"TO","name":"Toronto","type":"CDR","hc-middle-lon":-79.356,"hc-middle-lat":43.735}},{"type":"MultiPolygon","arcs":[[[491,-492,1026]],[[492,1027]],[[-1011,-1020,1028,1029,1030,494,1031,-1016]]],"id":"CA.NB.1302","properties":{"hc-group":"admin2","hc-key":"ca-nb-1302","hc-a2":"CH","name":"Charlotte","type":"CT","hc-middle-lon":-66.968,"hc-middle-lat":45.246}},{"type":"Polygon","arcs":[[1032,-1019,-1023,490,491,-1028,493,-1031]],"id":"CA.NB.1301","properties":{"hc-group":"admin2","hc-key":"ca-nb-1301","hc-a2":"SJ","name":"Saint John","type":"CT","hc-middle-lon":-66.275,"hc-middle-lat":45.183}},{"type":"Polygon","arcs":[[1033,1034,1035,1036,1037,1038,1039,-1024,378,1040]],"id":"CA.ON.3521","properties":{"hc-group":"admin2","hc-key":"ca-on-3521","hc-a2":"PE","name":"Peel","type":"RM","hc-middle-lon":-79.757,"hc-middle-lat":43.758}},{"type":"MultiPolygon","arcs":[[[160,1041]],[[164,1042]],[[168,1043]]],"id":"CA.NS.1218","properties":{"hc-group":"admin2","hc-key":"ca-ns-1218","hc-a2":"VI","name":"Victoria","type":"CTY","hc-middle-lon":-60.452,"hc-middle-lat":46.83}},{"type":"Polygon","arcs":[[-948,1044,1045,-819,1046]],"id":"CA.SK.4706","properties":{"hc-group":"admin2","hc-key":"ca-sk-4706","hc-a2":"DN","name":"Division No.  6","type":"CDR","hc-middle-lon":-104.425,"hc-middle-lat":50.596}},{"type":"Polygon","arcs":[[-1047,1047,1048,-997,-950,-949]],"id":"CA.SK.4707","properties":{"hc-group":"admin2","hc-key":"ca-sk-4707","hc-a2":"DN","name":"Division No.  7","type":"CDR","hc-middle-lon":-106.533,"hc-middle-lat":50.663}},{"type":"Polygon","arcs":[[559,1049,-1048,-818]],"id":"CA.SK.4703","properties":{"hc-group":"admin2","hc-key":"ca-sk-4703","hc-a2":"DN","name":"Division No.  3","type":"CDR","hc-middle-lon":-106.423,"hc-middle-lat":49.528}},{"type":"Polygon","arcs":[[-820,-1046,-861,669,670]],"id":"CA.SK.4705","properties":{"hc-group":"admin2","hc-key":"ca-sk-4705","hc-a2":"DN","name":"Division No.  5","type":"CDR","hc-middle-lon":-102.416,"hc-middle-lat":50.588}},{"type":"Polygon","arcs":[[357,-641,1050,1051,1052,1053,1054,1055,-633,356]],"id":"CA.ON.3547","properties":{"hc-group":"admin2","hc-key":"ca-on-3547","hc-a2":"RE","name":"Renfrew","type":"CTY","hc-middle-lon":-77.498,"hc-middle-lat":45.777}},{"type":"Polygon","arcs":[[-718,1056,1057,640,-358,-976]],"id":"CA.QC.2484","properties":{"hc-group":"admin2","hc-key":"ca-qc-2484","hc-a2":"PO","name":"Pontiac","type":"MRC","hc-middle-lon":-77.389,"hc-middle-lat":46.701}},{"type":"Polygon","arcs":[[-1058,1058,1059,1060,1061,1062,639]],"id":"CA.QC.2482","properties":{"hc-group":"admin2","hc-key":"ca-qc-2482","hc-a2":"LC","name":"Les Collines-de-l'Outaouais","type":"MRC","hc-middle-lon":-75.837,"hc-middle-lat":45.615}},{"type":"Polygon","arcs":[[-1059,-1057,-717,-842,1063,1064,1065]],"id":"CA.QC.2483","properties":{"hc-group":"admin2","hc-key":"ca-qc-2483","hc-a2":"LV","name":"La Vallée-de-la-Gatineau","type":"MRC","hc-middle-lon":-75.826,"hc-middle-lat":46.407}},{"type":"Polygon","arcs":[[-1065,1066,1067,1068,642,643,1069,1070,1071],[1072,1072,1072]],"id":"CA.QC.2480","properties":{"hc-group":"admin2","hc-key":"ca-qc-2480","hc-a2":"PA","name":"Papineau","type":"MRC","hc-middle-lon":-75.187,"hc-middle-lat":45.837}},{"type":"Polygon","arcs":[[1073,-838,1074,1075,-1068]],"id":"CA.QC.2478","properties":{"hc-group":"admin2","hc-key":"ca-qc-2478","hc-a2":"LL","name":"Les Laurentides","type":"MRC","hc-middle-lon":-74.62,"hc-middle-lat":46.145}},{"type":"MultiPolygon","arcs":[[[870,870,870]],[[413,1076]],[[-824,-813,1077,414]]],"id":"CA.ON.3557","properties":{"hc-group":"admin2","hc-key":"ca-on-3557","hc-a2":"AL","name":"Algoma","type":"DIS","hc-middle-lon":-83.913,"hc-middle-lat":46.651}},{"type":"Polygon","arcs":[[542,661,-500,1078,1079,1080]],"id":"CA.QC.2406","properties":{"hc-group":"admin2","hc-key":"ca-qc-2406","hc-a2":"AV","name":"Avignon","type":"MRC","hc-middle-lon":-67.306,"hc-middle-lat":48.011}},{"type":"Polygon","arcs":[[458,1081,1082,1083,1084]],"id":"CA.BC.5903","properties":{"hc-group":"admin2","hc-key":"ca-bc-5903","hc-a2":"CK","name":"Central Kootenay","type":"RD","hc-middle-lon":-117.086,"hc-middle-lat":49.176}},{"type":"MultiPolygon","arcs":[[[-828,1085,-826,541,-1081,1086,1087]],[[829,829,829]]],"id":"CA.QC.2405","properties":{"hc-group":"admin2","hc-key":"ca-qc-2405","hc-a2":"BO","name":"Bonaventure","type":"MRC","hc-middle-lon":-65.073,"hc-middle-lat":48.254}},{"type":"Polygon","arcs":[[-1088,1088,1089,538,1090,1091]],"id":"CA.QC.2404","properties":{"hc-group":"admin2","hc-key":"ca-qc-2404","hc-a2":"LH","name":"La Haute-Gaspésie","type":"MRC","hc-middle-lon":-65.386,"hc-middle-lat":49.046}},{"type":"Polygon","arcs":[[482,655,-457,1092,1093,1094,1095]],"id":"CA.AB.4803","properties":{"hc-group":"admin2","hc-key":"ca-ab-4803","hc-a2":"DN","name":"Division No.  3","type":"CDR","hc-middle-lon":-113.904,"hc-middle-lat":49.003}},{"type":"Polygon","arcs":[[-656,457,-1085,1096,-652,456]],"id":"CA.BC.5901","properties":{"hc-group":"admin2","hc-key":"ca-bc-5901","hc-a2":"EK","name":"East Kootenay","type":"RD","hc-middle-lon":-115.554,"hc-middle-lat":49.666}},{"type":"MultiPolygon","arcs":[[[1097,1098,1099,1100,1101,1102,1103,460,1104,1105]],[[1106,1106,1106]]],"id":"CA.BC.5907","properties":{"hc-group":"admin2","hc-key":"ca-bc-5907","hc-a2":"OS","name":"Okanagan-Similkameen","type":"RD","hc-middle-lon":-120.721,"hc-middle-lat":49.076}},{"type":"MultiPolygon","arcs":[[[1106,1106,1106]],[[1107,1108,1109,-1103,1110,1111]]],"id":"CA.BC.5935","properties":{"hc-group":"admin2","hc-key":"ca-bc-5935","hc-a2":"CO","name":"Central Okanagan","type":"RD","hc-middle-lon":-119.419,"hc-middle-lat":49.938}},{"type":"Polygon","arcs":[[-985,-653,-1097,-1084,1112,-889]],"id":"CA.BC.5939","properties":{"hc-group":"admin2","hc-key":"ca-bc-5939","hc-a2":"CS","name":"Columbia-Shuswap","type":"RD","hc-middle-lon":-117.45,"hc-middle-lat":51.512}},{"type":"Polygon","arcs":[[459,-1104,-1110,1113,-1082]],"id":"CA.BC.5905","properties":{"hc-group":"admin2","hc-key":"ca-bc-5905","hc-a2":"KB","name":"Kootenay Boundary","type":"RD","hc-middle-lon":-118.986,"hc-middle-lat":49.026}},{"type":"Polygon","arcs":[[537,-1090,1114,1115]],"id":"CA.QC.2408","properties":{"hc-group":"admin2","hc-key":"ca-qc-2408","hc-a2":"MA","name":"Matane","type":"MRC","hc-middle-lon":-67.623,"hc-middle-lat":48.704}},{"type":"Polygon","arcs":[[536,-1116,1116,-1079,657,1117]],"id":"CA.QC.2409","properties":{"hc-group":"admin2","hc-key":"ca-qc-2409","hc-a2":"LM","name":"La Mitis","type":"MRC","hc-middle-lon":-67.983,"hc-middle-lat":48.298}},{"type":"Polygon","arcs":[[1118,1119,1120,1121,1122,1123,1124,1125]],"id":"CA.QC.2464","properties":{"hc-group":"admin2","hc-key":"ca-qc-2464","hc-a2":"LM","name":"Les Moulins","type":"MRC","hc-middle-lon":-73.654,"hc-middle-lat":45.763}},{"type":"Polygon","arcs":[[1126,1127,1128]],"id":"CA.QC.2465","properties":{"hc-group":"admin2","hc-key":"ca-qc-2465","hc-a2":"LA","name":"Laval","type":"TÉ","hc-middle-lon":-73.727,"hc-middle-lat":45.618}},{"type":"Polygon","arcs":[[1129,-876]],"id":"CA.QC.2466","properties":{"hc-group":"admin2","hc-key":"ca-qc-2466","hc-a2":"MO","name":"Montréal","type":"TÉ","hc-middle-lon":-73.523,"hc-middle-lat":45.51}},{"type":"Polygon","arcs":[[-1123,1130,1131,1132,1133]],"id":"CA.QC.2460","properties":{"hc-group":"admin2","hc-key":"ca-qc-2460","hc-a2":"L'","name":"L'Assomption","type":"MRC","hc-middle-lon":-73.469,"hc-middle-lat":45.83}},{"type":"Polygon","arcs":[[-1132,1134,-834,1135]],"id":"CA.QC.2461","properties":{"hc-group":"admin2","hc-key":"ca-qc-2461","hc-a2":"JO","name":"Joliette","type":"MRC","hc-middle-lon":-73.469,"hc-middle-lat":46.053}},{"type":"Polygon","arcs":[[-1131,-1122,1136,-835,-1135]],"id":"CA.QC.2463","properties":{"hc-group":"admin2","hc-key":"ca-qc-2463","hc-a2":"MO","name":"Montcalm","type":"MRC","hc-middle-lon":-73.69,"hc-middle-lat":45.931}},{"type":"Polygon","arcs":[[447,1137,1138,1139,1140]],"id":"CA.QC.2468","properties":{"hc-group":"admin2","hc-key":"ca-qc-2468","hc-a2":"LJ","name":"Les Jardins-de-Napierville","type":"MRC","hc-middle-lon":-73.556,"hc-middle-lat":45.16}},{"type":"Polygon","arcs":[[-1140,1141,1142,-880,1143]],"id":"CA.QC.2467","properties":{"hc-group":"admin2","hc-key":"ca-qc-2467","hc-a2":"RO","name":"Roussillon","type":"MRC","hc-middle-lon":-73.603,"hc-middle-lat":45.36}},{"type":"Polygon","arcs":[[-1138,448,1144]],"id":"CA.QC.2469","properties":{"hc-group":"admin2","hc-key":"ca-qc-2469","hc-a2":"LH","name":"Le Haut-Saint-Laurent","type":"MRC","hc-middle-lon":-74.168,"hc-middle-lat":45.108}},{"type":"Polygon","arcs":[[-1089,-1087,-1080,-1117,-1115]],"id":"CA.QC.2407","properties":{"hc-group":"admin2","hc-key":"ca-qc-2407","hc-a2":"LM","name":"La Matapédia","type":"MRC","hc-middle-lon":-66.927,"hc-middle-lat":48.4}},{"type":"Polygon","arcs":[[1145,-969,1146,-843,-713,-971]],"id":"CA.QC.2491","properties":{"hc-group":"admin2","hc-key":"ca-qc-2491","hc-a2":"LD","name":"Le Domaine-du-Roy","type":"MRC","hc-middle-lon":-73.262,"hc-middle-lat":48.843}},{"type":"Polygon","arcs":[[-1147,1147,-967,1148,1149,1150,1151,-844],[1152,1153]],"id":"CA.QC.2493","properties":{"hc-group":"admin2","hc-key":"ca-qc-2493","hc-a2":"LS","name":"Lac-Saint-Jean-Est","type":"MRC","hc-middle-lon":-71.747,"hc-middle-lat":48.405}},{"type":"Polygon","arcs":[[1154,1155,506,1156,-1151]],"id":"CA.QC.2416","properties":{"hc-group":"admin2","hc-key":"ca-qc-2416","hc-a2":"CH","name":"Charlevoix","type":"MRC","hc-middle-lon":-70.739,"hc-middle-lat":47.742}},{"type":"MultiPolygon","arcs":[[[1157,1158,1159,388]],[[387,1160]]],"id":"CA.ON.3538","properties":{"hc-group":"admin2","hc-key":"ca-on-3538","hc-a2":"LA","name":"Lambton","type":"CTY","hc-middle-lon":-82.116,"hc-middle-lat":42.976}},{"type":"MultiPolygon","arcs":[[[-1158,389,1161,1162,1163,1164]],[[1165,1165,1165]]],"id":"CA.ON.3540","properties":{"hc-group":"admin2","hc-key":"ca-on-3540","hc-a2":"HU","name":"Huron","type":"CTY","hc-middle-lon":-81.366,"hc-middle-lat":43.636}},{"type":"Polygon","arcs":[[1166,1167,-1037,1168,1169,1170,1171,-1163]],"id":"CA.ON.3523","properties":{"hc-group":"admin2","hc-key":"ca-on-3523","hc-a2":"WE","name":"Wellington","type":"CTY","hc-middle-lon":-80.464,"hc-middle-lat":43.775}},{"type":"Polygon","arcs":[[-1162,390,1172]],"id":"CA.ON.3541","properties":{"hc-group":"admin2","hc-key":"ca-on-3541","hc-a2":"BR","name":"Bruce","type":"CTY","hc-middle-lon":-81.4,"hc-middle-lat":44.196}},{"type":"Polygon","arcs":[[-857,1173,1174,-1155,1175,-1149,-966,-706,-852,-859,1176]],"id":"CA.QC.2494","properties":{"hc-group":"admin2","hc-key":"ca-qc-2494","hc-a2":"LS","name":"Le Saguenay-et-son-Fjord","type":"CDR","hc-middle-lon":-70.166,"hc-middle-lat":48.449}},{"type":"Polygon","arcs":[[534,1177,1178,1179]],"id":"CA.QC.2411","properties":{"hc-group":"admin2","hc-key":"ca-qc-2411","hc-a2":"LB","name":"Les Basques","type":"MRC","hc-middle-lon":-68.946,"hc-middle-lat":48.065}},{"type":"Polygon","arcs":[[-1178,535,-1118,658,1180]],"id":"CA.QC.2410","properties":{"hc-group":"admin2","hc-key":"ca-qc-2410","hc-a2":"RN","name":"Rimouski-Neigette","type":"MRC","hc-middle-lon":-68.441,"hc-middle-lat":48.148}},{"type":"Polygon","arcs":[[-1179,-1181,659,660,543,1181,1182]],"id":"CA.QC.2413","properties":{"hc-group":"admin2","hc-key":"ca-qc-2413","hc-a2":"TÉ","name":"Témiscouata","type":"MRC","hc-middle-lon":-68.894,"hc-middle-lat":47.581}},{"type":"MultiPolygon","arcs":[[[1183,533,-1180,-1183]],[[24,1184]]],"id":"CA.QC.2412","properties":{"hc-group":"admin2","hc-key":"ca-qc-2412","hc-a2":"RD","name":"Rivière-du-Loup","type":"MRC","hc-middle-lon":-69.315,"hc-middle-lat":47.825}},{"type":"MultiPolygon","arcs":[[[153,1185]],[[471,1186,1187,469,1188]]],"id":"CA.BC.5919","properties":{"hc-group":"admin2","hc-key":"ca-bc-5919","hc-a2":"CV","name":"Cowichan Valley","type":"RD","hc-middle-lon":-124.155,"hc-middle-lat":48.802}},{"type":"MultiPolygon","arcs":[[[544,1189,532,-1184,-1182]],[[25,1184]]],"id":"CA.QC.2414","properties":{"hc-group":"admin2","hc-key":"ca-qc-2414","hc-a2":"KA","name":"Kamouraska","type":"MRC","hc-middle-lon":-69.626,"hc-middle-lat":47.432}},{"type":"Polygon","arcs":[[545,1190,531,-1190]],"id":"CA.QC.2417","properties":{"hc-group":"admin2","hc-key":"ca-qc-2417","hc-a2":"L'","name":"L'Islet","type":"MRC","hc-middle-lon":-70.037,"hc-middle-lat":47.055}},{"type":"Polygon","arcs":[[-898,-1105,461,1191,1192]],"id":"CA.BC.5909","properties":{"hc-group":"admin2","hc-key":"ca-bc-5909","hc-a2":"FV","name":"Fraser Valley","type":"RD","hc-middle-lon":-122.43,"hc-middle-lat":49.18}},{"type":"Polygon","arcs":[[-1192,462,1193]],"id":"CA.BC.5915","properties":{"hc-group":"admin2","hc-key":"ca-bc-5915","hc-a2":"GV","name":"Greater Vancouver","type":"RD","hc-middle-lon":-122.824,"hc-middle-lat":49.286}},{"type":"Polygon","arcs":[[-1189,470]],"id":"CA.BC.5917","properties":{"hc-group":"admin2","hc-key":"ca-bc-5917","hc-a2":"CA","name":"Capital","type":"RD","hc-middle-lon":-123.787,"hc-middle-lat":48.548}},{"type":"Polygon","arcs":[[-837,1194,1195,-1075]],"id":"CA.QC.2477","properties":{"hc-group":"admin2","hc-key":"ca-qc-2477","hc-a2":"LP","name":"Les Pays-d'en-Haut","type":"MRC","hc-middle-lon":-74.18,"hc-middle-lat":45.938}},{"type":"Polygon","arcs":[[1196,1197,452,641,-1069,-1076,-1196,1198,1199,1200]],"id":"CA.QC.2476","properties":{"hc-group":"admin2","hc-key":"ca-qc-2476","hc-a2":"AR","name":"Argenteuil","type":"MRC","hc-middle-lon":-74.479,"hc-middle-lat":45.73}},{"type":"Polygon","arcs":[[361,-646,1201,1202,-643,-642,359]],"id":"CA.ON.3502","properties":{"hc-group":"admin2","hc-key":"ca-on-3502","hc-a2":"PA","name":"Prescott and Russell","type":"UC","hc-middle-lon":-74.919,"hc-middle-lat":45.471}},{"type":"Polygon","arcs":[[-1195,-836,-1137,-1121,1203,1204,-1199]],"id":"CA.QC.2475","properties":{"hc-group":"admin2","hc-key":"ca-qc-2475","hc-a2":"LR","name":"La Rivière-du-Nord","type":"MRC","hc-middle-lon":-74.074,"hc-middle-lat":45.818}},{"type":"Polygon","arcs":[[-1200,-1205,1205,1206]],"id":"CA.QC.2474","properties":{"hc-group":"admin2","hc-key":"ca-qc-2474","hc-a2":"MI","name":"Mirabel","type":"TÉ","hc-middle-lon":-74.065,"hc-middle-lat":45.646}},{"type":"Polygon","arcs":[[1207,1208,-1206,-1204,-1120]],"id":"CA.QC.2473","properties":{"hc-group":"admin2","hc-key":"ca-qc-2473","hc-a2":"TD","name":"Thérèse-De Blainville","type":"MRC","hc-middle-lon":-73.843,"hc-middle-lat":45.705}},{"type":"Polygon","arcs":[[-1207,-1209,1209,-1201]],"id":"CA.QC.2472","properties":{"hc-group":"admin2","hc-key":"ca-qc-2472","hc-a2":"DM","name":"Deux-Montagnes","type":"MRC","hc-middle-lon":-74.048,"hc-middle-lat":45.526}},{"type":"Polygon","arcs":[[-1202,-645,362,-980,1210]],"id":"CA.ON.3501","properties":{"hc-group":"admin2","hc-key":"ca-on-3501","hc-a2":"SD","name":"Stormont, Dundas and Glengarry","type":"UC","hc-middle-lon":-74.931,"hc-middle-lat":45.135}},{"type":"Polygon","arcs":[[-1198,1211,451,644,645,-362],[1212,1213],[1214,1213]],"id":"CA.QC.2471","properties":{"hc-group":"admin2","hc-key":"ca-qc-2471","hc-a2":"VS","name":"Vaudreuil-Soulanges","type":"MRC","hc-middle-lon":-74.221,"hc-middle-lat":45.331}},{"type":"MultiPolygon","arcs":[[[-451,1215,-1142,-1139,-1145,449,450,1216,-1217]],[[1213,1213,1213]]],"id":"CA.QC.2470","properties":{"hc-group":"admin2","hc-key":"ca-qc-2470","hc-a2":"BS","name":"Beauharnois-Salaberry","type":"MRC","hc-middle-lon":-73.918,"hc-middle-lat":45.258}},{"type":"Polygon","arcs":[[376,-1026,1217,1218,1219,1220,1221]],"id":"CA.ON.3518","properties":{"hc-group":"admin2","hc-key":"ca-on-3518","hc-a2":"DU","name":"Durham","type":"RM","hc-middle-lon":-78.601,"hc-middle-lat":44.054}},{"type":"Polygon","arcs":[[297,1222,1223,1224]],"id":"CA.NS.1203","properties":{"hc-group":"admin2","hc-key":"ca-ns-1203","hc-a2":"DI","name":"Digby","type":"CTY","hc-middle-lon":-65.871,"hc-middle-lat":44.262}},{"type":"Polygon","arcs":[[498,-661,1225,1226]],"id":"CA.NB.1313","properties":{"hc-group":"admin2","hc-key":"ca-nb-1313","hc-a2":"MA","name":"Madawaska","type":"CT","hc-middle-lon":-68.315,"hc-middle-lat":47.452}},{"type":"Polygon","arcs":[[283,1227,1228,613,614]],"id":"CA.AB.4801","properties":{"hc-group":"admin2","hc-key":"ca-ab-4801","hc-a2":"DN","name":"Division No.  1","type":"CDR","hc-middle-lon":-110.928,"hc-middle-lat":49.139}},{"type":"Polygon","arcs":[[284,-1096,1229,1230,-1228]],"id":"CA.AB.4802","properties":{"hc-group":"admin2","hc-key":"ca-ab-4802","hc-a2":"DN","name":"Division No.  2","type":"CDR","hc-middle-lon":-112.293,"hc-middle-lat":49.708}},{"type":"Polygon","arcs":[[-1095,1231,1232,1233,1234,-1230]],"id":"CA.AB.4805","properties":{"hc-group":"admin2","hc-key":"ca-ab-4805","hc-a2":"DN","name":"Division No.  5","type":"CDR","hc-middle-lon":-113.43,"hc-middle-lat":50.621}},{"type":"Polygon","arcs":[[-1235,1235,611,612,-1229,-1231]],"id":"CA.AB.4804","properties":{"hc-group":"admin2","hc-key":"ca-ab-4804","hc-a2":"DN","name":"Division No.  4","type":"CDR","hc-middle-lon":-111.261,"hc-middle-lat":51.466}},{"type":"Polygon","arcs":[[-1094,1236,1237,1238,-1232]],"id":"CA.AB.4806","properties":{"hc-group":"admin2","hc-key":"ca-ab-4806","hc-a2":"DN","name":"Division No.  6","type":"CDR","hc-middle-lon":-114.624,"hc-middle-lat":51.097}},{"type":"Polygon","arcs":[[-1234,1239,1240,610,-1236]],"id":"CA.AB.4807","properties":{"hc-group":"admin2","hc-key":"ca-ab-4807","hc-a2":"DN","name":"Division No.  7","type":"CDR","hc-middle-lon":-111.543,"hc-middle-lat":52.526}},{"type":"Polygon","arcs":[[-1240,-1233,-1239,1241,1242,1243,1244]],"id":"CA.AB.4808","properties":{"hc-group":"admin2","hc-key":"ca-ab-4808","hc-a2":"DN","name":"Division No.  8","type":"CDR","hc-middle-lon":-114.371,"hc-middle-lat":52.358}},{"type":"Polygon","arcs":[[-1242,-1238,1245,1246,1247,1248]],"id":"CA.AB.4809","properties":{"hc-group":"admin2","hc-key":"ca-ab-4809","hc-a2":"DN","name":"Division No.  9","type":"CDR","hc-middle-lon":-115.771,"hc-middle-lat":52.237}},{"type":"Polygon","arcs":[[1249,1250,1251,444,1252,1253,1254,1255]],"id":"CA.QC.2445","properties":{"hc-group":"admin2","hc-key":"ca-qc-2445","hc-a2":"ME","name":"Memphrémagog","type":"MRC","hc-middle-lon":-72.179,"hc-middle-lat":45.193}},{"type":"Polygon","arcs":[[445,1256,1257,1258,1259,1260]],"id":"CA.QC.2446","properties":{"hc-group":"admin2","hc-key":"ca-qc-2446","hc-a2":"BM","name":"Brome-Missisquoi","type":"MRC","hc-middle-lon":-72.757,"hc-middle-lat":45.176}},{"type":"Polygon","arcs":[[-636,-635,1261,1262,-811]],"id":"CA.ON.3554","properties":{"hc-group":"admin2","hc-key":"ca-on-3554","hc-a2":"TI","name":"Timiskaming","type":"DIS","hc-middle-lon":-80.066,"hc-middle-lat":47.681}},{"type":"Polygon","arcs":[[1263,1264,1265,1266,1267,1268,1269,1270]],"id":"CA.QC.2431","properties":{"hc-group":"admin2","hc-key":"ca-qc-2431","hc-a2":"LA","name":"Les Appalaches","type":"MRC","hc-middle-lon":-71.288,"hc-middle-lat":46.058}},{"type":"Polygon","arcs":[[-1271,1271,1272,548,1273]],"id":"CA.QC.2429","properties":{"hc-group":"admin2","hc-key":"ca-qc-2429","hc-a2":"BS","name":"Beauce-Sartigan","type":"MRC","hc-middle-lon":-70.659,"hc-middle-lat":45.972}},{"type":"Polygon","arcs":[[-1274,549,1274,-1264]],"id":"CA.QC.2430","properties":{"hc-group":"admin2","hc-key":"ca-qc-2430","hc-a2":"LG","name":"Le Granit","type":"MRC","hc-middle-lon":-71.03,"hc-middle-lat":45.621}},{"type":"Polygon","arcs":[[1275,1276,1277,-1268]],"id":"CA.QC.2432","properties":{"hc-group":"admin2","hc-key":"ca-qc-2432","hc-a2":"L'","name":"L'Érable","type":"MRC","hc-middle-lon":-71.7,"hc-middle-lat":46.287}},{"type":"MultiPolygon","arcs":[[[319,-722,313,-727,315,-729,317,-730]],[[323,-725]],[[36,-728]],[[34,-726]],[[-626,-625,-624,-623,-622,-723,321,-724,325,-732,327,-731,329,-628,-627]]],"id":"CA.NL.1010","properties":{"hc-group":"admin2","hc-key":"ca-nl-1010","hc-a2":"DN","name":"Division No. 10","type":"CDR","hc-middle-lon":-62.591,"hc-middle-lat":53.921}},{"type":"Polygon","arcs":[[-954,1278,1279,497,-1227,1280]],"id":"CA.NB.1312","properties":{"hc-group":"admin2","hc-key":"ca-nb-1312","hc-a2":"VI","name":"Victoria","type":"CT","hc-middle-lon":-67.264,"hc-middle-lat":46.71}},{"type":"Polygon","arcs":[[504,1281,-1174,-856]],"id":"CA.QC.2495","properties":{"hc-group":"admin2","hc-key":"ca-qc-2495","hc-a2":"LH","name":"La Haute-Côte-Nord","type":"MRC","hc-middle-lon":-69.329,"hc-middle-lat":48.678}},{"type":"Polygon","arcs":[[1282,1283,1284,1285,1286,1287,1288,-1256,1289]],"id":"CA.QC.2442","properties":{"hc-group":"admin2","hc-key":"ca-qc-2442","hc-a2":"LV","name":"Le Val-Saint-François","type":"MRC","hc-middle-lon":-72.065,"hc-middle-lat":45.491}},{"type":"Polygon","arcs":[[-1286,1290,1291,-1266,1292]],"id":"CA.QC.2440","properties":{"hc-group":"admin2","hc-key":"ca-qc-2440","hc-a2":"LS","name":"Les Sources","type":"MRC","hc-middle-lon":-71.786,"hc-middle-lat":45.781}},{"type":"Polygon","arcs":[[-1292,1293,1294,1295,1296,1297,-1276,-1267]],"id":"CA.QC.2439","properties":{"hc-group":"admin2","hc-key":"ca-qc-2439","hc-a2":"AR","name":"Arthabaska","type":"MRC","hc-middle-lon":-71.958,"hc-middle-lat":45.97}},{"type":"Polygon","arcs":[[550,1298,1299,-1287,-1293,-1265,-1275]],"id":"CA.QC.2441","properties":{"hc-group":"admin2","hc-key":"ca-qc-2441","hc-a2":"LH","name":"Le Haut-Saint-François","type":"MRC","hc-middle-lon":-71.498,"hc-middle-lat":45.509}},{"type":"Polygon","arcs":[[-1290,-1255,-1259,1300,1301,1302]],"id":"CA.QC.2447","properties":{"hc-group":"admin2","hc-key":"ca-qc-2447","hc-a2":"LH","name":"La Haute-Yamaska","type":"MRC","hc-middle-lon":-72.658,"hc-middle-lat":45.41}},{"type":"Polygon","arcs":[[-1299,551,-1252,1303]],"id":"CA.QC.2444","properties":{"hc-group":"admin2","hc-key":"ca-qc-2444","hc-a2":"CO","name":"Coaticook","type":"MRC","hc-middle-lon":-71.719,"hc-middle-lat":45.123}},{"type":"Polygon","arcs":[[-1284,1304,-1303,1305,1306]],"id":"CA.QC.2448","properties":{"hc-group":"admin2","hc-key":"ca-qc-2448","hc-a2":"AC","name":"Acton","type":"MRC","hc-middle-lon":-72.561,"hc-middle-lat":45.624}},{"type":"Polygon","arcs":[[-1285,-1307,1307,1308,1309,1310,-1294,-1291]],"id":"CA.QC.2449","properties":{"hc-group":"admin2","hc-key":"ca-qc-2449","hc-a2":"DR","name":"Drummond","type":"MRC","hc-middle-lon":-72.47,"hc-middle-lat":45.879}},{"type":"Polygon","arcs":[[1311,1312,526,1313,-1277,-1298,1314]],"id":"CA.QC.2438","properties":{"hc-group":"admin2","hc-key":"ca-qc-2438","hc-a2":"BÉ","name":"Bécancour","type":"MRC","hc-middle-lon":-72.204,"hc-middle-lat":46.327}},{"type":"Polygon","arcs":[[-668,-667,1315,1316,1317]],"id":"CA.MB.4620","properties":{"hc-group":"admin2","hc-key":"ca-mb-4620","hc-a2":"DN","name":"Division No. 20","type":"CDR","hc-middle-lon":-101.475,"hc-middle-lat":52.074}},{"type":"Polygon","arcs":[[-1191,546,1318,1319,530]],"id":"CA.QC.2418","properties":{"hc-group":"admin2","hc-key":"ca-qc-2418","hc-a2":"MO","name":"Montmagny","type":"MRC","hc-middle-lon":-70.276,"hc-middle-lat":46.796}},{"type":"Polygon","arcs":[[400,-873,402,403,405,1320,18,406,407,408,410,412,-1077,-1078,-812,-1263,1321,1322,395,396,397,1323,1324,399],[1325]],"id":"CA.ON.3552","properties":{"hc-group":"admin2","hc-key":"ca-on-3552","hc-a2":"SU","name":"Sudbury","type":"DIS","hc-middle-lon":-82.029,"hc-middle-lat":47.547}},{"type":"Polygon","arcs":[[-1262,-634,-1056,1326,1327,1328,1329,-1322]],"id":"CA.ON.3548","properties":{"hc-group":"admin2","hc-key":"ca-on-3548","hc-a2":"NI","name":"Nipissing","type":"DIS","hc-middle-lon":-79.154,"hc-middle-lat":46.219}},{"type":"Polygon","arcs":[[1330,1331,1332,-1244,-1248]],"id":"CA.AB.4811","properties":{"hc-group":"admin2","hc-key":"ca-ab-4811","hc-a2":"DN","name":"Division No. 11","type":"CDR","hc-middle-lon":-114.27,"hc-middle-lat":53.413}},{"type":"Polygon","arcs":[[-1331,-1247,1333,654,483,646,1334,1335]],"id":"CA.AB.4814","properties":{"hc-group":"admin2","hc-key":"ca-ab-4814","hc-a2":"DN","name":"Division No. 14","type":"CDR","hc-middle-lon":-116.99,"hc-middle-lat":53.429}},{"type":"Polygon","arcs":[[-1245,-1333,1336,1337,609,-1241]],"id":"CA.AB.4810","properties":{"hc-group":"admin2","hc-key":"ca-ab-4810","hc-a2":"DN","name":"Division No. 10","type":"CDR","hc-middle-lon":-111.607,"hc-middle-lat":53.669}},{"type":"Polygon","arcs":[[607,608,-1338,1338,-782,-805]],"id":"CA.AB.4812","properties":{"hc-group":"admin2","hc-key":"ca-ab-4812","hc-a2":"DN","name":"Division No. 12","type":"CDR","hc-middle-lon":-111.413,"hc-middle-lat":54.873}},{"type":"Polygon","arcs":[[1339,648,-785]],"id":"CA.AB.4819","properties":{"hc-group":"admin2","hc-key":"ca-ab-4819","hc-a2":"DN","name":"Division No. 19","type":"CDR","hc-middle-lon":-118.702,"hc-middle-lat":55.703}},{"type":"Polygon","arcs":[[651,652,653,-1334,-1246,-1237,-1093]],"id":"CA.AB.4815","properties":{"hc-group":"admin2","hc-key":"ca-ab-4815","hc-a2":"DN","name":"Division No. 15","type":"CDR","hc-middle-lon":-114.922,"hc-middle-lat":51.45}},{"type":"Polygon","arcs":[[-1211,-979,1340,-1051,-640,-639,358,-644,-1203]],"id":"CA.ON.3506","properties":{"hc-group":"admin2","hc-key":"ca-on-3506","hc-a2":"OT","name":"Ottawa","type":"CDR","hc-middle-lon":-75.738,"hc-middle-lat":45.376}},{"type":"Polygon","arcs":[[1341,1342,1343,1344,41,1345,1346]],"id":"CA.NL.1007","properties":{"hc-group":"admin2","hc-key":"ca-nl-1007","hc-a2":"DN","name":"Division No.  7","type":"CDR","hc-middle-lon":-53.5,"hc-middle-lat":48.357}},{"type":"Polygon","arcs":[[1347,44,1348,1349,-1343,1350]],"id":"CA.NL.1003","properties":{"hc-group":"admin2","hc-key":"ca-nl-1003","hc-a2":"DN","name":"Division No.  3","type":"CDR","hc-middle-lon":-57.056,"hc-middle-lat":47.676}},{"type":"MultiPolygon","arcs":[[[-1345,1351,40]],[[-981,38,1352]]],"id":"CA.NL.1008","properties":{"hc-group":"admin2","hc-key":"ca-nl-1008","hc-a2":"DN","name":"Division No.  8","type":"CDR","hc-middle-lon":-55.46,"hc-middle-lat":49.333}},{"type":"Polygon","arcs":[[39,-1352,-1344,-1350,1353,-982,-1353]],"id":"CA.NL.1006","properties":{"hc-group":"admin2","hc-key":"ca-nl-1006","hc-a2":"DN","name":"Division No.  6","type":"CDR","hc-middle-lon":-55.563,"hc-middle-lat":49.184}},{"type":"Polygon","arcs":[[-1354,-1349,45,-983]],"id":"CA.NL.1004","properties":{"hc-group":"admin2","hc-key":"ca-nl-1004","hc-a2":"DN","name":"Division No.  4","type":"CDR","hc-middle-lon":-59.076,"hc-middle-lat":48.058}},{"type":"Polygon","arcs":[[-1346,42,1354]],"id":"CA.NL.1001","properties":{"hc-group":"admin2","hc-key":"ca-nl-1001","hc-a2":"DN","name":"Division No.  1","type":"CDR","hc-middle-lon":-53.441,"hc-middle-lat":46.995}},{"type":"Polygon","arcs":[[-1282,505,-1156,-1175]],"id":"CA.QC.2415","properties":{"hc-group":"admin2","hc-key":"ca-qc-2415","hc-a2":"CE","name":"Charlevoix-Est","type":"MRC","hc-middle-lon":-70.211,"hc-middle-lat":47.889}},{"type":"Polygon","arcs":[[1355,1356,1357,-878]],"id":"CA.QC.2459","properties":{"hc-group":"admin2","hc-key":"ca-qc-2459","hc-a2":"LA","name":"Lajemmerais","type":"MRC","hc-middle-lon":-73.308,"hc-middle-lat":45.781}},{"type":"Polygon","arcs":[[-1301,-1258,1358,1359,1360]],"id":"CA.QC.2455","properties":{"hc-group":"admin2","hc-key":"ca-qc-2455","hc-a2":"RO","name":"Rouville","type":"MRC","hc-middle-lon":-73.055,"hc-middle-lat":45.399}},{"type":"Polygon","arcs":[[1361,1362,-1308,-1306,-1302,-1361]],"id":"CA.QC.2454","properties":{"hc-group":"admin2","hc-key":"ca-qc-2454","hc-a2":"LM","name":"Les Maskoutains","type":"MRC","hc-middle-lon":-72.927,"hc-middle-lat":45.688}},{"type":"Polygon","arcs":[[-1360,1363,-879,-1358,1364,-1362]],"id":"CA.QC.2457","properties":{"hc-group":"admin2","hc-key":"ca-qc-2457","hc-a2":"LV","name":"La Vallée-du-Richelieu","type":"MRC","hc-middle-lon":-73.18,"hc-middle-lat":45.613}},{"type":"Polygon","arcs":[[446,-1141,-1144,-1364,-1359,-1257]],"id":"CA.QC.2456","properties":{"hc-group":"admin2","hc-key":"ca-qc-2456","hc-a2":"LH","name":"Le Haut-Richelieu","type":"MRC","hc-middle-lon":-73.258,"hc-middle-lat":45.187}},{"type":"Polygon","arcs":[[513,1365,-832,1366,1367,1368]],"id":"CA.QC.2451","properties":{"hc-group":"admin2","hc-key":"ca-qc-2451","hc-a2":"MA","name":"Maskinongé","type":"MRC","hc-middle-lon":-73.098,"hc-middle-lat":46.556}},{"type":"MultiPolygon","arcs":[[[519,520,-521,518]],[[26,1369]],[[522,-523,1370]],[[516,1371]],[[28,29,30]],[[525,-1313,-1295,-1311,1372,1373]],[[-524,523,1374]]],"id":"CA.QC.2450","properties":{"hc-group":"admin2","hc-key":"ca-qc-2450","hc-a2":"NY","name":"Nicolet-Yamaska","type":"MRC","hc-middle-lon":-72.545,"hc-middle-lat":46.153}},{"type":"MultiPolygon","arcs":[[[517,520,521,522,523,524,-1374,-1309,-1363,-1365,-1357,1375,1376,515]],[[27,1369]],[[1369,1369,1369]],[[30,-31,1377]]],"id":"CA.QC.2453","properties":{"hc-group":"admin2","hc-key":"ca-qc-2453","hc-a2":"PD","name":"Pierre-De Saurel","type":"MRC","hc-middle-lon":-73.007,"hc-middle-lat":45.96}},{"type":"Polygon","arcs":[[1378,-1133,-1136,-833,-1366,514,1379]],"id":"CA.QC.2452","properties":{"hc-group":"admin2","hc-key":"ca-qc-2452","hc-a2":"D'","name":"D'Autray","type":"MRC","hc-middle-lon":-73.221,"hc-middle-lat":46.172}},{"type":"Polygon","arcs":[[-614,-613,1380,-998,-1049,1381]],"id":"CA.SK.4708","properties":{"hc-group":"admin2","hc-key":"ca-sk-4708","hc-a2":"DN","name":"Division No.  8","type":"CDR","hc-middle-lon":-108.825,"hc-middle-lat":50.657}},{"type":"Polygon","arcs":[[-1025,-1040,1382,-1218]],"id":"CA.ON.3519","properties":{"hc-group":"admin2","hc-key":"ca-on-3519","hc-a2":"YO","name":"York","type":"RM","hc-middle-lon":-79.492,"hc-middle-lat":44.101}},{"type":"MultiPolygon","arcs":[[[1383,1383,1383]],[[21,1384]],[[372,1385,366,1386]]],"id":"CA.ON.3513","properties":{"hc-group":"admin2","hc-key":"ca-on-3513","hc-a2":"PE","name":"Prince Edward","type":"CDR","hc-middle-lon":-77.229,"hc-middle-lat":44.076}},{"type":"Polygon","arcs":[[373,1387,-1054,1388,365,1389]],"id":"CA.ON.3511","properties":{"hc-group":"admin2","hc-key":"ca-on-3511","hc-a2":"LA","name":"Lennox and Addington","type":"CTY","hc-middle-lon":-76.923,"hc-middle-lat":44.298}},{"type":"MultiPolygon","arcs":[[[-369,369,1390,371,-1387,367,368]],[[1384,1384,1384]],[[-1055,-1388,374,1391,1392,1393,-1327]]],"id":"CA.ON.3512","properties":{"hc-group":"admin2","hc-key":"ca-on-3512","hc-a2":"HA","name":"Hastings","type":"CTY","hc-middle-lon":-77.638,"hc-middle-lat":44.749}},{"type":"Polygon","arcs":[[-1053,1394,-977,364,-1389]],"id":"CA.ON.3510","properties":{"hc-group":"admin2","hc-key":"ca-on-3510","hc-a2":"FR","name":"Frontenac","type":"CTY","hc-middle-lon":-76.458,"hc-middle-lat":44.362}},{"type":"Polygon","arcs":[[301,1395,304,1396,-924,1397,-922,1398]],"id":"CA.NS.1210","properties":{"hc-group":"admin2","hc-key":"ca-ns-1210","hc-a2":"CO","name":"Colchester","type":"CTY","hc-middle-lon":-63.449,"hc-middle-lat":45.403}},{"type":"Polygon","arcs":[[-1221,1399,1400,-1393,1401]],"id":"CA.ON.3515","properties":{"hc-group":"admin2","hc-key":"ca-on-3515","hc-a2":"PE","name":"Peterborough","type":"CTY","hc-middle-lon":-78.23,"hc-middle-lat":44.516}},{"type":"Polygon","arcs":[[-1400,-1220,1402,1403,1404]],"id":"CA.ON.3516","properties":{"hc-group":"admin2","hc-key":"ca-on-3516","hc-a2":"KL","name":"Kawartha Lakes","type":"CDR","hc-middle-lon":-78.649,"hc-middle-lat":44.163}},{"type":"Polygon","arcs":[[527,1405,1406,1407,-1269,-1278,-1314]],"id":"CA.QC.2433","properties":{"hc-group":"admin2","hc-key":"ca-qc-2433","hc-a2":"LO","name":"Lotbinière","type":"MRC","hc-middle-lon":-71.529,"hc-middle-lat":46.462}},{"type":"MultiPolygon","arcs":[[[1408,1408,1408]],[[-1224,1409,1410,1411,294,-932]]],"id":"CA.NS.1204","properties":{"hc-group":"admin2","hc-key":"ca-ns-1204","hc-a2":"QU","name":"Queens","type":"CTY","hc-middle-lon":-64.935,"hc-middle-lat":44.186}},{"type":"MultiPolygon","arcs":[[[1412,1413,1414,-920,-918,293,-1412,1415],[-918,917,1416]],[[170,1408]],[[1417,1417,1417]],[[292,-293,1418]]],"id":"CA.NS.1206","properties":{"hc-group":"admin2","hc-key":"ca-ns-1206","hc-a2":"LU","name":"Lunenburg","type":"CTY","hc-middle-lon":-64.498,"hc-middle-lat":44.526}},{"type":"Polygon","arcs":[[539,-829,1419,-1091]],"id":"CA.QC.2403","properties":{"hc-group":"admin2","hc-key":"ca-qc-2403","hc-a2":"LC","name":"La Côte-de-Gaspé","type":"MRC","hc-middle-lon":-64.881,"hc-middle-lat":48.957}},{"type":"Polygon","arcs":[[-1397,305,1420,-928]],"id":"CA.NS.1212","properties":{"hc-group":"admin2","hc-key":"ca-ns-1212","hc-a2":"PI","name":"Pictou","type":"CTY","hc-middle-lon":-62.621,"hc-middle-lat":45.569}},{"type":"Polygon","arcs":[[-1404,1421,393,1422,-1329,1423]],"id":"CA.ON.3544","properties":{"hc-group":"admin2","hc-key":"ca-on-3544","hc-a2":"MU","name":"Muskoka","type":"DM","hc-middle-lon":-79.855,"hc-middle-lat":44.945}},{"type":"Polygon","arcs":[[303,-1396,302,615]],"id":"CA.NS.1211","properties":{"hc-group":"admin2","hc-key":"ca-ns-1211","hc-a2":"CU","name":"Cumberland","type":"CTY","hc-middle-lon":-64.227,"hc-middle-lat":45.675}},{"type":"Polygon","arcs":[[1424,1425,1426,-1427,1426,162,1427,166,1428],[1429,1429,1429]],"id":"CA.NS.1216","properties":{"hc-group":"admin2","hc-key":"ca-ns-1216","hc-a2":"RI","name":"Richmond","type":"CTY","hc-middle-lon":-60.811,"hc-middle-lat":45.69}},{"type":"MultiPolygon","arcs":[[[-1426,-1429,167,-1044,169,-1042,161,-1427]],[[1430,1430,1430]]],"id":"CA.NS.1215","properties":{"hc-group":"admin2","hc-key":"ca-ns-1215","hc-a2":"IN","name":"Inverness","type":"CTY","hc-middle-lon":-61.207,"hc-middle-lat":45.984}},{"type":"Polygon","arcs":[[-1428,163,-1043,165]],"id":"CA.NS.1217","properties":{"hc-group":"admin2","hc-key":"ca-ns-1217","hc-a2":"CB","name":"Cape Breton","type":"CTY","hc-middle-lon":-60.281,"hc-middle-lat":46.001}},{"type":"Polygon","arcs":[[-1421,306,-929]],"id":"CA.NS.1214","properties":{"hc-group":"admin2","hc-key":"ca-ns-1214","hc-a2":"AN","name":"Antigonish","type":"CTY","hc-middle-lon":-61.914,"hc-middle-lat":45.664}},{"type":"Polygon","arcs":[[-1341,-978,-1395,-1052]],"id":"CA.ON.3509","properties":{"hc-group":"admin2","hc-key":"ca-on-3509","hc-a2":"LA","name":"Lanark","type":"CTY","hc-middle-lon":-76.373,"hc-middle-lat":45.03}},{"type":"Polygon","arcs":[[-931,296,-1225]],"id":"CA.NS.1202","properties":{"hc-group":"admin2","hc-key":"ca-ns-1202","hc-a2":"YA","name":"Yarmouth","type":"CTY","hc-middle-lon":-65.847,"hc-middle-lat":43.981}},{"type":"Polygon","arcs":[[-846,1431,1432,1433]],"id":"CA.QC.2422","properties":{"hc-group":"admin2","hc-key":"ca-qc-2422","hc-a2":"LJ","name":"La Jacques-Cartier","type":"MRC","hc-middle-lon":-72.024,"hc-middle-lat":47.588}},{"type":"Polygon","arcs":[[-1394,-1401,-1405,-1424,-1328]],"id":"CA.ON.3546","properties":{"hc-group":"admin2","hc-key":"ca-on-3546","hc-a2":"HA","name":"Haliburton","type":"CTY","hc-middle-lon":-78.545,"hc-middle-lat":45.124}},{"type":"Polygon","arcs":[[-1407,1434,1435,1436]],"id":"CA.QC.2426","properties":{"hc-group":"admin2","hc-key":"ca-qc-2426","hc-a2":"LN","name":"La Nouvelle-Beauce","type":"MRC","hc-middle-lon":-71.033,"hc-middle-lat":46.466}},{"type":"Polygon","arcs":[[-1272,-1270,-1408,-1437,1437,1438]],"id":"CA.QC.2427","properties":{"hc-group":"admin2","hc-key":"ca-qc-2427","hc-a2":"RC","name":"Robert-Cliche","type":"MRC","hc-middle-lon":-70.893,"hc-middle-lat":46.308}},{"type":"Polygon","arcs":[[-1436,1439,529,-1320,1440,-1438]],"id":"CA.QC.2419","properties":{"hc-group":"admin2","hc-key":"ca-qc-2419","hc-a2":"BE","name":"Bellechasse","type":"MRC","hc-middle-lon":-70.753,"hc-middle-lat":46.687}},{"type":"Polygon","arcs":[[381,1441,1442]],"id":"CA.ON.3526","properties":{"hc-group":"admin2","hc-key":"ca-on-3526","hc-a2":"NI","name":"Niagara","type":"RM","hc-middle-lon":-79.349,"hc-middle-lat":43.053}},{"type":"MultiPolygon","arcs":[[[1443,-1035]],[[-1444,-1041,379,1444,-1169,-1036]]],"id":"CA.ON.3524","properties":{"hc-group":"admin2","hc-key":"ca-on-3524","hc-a2":"HA","name":"Halton","type":"RM","hc-middle-lon":-79.886,"hc-middle-lat":43.514}},{"type":"Polygon","arcs":[[380,-1443,1445,1446,1447,-1170,-1445]],"id":"CA.ON.3525","properties":{"hc-group":"admin2","hc-key":"ca-on-3525","hc-a2":"HA","name":"Hamilton","type":"CDR","hc-middle-lon":-79.949,"hc-middle-lat":43.271}},{"type":"Polygon","arcs":[[-1447,1448,1449,1450]],"id":"CA.ON.3529","properties":{"hc-group":"admin2","hc-key":"ca-on-3529","hc-a2":"BR","name":"Brant","type":"CDR","hc-middle-lon":-80.295,"hc-middle-lat":43.141}},{"type":"Polygon","arcs":[[-1038,-1168,1451,1452]],"id":"CA.ON.3522","properties":{"hc-group":"admin2","hc-key":"ca-on-3522","hc-a2":"DU","name":"Dufferin","type":"CTY","hc-middle-lon":-80.18,"hc-middle-lat":44.021}},{"type":"Polygon","arcs":[[1453,1454,1455,1456,1457,1458,1459]],"id":"CA.MB.4608","properties":{"hc-group":"admin2","hc-key":"ca-mb-4608","hc-a2":"DN","name":"Division No.  8","type":"CDR","hc-middle-lon":-98.931,"hc-middle-lat":50.083}},{"type":"Polygon","arcs":[[-1454,1460,1461,1462,1463]],"id":"CA.MB.4609","properties":{"hc-group":"admin2","hc-key":"ca-mb-4609","hc-a2":"DN","name":"Division No.  9","type":"CDR","hc-middle-lon":-98.221,"hc-middle-lat":49.915}},{"type":"Polygon","arcs":[[-672,1464,1465,1466]],"id":"CA.MB.4606","properties":{"hc-group":"admin2","hc-key":"ca-mb-4606","hc-a2":"DN","name":"Division No.  6","type":"CDR","hc-middle-lon":-100.952,"hc-middle-lat":49.798}},{"type":"Polygon","arcs":[[-1466,1467,-1457,1468,1469]],"id":"CA.MB.4607","properties":{"hc-group":"admin2","hc-key":"ca-mb-4607","hc-a2":"DN","name":"Division No.  7","type":"CDR","hc-middle-lon":-99.198,"hc-middle-lat":49.799}},{"type":"Polygon","arcs":[[-1469,-1456,1470,555,1471]],"id":"CA.MB.4604","properties":{"hc-group":"admin2","hc-key":"ca-mb-4604","hc-a2":"DN","name":"Division No.  4","type":"CDR","hc-middle-lon":-98.869,"hc-middle-lat":49.265}},{"type":"Polygon","arcs":[[-1472,556,-673,-1467,-1470]],"id":"CA.MB.4605","properties":{"hc-group":"admin2","hc-key":"ca-mb-4605","hc-a2":"DN","name":"Division No.  5","type":"CDR","hc-middle-lon":-100.377,"hc-middle-lat":49.272}},{"type":"Polygon","arcs":[[553,1472,1473,1474,1475,-933]],"id":"CA.MB.4602","properties":{"hc-group":"admin2","hc-key":"ca-mb-4602","hc-a2":"DN","name":"Division No.  2","type":"CDR","hc-middle-lon":-96.812,"hc-middle-lat":49.015}},{"type":"Polygon","arcs":[[-1473,554,-1471,-1455,-1464,1476]],"id":"CA.MB.4603","properties":{"hc-group":"admin2","hc-key":"ca-mb-4603","hc-a2":"DN","name":"Division No.  3","type":"CDR","hc-middle-lon":-98.375,"hc-middle-lat":49.313}},{"type":"Polygon","arcs":[[-1463,1477,1478,-1474,-1477]],"id":"CA.MB.4610","properties":{"hc-group":"admin2","hc-key":"ca-mb-4610","hc-a2":"DN","name":"Division No. 10","type":"CDR","hc-middle-lon":-97.566,"hc-middle-lat":49.81}},{"type":"Polygon","arcs":[[-1449,-1446,-1442,382,1479,1480]],"id":"CA.ON.3528","properties":{"hc-group":"admin2","hc-key":"ca-on-3528","hc-a2":"HN","name":"Haldimand-Norfolk","type":"CDR","hc-middle-lon":-79.669,"hc-middle-lat":43.01}},{"type":"Polygon","arcs":[[-1164,-1172,1481,1482,1483]],"id":"CA.ON.3531","properties":{"hc-group":"admin2","hc-key":"ca-on-3531","hc-a2":"PE","name":"Perth","type":"CTY","hc-middle-lon":-81.053,"hc-middle-lat":43.522}},{"type":"Polygon","arcs":[[647,-1340,-784,1484,-1335]],"id":"CA.AB.4818","properties":{"hc-group":"admin2","hc-key":"ca-ab-4818","hc-a2":"DN","name":"Division No. 18","type":"CDR","hc-middle-lon":-118.15,"hc-middle-lat":54.518}},{"type":"Polygon","arcs":[[-793,-990,-907,-745,-758,-795]],"id":"CA.BC.5951","properties":{"hc-group":"admin2","hc-key":"ca-bc-5951","hc-a2":"BN","name":"Bulkley-Nechako","type":"RD","hc-middle-lon":-125.618,"hc-middle-lat":54.512}},{"type":"Polygon","arcs":[[-1452,-1167,-1173,391,1485]],"id":"CA.ON.3542","properties":{"hc-group":"admin2","hc-key":"ca-on-3542","hc-a2":"GR","name":"Grey","type":"CTY","hc-middle-lon":-80.686,"hc-middle-lat":44.43}},{"type":"Polygon","arcs":[[-1448,-1451,1486,-1482,-1171]],"id":"CA.ON.3530","properties":{"hc-group":"admin2","hc-key":"ca-on-3530","hc-a2":"WA","name":"Waterloo","type":"RM","hc-middle-lon":-80.549,"hc-middle-lat":43.442}},{"type":"Polygon","arcs":[[638,-1063,-1070,-359]],"id":"CA.QC.2481","properties":{"hc-group":"admin2","hc-key":"ca-qc-2481","hc-a2":"GA","name":"Gatineau","type":"TÉ","hc-middle-lon":-75.626,"hc-middle-lat":45.507}},{"type":"Polygon","arcs":[[-1422,-1403,-1219,-1383,-1039,-1453,-1486,392]],"id":"CA.ON.3543","properties":{"hc-group":"admin2","hc-key":"ca-on-3543","hc-a2":"SI","name":"Simcoe","type":"CTY","hc-middle-lon":-79.794,"hc-middle-lat":44.487}},{"type":"Polygon","arcs":[[-1159,-1165,-1484,1487,1488,1489]],"id":"CA.ON.3539","properties":{"hc-group":"admin2","hc-key":"ca-on-3539","hc-a2":"MI","name":"Middlesex","type":"CTY","hc-middle-lon":-81.513,"hc-middle-lat":43.012}},{"type":"Polygon","arcs":[[171,1490,173,1491,175,1492]],"id":"CA.PE.1102","properties":{"hc-group":"admin2","hc-key":"ca-pe-1102","hc-a2":"QU","name":"Queens","type":"CTY","hc-middle-lon":-63.119,"hc-middle-lat":46.303}},{"type":"Polygon","arcs":[[-1492,174]],"id":"CA.PE.1103","properties":{"hc-group":"admin2","hc-key":"ca-pe-1103","hc-a2":"PR","name":"Prince","type":"CTY","hc-middle-lon":-63.955,"hc-middle-lat":46.559}},{"type":"MultiPolygon","arcs":[[[176,-1493]],[[-1491,172]]],"id":"CA.PE.1101","properties":{"hc-group":"admin2","hc-key":"ca-pe-1101","hc-a2":"KI","name":"Kings","type":"CTY","hc-middle-lon":-62.531,"hc-middle-lat":46.347}},{"type":"MultiPolygon","arcs":[[[375,-1222,-1402,-1392]],[[370,-1391]]],"id":"CA.ON.3514","properties":{"hc-group":"admin2","hc-key":"ca-on-3514","hc-a2":"NO","name":"Northumberland","type":"CTY","hc-middle-lon":-78.058,"hc-middle-lat":44.131}},{"type":"Polygon","arcs":[[547,-1273,-1439,-1441,-1319]],"id":"CA.QC.2428","properties":{"hc-group":"admin2","hc-key":"ca-qc-2428","hc-a2":"LE","name":"Les Etchemins","type":"MRC","hc-middle-lon":-70.381,"hc-middle-lat":46.347}},{"type":"Polygon","arcs":[[300,-1399,-921,-1415,1493]],"id":"CA.NS.1208","properties":{"hc-group":"admin2","hc-key":"ca-ns-1208","hc-a2":"HA","name":"Hants","type":"CTY","hc-middle-lon":-63.885,"hc-middle-lat":45.04}},{"type":"Polygon","arcs":[[-1410,-1223,298,1494,-1413]],"id":"CA.NS.1205","properties":{"hc-group":"admin2","hc-key":"ca-ns-1205","hc-a2":"AN","name":"Annapolis","type":"CTY","hc-middle-lon":-65.201,"hc-middle-lat":44.709}},{"type":"Polygon","arcs":[[-1495,299,-1494,-1414]],"id":"CA.NS.1207","properties":{"hc-group":"admin2","hc-key":"ca-ns-1207","hc-a2":"KI","name":"Kings","type":"CTY","hc-middle-lon":-64.536,"hc-middle-lat":44.979}},{"type":"Polygon","arcs":[[-1367,-831,-849,1495,1496,1497,1498,1499,1500]],"id":"CA.QC.2435","properties":{"hc-group":"admin2","hc-key":"ca-qc-2435","hc-a2":"MÉ","name":"Mékinac","type":"MRC","hc-middle-lon":-73.103,"hc-middle-lat":47.068}},{"type":"Polygon","arcs":[[1501,-847,-1434,1502,511,1503,1504,1505,1506]],"id":"CA.QC.2434","properties":{"hc-group":"admin2","hc-key":"ca-qc-2434","hc-a2":"PO","name":"Portneuf","type":"MRC","hc-middle-lon":-71.993,"hc-middle-lat":47.018}},{"type":"Polygon","arcs":[[-1504,512,-1369,1507,1499,-1499]],"id":"CA.QC.2437","properties":{"hc-group":"admin2","hc-key":"ca-qc-2437","hc-a2":"FR","name":"Francheville","type":"CDR","hc-middle-lon":-72.506,"hc-middle-lat":46.504}},{"type":"Polygon","arcs":[[-1508,-1368,-1501,1499]],"id":"CA.QC.2436","properties":{"hc-group":"admin2","hc-key":"ca-qc-2436","hc-a2":"SH","name":"Shawinigan","type":"TÉ","hc-middle-lon":-72.831,"hc-middle-lat":46.701}},{"type":"Polygon","arcs":[[-1461,-1460,1508,1509,1510,1511]],"id":"CA.MB.4618","properties":{"hc-group":"admin2","hc-key":"ca-mb-4618","hc-a2":"DN","name":"Division No. 18","type":"CDR","hc-middle-lon":-98.452,"hc-middle-lat":51.036}},{"type":"Polygon","arcs":[[-1450,-1481,1512,-1488,-1483,-1487]],"id":"CA.ON.3532","properties":{"hc-group":"admin2","hc-key":"ca-on-3532","hc-a2":"OX","name":"Oxford","type":"CTY","hc-middle-lon":-80.71,"hc-middle-lat":43.093}},{"type":"Polygon","arcs":[[-1480,383,1513,-1489,-1513]],"id":"CA.ON.3534","properties":{"hc-group":"admin2","hc-key":"ca-on-3534","hc-a2":"EL","name":"Elgin","type":"CTY","hc-middle-lon":-81.764,"hc-middle-lat":42.611}},{"type":"Polygon","arcs":[[385,1514]],"id":"CA.ON.3537","properties":{"hc-group":"admin2","hc-key":"ca-on-3537","hc-a2":"ES","name":"Essex","type":"CTY","hc-middle-lon":-82.756,"hc-middle-lat":42.196}},{"type":"Polygon","arcs":[[386,387,-1160,-1490,-1514,384,-1515]],"id":"CA.ON.3536","properties":{"hc-group":"admin2","hc-key":"ca-on-3536","hc-a2":"CK","name":"Chatham-Kent","type":"CDR","hc-middle-lon":-82.076,"hc-middle-lat":42.364}},{"type":"Polygon","arcs":[[-1475,-1479,1515,1516,1517]],"id":"CA.MB.4611","properties":{"hc-group":"admin2","hc-key":"ca-mb-4611","hc-a2":"DN","name":"Division No. 11","type":"CDR","hc-middle-lon":-97.227,"hc-middle-lat":49.871}},{"type":"Polygon","arcs":[[-1478,-1462,-1512,1518,-1516]],"id":"CA.MB.4614","properties":{"hc-group":"admin2","hc-key":"ca-mb-4614","hc-a2":"DN","name":"Division No. 14","type":"CDR","hc-middle-lon":-97.563,"hc-middle-lat":50.214}},{"type":"Polygon","arcs":[[-1511,1519,-935,1520,-1517,-1519]],"id":"CA.MB.4613","properties":{"hc-group":"admin2","hc-key":"ca-mb-4613","hc-a2":"DN","name":"Division No. 13","type":"CDR","hc-middle-lon":-96.757,"hc-middle-lat":50.237}},{"type":"Polygon","arcs":[[-1520,-1510,1521,-1316,-666,1522,1523,569,-936]],"id":"CA.MB.4619","properties":{"hc-group":"admin2","hc-key":"ca-mb-4619","hc-a2":"DN","name":"Division No. 19","type":"CDR","hc-middle-lon":-97.36,"hc-middle-lat":52.261}},{"type":"Polygon","arcs":[[-934,-1476,-1518,-1521]],"id":"CA.MB.4612","properties":{"hc-group":"admin2","hc-key":"ca-mb-4612","hc-a2":"DN","name":"Division No. 12","type":"CDR","hc-middle-lon":-96.692,"hc-middle-lat":50.039}},{"type":"Polygon","arcs":[[-1465,-671,1524,1525,-1458,-1468]],"id":"CA.MB.4615","properties":{"hc-group":"admin2","hc-key":"ca-mb-4615","hc-a2":"DN","name":"Division No. 15","type":"CDR","hc-middle-lon":-100.355,"hc-middle-lat":50.396}},{"type":"Polygon","arcs":[[-1317,-1522,-1509,-1459,-1526,1526]],"id":"CA.MB.4617","properties":{"hc-group":"admin2","hc-key":"ca-mb-4617","hc-a2":"DN","name":"Division No. 17","type":"CDR","hc-middle-lon":-99.802,"hc-middle-lat":50.961}},{"type":"Polygon","arcs":[[-669,-1318,-1527,-1525,-670]],"id":"CA.MB.4616","properties":{"hc-group":"admin2","hc-key":"ca-mb-4616","hc-a2":"DN","name":"Division No. 16","type":"CDR","hc-middle-lon":-101.031,"hc-middle-lat":50.726}},{"type":"Polygon","arcs":[[-851,-955,-1281,-1226,-660,-659,-658,499,-662,500]],"id":"CA.NB.1314","properties":{"hc-group":"admin2","hc-key":"ca-nb-1314","hc-a2":"RE","name":"Restigouche","type":"CT","hc-middle-lon":-66.512,"hc-middle-lat":47.715}},{"type":"Polygon","arcs":[[496,-1280,1527]],"id":"CA.NB.1311","properties":{"hc-group":"admin2","hc-key":"ca-nb-1311","hc-a2":"CA","name":"Carleton","type":"CT","hc-middle-lon":-67.53,"hc-middle-lat":46.439}},{"type":"Polygon","arcs":[[597,-995,-799,580,-600,596]],"id":"CA.NT.6105","properties":{"hc-group":"admin2","hc-key":"ca-nt-6105","hc-a2":"R5","name":"Region 5","type":"REG","hc-middle-lon":-107.751,"hc-middle-lat":61.433}},{"type":"Polygon","arcs":[[1528,-996,562,-803,-619,-801,-994]],"id":"CA.NT.6102","properties":{"hc-group":"admin2","hc-key":"ca-nt-6102","hc-a2":"R2","name":"Region 2","type":"REG","hc-middle-lon":-125.112,"hc-middle-lat":65.627}},{"type":"Polygon","arcs":[[1529,1530,1531,-1187,472]],"id":"CA.BC.5923","properties":{"hc-group":"admin2","hc-key":"ca-bc-5923","hc-a2":"AC","name":"Alberni-Clayoquot","type":"RD","hc-middle-lon":-125.48,"hc-middle-lat":49.292}},{"type":"Polygon","arcs":[[-1530,473,-751,475,-750,-906,1532,1533,466,1534],[1535]],"id":"CA.BC.5924","properties":{"hc-group":"admin2","hc-key":"ca-bc-5924","hc-a2":"ST","name":"Strathcona","type":"RD","hc-middle-lon":-126.584,"hc-middle-lat":49.907}},{"type":"Polygon","arcs":[[-1535,467,1536,-1531]],"id":"CA.BC.5926","properties":{"hc-group":"admin2","hc-key":"ca-bc-5926","hc-a2":"CV","name":"Comox Valley","type":"RD","hc-middle-lon":-125.094,"hc-middle-lat":49.626}},{"type":"Polygon","arcs":[[-1534,1537,-937,465]],"id":"CA.BC.5927","properties":{"hc-group":"admin2","hc-key":"ca-bc-5927","hc-a2":"PR","name":"Powell River","type":"RD","hc-middle-lon":-124.328,"hc-middle-lat":50.192}},{"type":"MultiPolygon","arcs":[[[154,-1186]],[[468,-1188,-1532,-1537]]],"id":"CA.BC.5921","properties":{"hc-group":"admin2","hc-key":"ca-bc-5921","hc-a2":"NA","name":"Nanaimo","type":"RD","hc-middle-lon":-124.407,"hc-middle-lat":49.177}},{"type":"Polygon","arcs":[[-845,-1152,-1157,507,1538,509,1539,-1432]],"id":"CA.QC.2421","properties":{"hc-group":"admin2","hc-key":"ca-qc-2421","hc-a2":"LC","name":"La Côte-de-Beaupré","type":"MRC","hc-middle-lon":-71.302,"hc-middle-lat":47.536}},{"type":"Polygon","arcs":[[508,1540]],"id":"CA.QC.2420","properties":{"hc-group":"admin2","hc-key":"ca-qc-2420","hc-a2":"LD","name":"L'Île-d'Orléans","type":"MRC","hc-middle-lon":-70.965,"hc-middle-lat":46.933}},{"type":"Polygon","arcs":[[510,-1503,-1433,-1540]],"id":"CA.QC.2423","properties":{"hc-group":"admin2","hc-key":"ca-qc-2423","hc-a2":"QU","name":"Québec","type":"TÉ","hc-middle-lon":-71.365,"hc-middle-lat":46.814}},{"type":"Polygon","arcs":[[-1435,-1406,528,-1440]],"id":"CA.QC.2425","properties":{"hc-group":"admin2","hc-key":"ca-qc-2425","hc-a2":"LÉ","name":"Lévis","type":"TÉ","hc-middle-lon":-71.222,"hc-middle-lat":46.696}},{"type":"Polygon","arcs":[[-665,-664,-743,1541,-1523]],"id":"CA.MB.4621","properties":{"hc-group":"admin2","hc-key":"ca-mb-4621","hc-a2":"DN","name":"Division No. 21","type":"CDR","hc-middle-lon":-100.379,"hc-middle-lat":54.246}},{"type":"Polygon","arcs":[[664,665,666,1542,-863,1543,1544,-806]],"id":"CA.SK.4714","properties":{"hc-group":"admin2","hc-key":"ca-sk-4714","hc-a2":"DN","name":"Division No. 14","type":"CDR","hc-middle-lon":-103.345,"hc-middle-lat":52.993}},{"type":"Polygon","arcs":[[-609,-809,-1007,-1000,1545,-610]],"id":"CA.SK.4717","properties":{"hc-group":"admin2","hc-key":"ca-sk-4717","hc-a2":"DN","name":"Division No. 17","type":"CDR","hc-middle-lon":-109.331,"hc-middle-lat":53.768}},{"type":"Polygon","arcs":[[-807,-1545,1546,-946,-1006]],"id":"CA.SK.4715","properties":{"hc-group":"admin2","hc-key":"ca-sk-4715","hc-a2":"DN","name":"Division No. 15","type":"CDR","hc-middle-lon":-105.781,"hc-middle-lat":52.67}},{"type":"Polygon","arcs":[[-1547,-1544,-862,-1045,-947]],"id":"CA.SK.4710","properties":{"hc-group":"admin2","hc-key":"ca-sk-4710","hc-a2":"DN","name":"Division No. 10","type":"CDR","hc-middle-lon":-103.507,"hc-middle-lat":51.637}},{"type":"Polygon","arcs":[[-612,-611,-1546,-999,-1381]],"id":"CA.SK.4713","properties":{"hc-group":"admin2","hc-key":"ca-sk-4713","hc-a2":"DN","name":"Division No. 13","type":"CDR","hc-middle-lon":-109.815,"hc-middle-lat":52.192}},{"type":"Polygon","arcs":[[-1323,-1330,-1423,394]],"id":"CA.ON.3549","properties":{"hc-group":"admin2","hc-key":"ca-on-3549","hc-a2":"PS","name":"Parry Sound","type":"DIS","hc-middle-lon":-80.317,"hc-middle-lat":45.55}},{"type":"Polygon","arcs":[[-1067,-1064,-841,-839,-1074]],"id":"CA.QC.2479","properties":{"hc-group":"admin2","hc-key":"ca-qc-2479","hc-a2":"AL","name":"Antoine-Labelle","type":"MRC","hc-middle-lon":-75.275,"hc-middle-lat":47.232}},{"type":"Polygon","arcs":[[-1348,-1347,-1355,43]],"id":"CA.NL.1002","properties":{"hc-group":"admin2","hc-key":"ca-nl-1002","hc-a2":"DN","name":"Division No.  2","type":"CDR","hc-middle-lon":-55.334,"hc-middle-lat":47.161}},{"type":"Polygon","arcs":[[-1083,-1114,-1109,-890,-1113]],"id":"CA.BC.5937","properties":{"hc-group":"admin2","hc-key":"ca-bc-5937","hc-a2":"NO","name":"North Okanagan","type":"RD","hc-middle-lon":-119.139,"hc-middle-lat":50.577}},{"type":"Polygon","arcs":[[-1533,-905,-899,-1193,-1194,463,-938,-1538]],"id":"CA.BC.5931","properties":{"hc-group":"admin2","hc-key":"ca-bc-5931","hc-a2":"SL","name":"Squamish-Lillooet","type":"RD","hc-middle-lon":-122.987,"hc-middle-lat":50.485}},{"type":"Polygon","arcs":[[-1279,-953,-1017,-1032,495,-1528]],"id":"CA.NB.1310","properties":{"hc-group":"admin2","hc-key":"ca-nb-1310","hc-a2":"YO","name":"York","type":"CT","hc-middle-lon":-67.254,"hc-middle-lat":45.827}},{"type":"Polygon","arcs":[[-1300,-1304,-1251,-1288]],"id":"CA.QC.2443","properties":{"hc-group":"admin2","hc-key":"ca-qc-2443","hc-a2":"SH","name":"Sherbrooke","type":"TÉ","hc-middle-lon":-71.965,"hc-middle-lat":45.415}},{"type":"Polygon","arcs":[[-1337,-1332,-1336,-1485,-783,-1339]],"id":"CA.AB.4813","properties":{"hc-group":"admin2","hc-key":"ca-ab-4813","hc-a2":"DN","name":"Division No. 13","type":"CDR","hc-middle-lon":-114.2,"hc-middle-lat":54.356}},{"type":"Polygon","arcs":[[47,-984]],"id":"CA.NL.1009","properties":{"hc-group":"admin2","hc-key":"ca-nl-1009","hc-a2":"DN","name":"Division No.  9","type":"CDR","hc-middle-lon":-56.901,"hc-middle-lat":50.489}},{"type":"MultiPolygon","arcs":[[[-853,627,501]],[[31]]],"id":"CA.QC.2498","properties":{"hc-group":"admin2","hc-key":"ca-qc-2498","hc-a2":"ML","name":"Minganie--Le Golfe-du-Saint-Laurent","type":"CDR","hc-middle-lon":-62.043,"hc-middle-lat":51.07}},{"type":"Polygon","arcs":[[560,-615,-1382,-1050]],"id":"CA.SK.4704","properties":{"hc-group":"admin2","hc-key":"ca-sk-4704","hc-a2":"DN","name":"Division No.  4","type":"CDR","hc-middle-lon":-108.607,"hc-middle-lat":49.273}},{"type":"Polygon","arcs":[[568,-1524,-1542,-742]],"id":"CA.MB.4622","properties":{"hc-group":"admin2","hc-key":"ca-mb-4622","hc-a2":"DN","name":"Division No. 22","type":"CDR","hc-middle-lon":-96.919,"hc-middle-lat":54.857}},{"type":"Polygon","arcs":[[-802]],"id":"CA.NT.6103","properties":{"hc-group":"admin2","hc-key":"ca-nt-6103","hc-a2":"R3","name":"Region 3","type":"REG","hc-middle-lon":-116.08,"hc-middle-lat":63.844}},{"type":"Polygon","arcs":[[-1326]],"id":"CA.ON.3553","properties":{"hc-group":"admin2","hc-key":"ca-on-3553","hc-a2":"GS","name":"Greater Sudbury / Grand Sudbury","type":"CDR","hc-middle-lon":-81.056,"hc-middle-lat":46.578}},{"type":"MultiLineString","arcs":[[0],[1,2],[3,4],[5],[6,-7],[7,8],[9,10,11],[12,13],[14,15,16,17],[18,-19],[19],[20],[21],[22],[23,-24],[24,25],[26,27],[28,29,30],[31],[32],[33,34],[35,36],[37,38,39,40,41,42,43,44,45,46,47],[48],[49],[50],[51,52],[53],[54],[55],[56],[57],[58],[59],[60],[61],[62],[63],[64],[65],[66],[67],[68],[69],[70],[71],[72],[73],[74],[75],[76],[77],[78],[79],[80],[81],[82],[83],[84],[85],[86],[87],[88],[89],[90],[91],[92],[93,94,95,96,97,98],[99,100,101,102,103,104,105,106,107,108,109,110],[111,112],[113,114],[115,116],[117],[118],[119],[120],[121],[122],[123],[124],[125],[126],[127],[128],[129],[130],[131],[132],[133],[134],[135],[136],[137,138],[139],[140],[141],[142],[143],[144],[145],[146],[147,148],[149],[150],[151],[152],[153,154],[155],[156],[157],[158],[159],[160,161,162,163,164,165,166,167,168,169],[170],[171,172,173,174,175,176],[177],[178],[-179],[179],[180],[181],[182],[183],[184],[185],[186],[187],[188],[189],[190],[191],[192],[191],[193],[194],[195],[196],[197],[198],[199],[199],[199],[200],[199],[199],[201],[202],[199],[203],[204],[205],[206],[207],[208],[209],[210],[211],[-212],[211],[212],[213],[214],[215],[216],[217],[218],[219],[220],[221],[222],[-222],[223],[224],[-225],[225],[225],[226],[225],[227],[227],[227],[228],[229],[230],[-231],[-230],[231],[232],[229,233],[234],[235],[236,237,238],[239],[240],[241],[242],[243],[244],[245],[246],[247],[248],[249],[250],[251],[252],[253,254],[-255,255],[256,257],[-258,258],[259],[260],[261],[262],[-263],[263],[264],[265],[266],[267],[268],[269],[270,271],[272,-271],[273],[274],[275],[276],[277],[278],[279,280],[281],[282],[-282],[283,284],[285,286,287,288,289,290],[291,292,293,294,295,296,297,298,299,300,301,302],[303,304,305,306,307],[308],[308],[309],[310,311],[312,313,314,315,316,317,318,319,320,321,322,323,324,325,326,327,328,329],[330],[331],[332],[333],[334],[335],[336],[337],[338],[339],[340,341,342,343,344,345,346,347,348,349,350,351,352],[-339],[353,354],[355],[356],[357],[358],[359],[360],[361],[362,363,364,365,366,367,368,-369,369,370,371,372,373,374,375,376,377,378,379,380,381,382,383,384,385,386,387,388,389,390,391,392,393,394,395,396,397,398,399,400,401,402,403,404,405,406,407,408,409,410,411,412,413,414,415,416,417,418,419,420,421,422,423,424,425,426,427,428,429,430,431,432,433,434,435,436,437,438,439,440,441,442,443],[444,445,446,447,448,449,450,451],[-362],[360],[452],[-359],[-358],[-357],[-356],[453],[454],[455],[456],[457,458,459,460,461,462,463,464,465,466,467,468,469,470,471,472,473,474,475,476,477,478,479,480,481],[482],[-457],[483],[484],[485],[486],[487,-280],[488,489,490,491,492,493,494,495,496,497,498],[499],[500],[501,502,503,504,505,506,507,508,509,510,511,512,513,514,515,516,517,518,519,520,521,522,523,524,525,526,527,528,529,530,531,532,533,534,535,536,537,538,539,540,541,542],[-500],[543,544,545,546,547,548,549,550,551],[552,553,554,555,556],[557,558,559,560],[561,562,563],[561,562,563],[564],[564],[565],[565],[566],[566],[567,568,569,570],[567,568,569,570],[571],[571],[572],[572],[573],[573],[574],[574],[191],[191],[575],[575],[576],[576],[577],[577],[199],[199],[199],[199],[578],[578],[579,580],[579,580],[581],[581],[582],[582],[583],[583],[584],[584],[217],[217],[585],[585],[586],[586],[225],[225],[227],[227],[587],[587],[-235],[-235],[588],[588],[589],[589],[590],[590],[248],[248],[591],[591],[592],[592],[593],[593],[594],[594],[260],[260],[595],[595],[596,597,598],[596,597,598],[599],[599],[264],[264],[600],[600],[601],[601],[268],[268],[602],[602],[603],[603],[604],[604],[605],[605],[606],[606],[607,608,609,610,611,612,613,614],[607,608,609,610,611,612,613,614],[615],[615],[616],[616],[308],[308],[617,618,619],[617,618,619],[620,621,622,623,624,625,626,627],[620,621,622,623,624,625,626,627],[628],[628],[629],[629],[630,631],[630,631],[632,633,634,635,636],[632,633,634,635,636],[637],[637],[638,639,640],[638,639,640],[641,642,643],[641,642,643],[644,645],[644,645],[646,647,648,649,650],[646,647,648,649,650],[651,652,653,654],[651,652,653,654],[655],[655],[656],[656],[657,658,659,660],[657,658,659,660],[661],[661],[662,663,664,665,666,667,668,669,670,671,672],[662,663,664,665,666,667,668,669,670,671,672],[673],[673],[673]],"properties":{"hc-group":"__border_lines__"}}],"hc-recommended-transform":{"default":{"rotation":-0.0872664625997,"crs":"+proj=lcc +lat_1=50 +lat_2=70 +lat_0=40 +lon_0=-96 +x_0=0 +y_0=0 +datum=NAD83 +units=m +no_defs","scale":0.00012864068035,"jsonres":15.5,"jsonmarginX":-999,"jsonmarginY":9851,"xoffset":-2522171.73317,"yoffset":4974135.35668}},"hc-recommended-mapview":{"projection":{"name":"LambertConformalConic","parallels":[50,70],"rotation":[96]}}}},"arcs":[[[5188,1859],[2,-1],[-2,1]],[[5242,1797],[0,5],[0,-4]],[[5242,1798],[0,-1]],[[5308,1735],[-2,0],[2,0]],[[5308,1735],[1,0],[-1,0]],[[5309,1742],[-4,-3],[4,3]],[[5308,1744],[1,-1]],[[5308,1746],[1,0],[-1,-1]],[[5308,1745],[0,1]],[[5239,1776],[0,1],[1,0]],[[5240,1777],[0,-2],[-1,1]],[[5239,1776],[0,-2],[0,2]],[[5235,1776],[1,3],[0,-3]],[[5236,1776],[-1,-1],[0,1]],[[5240,1795],[2,2]],[[5242,1797],[0,-2]],[[5242,1795],[3,-10],[-5,9]],[[5240,1794],[0,1]],[[6708,1004],[-1,-1]],[[6669,999],[1,-1],[-1,1]],[[6724,924],[-23,-65],[-33,10],[-52,48],[-108,34],[9,23],[75,-38],[56,42],[11,-43],[34,36],[6,-61],[25,14]],[[7198,527],[0,-1],[0,1]],[[8972,1347],[-24,-44],[-9,-31],[5,41],[28,34]],[[7638,840],[1,-1]],[[8069,1402],[1,1],[-1,-1]],[[8069,1402],[-9,13],[9,-13]],[[7699,998],[1,1],[-1,-1]],[[7699,998],[0,-1],[0,1]],[[7698,1001],[1,-1]],[[7699,1000],[-1,0]],[[7698,1000],[0,1]],[[8875,1854],[19,-30],[57,-33],[26,-53],[-37,-13],[-29,-5],[-93,40],[-56,40],[-49,77],[-59,38],[33,21],[98,-31],[90,-51]],[[9016,3624],[28,-59],[-33,25],[-6,-46],[-28,4],[4,69],[35,7]],[[9062,3441],[-1,2],[3,-1]],[[9064,3442],[14,0],[-16,-1]],[[9027,3420],[2,29],[24,-14]],[[9053,3435],[6,-28],[-32,13]],[[9534,1981],[0,-62],[-4,-61]],[[9530,1858],[70,130],[38,-51],[39,-1],[-62,-56],[21,-6],[17,-74],[40,36],[34,0],[-30,-75]],[[9697,1761],[-10,-15],[14,3]],[[9701,1749],[26,67],[13,-42],[21,46],[-27,16],[83,48],[21,-24],[-40,-14],[-7,-59],[53,34],[54,-48]],[[9898,1773],[-8,-58],[-34,-46],[30,-43],[-17,-39],[22,-18],[16,46],[21,-25],[30,19],[-23,-61],[-14,10],[-43,-121],[-10,1]],[[9868,1438],[3,-70],[24,-22],[28,118],[44,22],[-34,-90],[10,-82],[48,90],[8,-64],[-22,-52],[-17,-126],[-27,-30],[-45,0],[-3,89],[-61,-45],[20,109],[21,38],[-29,112]],[[9836,1435],[-70,-139],[-10,32],[-58,-132],[-60,-9],[-17,32],[75,67],[26,77]],[[9722,1363],[-41,30],[11,-45],[-34,-5],[-51,30],[23,25],[-101,-47],[-43,20],[-56,-5],[-42,27],[-128,-35],[-16,23]],[[9244,1381],[-11,57],[110,144],[-34,16],[-60,-22],[34,37],[28,-13],[24,92]],[[9335,1692],[55,65],[-26,28]],[[9364,1785],[103,315],[42,67],[-9,27],[37,79],[93,73],[0,-31],[55,24],[-20,-72],[-57,9],[38,-59],[-98,-238],[-14,2]],[[7039,7377],[30,6],[117,-36],[-103,45],[-2,49],[108,40],[83,-7],[8,-19],[99,-14],[73,-24],[21,-88],[82,-12],[-2,-62],[-34,-1],[5,-38],[104,27],[-32,-38],[-20,-78],[34,71],[45,-58],[34,-15],[6,7],[-31,11],[-12,47],[63,-29],[-14,-23],[22,24],[-31,35],[54,18],[111,-38],[47,-62],[-41,-45],[-66,6],[-28,-49],[19,-26],[96,28],[62,55],[30,-45],[-75,-98],[-35,-105],[17,10],[37,120],[127,60],[-18,-59],[67,37],[111,-45],[21,-23],[-38,-101],[-56,-28],[46,-11],[41,32],[26,63],[38,-17],[61,-68],[14,-58],[-110,6],[-22,-41],[61,24],[-18,-56],[80,1],[61,-54],[-13,-25],[-98,8],[-62,35],[-96,10],[150,-82],[17,11],[2,-77],[-201,17],[106,-20],[34,-24],[-68,5],[99,-29],[41,5],[38,-33],[41,9],[-1,-34],[-51,18],[55,-45],[57,10],[-15,-25],[43,-32],[-9,-99],[29,88],[64,-9],[16,26],[43,-17],[-41,-54],[62,15],[71,-79],[-6,-53],[-71,-28],[67,5],[44,46],[16,-24],[43,15],[6,-39],[-30,-14],[18,-39],[58,63],[27,-11],[-49,-37],[95,8],[77,-90],[-30,-47],[2,-37],[-73,-5],[14,-83],[-26,-10],[-18,-64],[-39,-34],[-59,46],[-34,-63],[49,-42],[-39,-22],[-5,-66],[-77,43],[-18,51],[-12,-46],[-23,38],[-38,-4],[-12,83],[-38,-16],[15,93],[60,46],[-75,-32],[-52,0],[6,31],[-121,58],[4,52],[-40,-66],[18,-88],[-62,1],[28,-59],[28,-10],[-18,-43],[72,-83],[9,-45],[81,-9],[80,-67],[4,-77],[-42,-14],[59,-15],[-15,-39],[61,-12],[-41,-41],[24,-13],[-16,10],[32,29],[29,-39],[-12,-21],[-4,3],[3,-88],[-22,-18],[-38,43],[25,-66],[-2,-72],[-43,27],[43,-94],[-45,-2],[-14,76],[-19,-24],[-122,69],[11,-24],[-127,155],[-8,-58],[-81,87],[-67,8],[92,-130],[66,-40],[99,-97],[68,-103],[25,-8],[-9,-79],[-38,-3],[-111,65],[-124,25],[-92,49],[-41,51],[20,25],[-67,15],[-21,-17],[-70,33],[-46,48],[-25,-13],[-75,91],[-14,67],[-51,33],[-17,49],[-39,18],[-88,102],[-5,-33],[-46,14],[14,61],[-49,-73],[-60,18],[-64,39],[-4,-55],[-93,-27],[10,-33],[-109,54],[-42,0],[-36,64],[26,105],[73,35],[-22,27],[77,29],[91,-42],[7,15],[96,-13],[3,33],[61,-18],[28,36],[46,16],[47,-23],[-30,80],[-76,74],[1,30],[55,35],[98,91],[26,71],[48,18],[4,60],[-23,99],[-31,26],[-18,96],[-73,9],[-33,34],[28,59],[-57,18],[34,-41],[-47,-23],[27,-30],[-1,-46],[-36,68],[0,36],[-54,56],[13,38],[-44,-21],[-37,34],[-15,-37],[-82,-45],[-39,8],[9,76],[67,-7],[47,19],[-8,46],[-119,70],[-48,16],[39,23],[-78,36],[-23,-11],[4,83],[-15,21],[-68,-11],[-46,59],[-77,13],[-10,-27],[68,-15],[34,-85],[-16,-23],[-110,-2],[-52,36],[-165,26],[44,-23],[58,-58],[-46,9],[-104,68],[-87,37],[131,-77],[-47,-39],[-28,21],[-12,-40],[-39,20],[10,30],[-47,25],[-54,-15],[-116,11],[-74,25],[-49,0],[58,-30],[-58,4],[-93,58],[-3,30],[-44,-18],[-86,12],[-104,30],[-86,109],[32,29],[76,0],[21,-19],[105,1],[9,17],[-65,41],[-202,28],[-28,13],[-16,55],[25,43],[-34,40],[13,33],[49,27],[-37,8],[16,98],[23,42],[34,0],[-14,52],[43,69],[81,70],[92,47],[93,21],[175,-10],[16,-35],[-73,-43],[-60,-57],[-65,-101],[2,-47],[49,-63],[-24,-43],[7,-47],[32,-54],[81,-73],[69,-26],[-80,-51],[42,-9],[39,-50],[1,103],[28,25],[-10,53],[-79,1],[-30,53],[-52,21],[60,17],[6,37],[56,10],[-15,30],[-49,21],[-20,108],[44,17],[122,-41],[-104,51],[-42,2],[17,28],[163,-24],[-142,45],[7,21],[257,102],[142,0],[44,-49],[2,-66],[68,-25],[-6,-55],[48,-48],[-86,-71],[46,18],[8,-32],[-42,-45],[36,-25],[81,98],[95,-53],[29,21],[-6,-10]],[[6327,5851],[20,-8],[40,-97],[-21,-17],[-40,38],[1,84]],[[6405,5874],[94,-71],[39,-49],[-65,-1],[-68,121]],[[6342,6067],[-1,1]],[[6341,6068],[8,0],[-7,-1]],[[6622,5272],[16,40],[-22,30],[-63,17],[-3,35],[-47,-16],[-6,-70],[-58,-55],[-29,-5],[-13,-47],[-57,-51],[-60,-14],[-12,18],[0,120],[-103,-2],[-64,-28],[-13,40],[48,59],[67,31],[-23,121],[30,84],[-2,109],[16,80],[57,52],[34,-25],[14,-87],[23,-62],[37,66],[73,-76],[46,-1],[21,-37],[88,-67],[50,-12],[35,-43],[5,-58],[21,-12],[-48,-59],[81,17],[36,-19],[2,38],[83,-80],[-99,-86],[-115,59],[-46,-4]],[[6594,5103],[61,4],[36,-17],[-10,-50],[-127,-128],[-26,18],[-41,-28],[-29,80],[73,111],[28,-21],[35,31]],[[5227,8282],[32,-15],[28,-49],[-60,3],[0,61]],[[6163,6260],[-28,10],[-23,74],[36,56],[25,-16],[12,-69],[-22,-55]],[[6069,6849],[104,-34],[-35,-10],[-57,16],[-12,28]],[[5791,8434],[-16,-49],[-71,62],[69,28],[18,-41]],[[6189,8974],[4,29],[56,15],[70,-17],[-130,-27]],[[4975,7596],[55,-47],[-46,-24],[-19,38],[10,33]],[[7782,7026],[39,46],[57,-12],[-5,-25],[-81,-24],[-10,15]],[[7036,3436],[-25,-24],[45,97],[-4,-60],[-16,-13]],[[6959,2492],[48,-30],[-18,-41],[-44,-9],[14,80]],[[7024,6414],[-3,-2],[2,42],[52,25],[-51,-65]],[[7067,5217],[102,-5],[17,-55],[-42,-25],[-77,85]],[[7195,5272],[45,2],[47,-41],[-39,-26],[-53,65]],[[7458,6496],[38,-50],[-7,-38],[-67,47],[36,41]],[[7274,6644],[-19,-35],[-44,-2],[-9,60],[76,4],[-4,-27]],[[7117,6773],[18,-47],[-64,-39],[-38,4],[84,82]],[[7003,8300],[36,-8],[-43,-34],[19,-17],[-83,1],[71,58]],[[8673,4995],[-35,-43],[-29,16],[22,36],[42,-9]],[[7915,5090],[61,-33],[39,-47],[-61,-9],[-39,89]],[[8230,4510],[31,13],[19,-32],[-16,-40],[-52,-6],[18,65]],[[8692,5263],[17,-87],[-36,32],[-15,49],[34,6]],[[6943,3508],[-6,-44],[-39,-15],[1,32],[44,27]],[[4896,7815],[13,-12],[-51,-44],[-86,-18],[-69,23],[75,29],[118,22]],[[4538,8692],[-105,-14],[-65,16],[-5,34],[79,6],[96,-42]],[[4085,8058],[60,75],[47,-6],[43,-59],[-32,-26],[-65,-6],[-53,22]],[[4399,8270],[-36,-35],[-12,-18],[-90,-6],[31,35],[107,24]],[[4375,8274],[-115,-31],[-68,15],[178,36],[5,-20]],[[4154,8327],[176,21],[7,-49],[-91,-23],[-105,17],[13,34]],[[4301,8380],[-22,-22],[-70,-12],[-38,10],[-59,61],[45,19],[144,-56]],[[3995,8698],[79,-54],[74,-73],[-5,-25],[-100,11],[-95,134],[47,7]],[[5810,8589],[-27,-19],[-97,-1],[-50,39],[-1,55],[34,11],[80,-13],[53,-34],[8,-38]],[[4981,8175],[32,33],[90,-41],[-24,-28],[-81,-25],[-17,61]],[[4608,8449],[-122,-43],[-40,12],[109,37],[53,-6]],[[4620,9217],[17,49],[93,20],[45,-25],[21,-68],[-25,-31],[-56,24],[-21,31],[-74,0]],[[7647,6266],[-128,12],[-14,66],[144,-23],[-2,-55]],[[6992,6592],[65,46],[17,27],[31,-24],[-29,-16],[-29,-63],[-58,-33],[3,63]],[[6883,6765],[25,-21],[32,23],[41,-9],[-38,-40],[-48,5],[-14,-61],[-11,44],[-47,47],[60,12]],[[8550,4764],[22,45],[34,-10],[-33,37],[25,9],[14,-57],[31,-21],[-16,-67],[-77,64]],[[6943,3508],[7,52],[-2,-49],[-5,-3]],[[4110,7696],[3,-1],[4,-1]],[[4117,7694],[19,-20],[-7,-47],[-82,-123],[-95,87],[-40,49],[-65,16],[39,52],[72,11]],[[3958,7719],[103,6],[38,-28]],[[4099,7697],[2,0]],[[4101,7697],[2,0]],[[4103,7697],[0,-1],[7,0]],[[5014,7471],[18,11],[-5,-15]],[[5027,7467],[35,-69],[-29,-32],[0,-107],[-44,-6],[-55,-46],[-110,6],[32,-40],[-53,-47],[-75,15],[-14,55],[-57,66],[-24,5],[-71,80],[-36,0],[-24,35],[-20,-23],[-57,28],[-15,34],[-82,63],[28,65],[45,14],[70,-52],[28,-40],[43,-5],[63,29],[-19,36],[0,68]],[[4586,7599],[15,21],[-49,-11]],[[4552,7609],[-2,0],[-23,1],[-3,5]],[[4524,7615],[-68,46],[48,29],[59,-34],[14,32],[-66,32],[67,32],[57,-25],[-26,37],[57,5],[63,-49],[107,16],[72,24],[50,-10],[29,-40],[-30,-33],[-7,-45],[-49,-13],[-84,-86]],[[4817,7533],[4,-16],[11,13]],[[4832,7530],[81,17],[43,-20],[2,-37]],[[4958,7490],[0,-1]],[[4958,7489],[9,1],[-2,-2]],[[4965,7488],[1,-2],[1,2]],[[4967,7488],[5,1],[3,-5]],[[4975,7484],[-15,-41],[54,28]],[[4980,7483],[0,1],[1,-1]],[[4981,7483],[-2,-4],[1,4]],[[4983,7481],[33,36],[-23,-38]],[[4993,7479],[-4,-1],[-6,3]],[[5193,7411],[-49,79],[-28,6],[26,84],[-15,66],[7,75],[39,10],[50,-24],[-53,74],[101,33],[96,13],[72,-8],[73,-25],[-3,-23],[89,21],[153,-34],[-84,-94],[-99,-153],[-54,-41],[-107,20],[-120,-3],[50,-15],[44,-62],[-48,-49]],[[5333,7361],[-17,-40],[-36,-18],[-95,-10],[8,118]],[[4864,8105],[52,-43],[-44,-27],[-181,-14],[-94,14],[1,57],[-40,41],[83,6],[-35,16],[97,38],[-126,-9],[-210,-25],[-51,23],[79,60],[81,-15],[-53,72],[54,24],[-77,0],[25,56],[46,0],[50,-29],[-9,-21],[93,-45],[43,-42],[36,20],[-52,18],[25,59],[-46,26],[-52,-2],[-31,29],[88,35],[64,9],[65,-69],[5,64],[58,6],[94,-47],[-11,-44],[36,-43],[-10,-64],[-42,-32],[63,-11],[10,-74],[-61,36],[-23,-53]],[[4573,8725],[-56,81],[-87,-9],[14,24],[-50,8],[-103,-42],[-24,14],[69,48],[-199,-27],[-66,58],[27,18],[143,-19],[10,70],[-89,2],[42,29],[-49,15],[-77,-45],[32,46],[-30,17],[-67,-8],[-13,37],[29,28],[164,20],[97,-20],[55,-54],[-19,-28],[33,-15],[70,49],[48,-10],[52,-26],[-25,-33],[96,6],[98,-57],[-35,-71],[34,-4],[52,-51],[-12,-53],[-79,-18],[-85,20]],[[5611,8384],[240,-40],[-1,-26],[-55,-8],[-163,1],[118,-26],[-100,-17],[101,-13],[14,19],[96,-54],[10,-75],[37,-13],[5,62],[61,-48],[102,33],[53,-34],[85,-14],[-6,15],[120,43],[54,-9],[72,48],[62,-20],[120,23],[143,-18],[-23,-27],[89,1],[52,-18],[-36,-30],[90,1],[6,-58],[-94,-54],[94,1],[15,-33],[-100,-26],[1,-44],[-110,-1],[-58,-26],[-119,14],[-34,25],[-3,48],[-53,-70],[-149,-9],[-320,-12],[-93,11],[17,59],[-31,25],[-50,-53],[-97,-24],[-118,44],[-9,-18],[-66,8],[-39,25],[1,78],[-55,30],[7,49],[52,42],[-13,64],[-48,26],[-14,41],[-49,56],[-70,-27],[-105,7],[-87,-11],[6,35],[-53,4],[-77,72],[-52,9],[-28,27],[17,29],[131,26],[-6,39],[32,6],[-4,-43],[137,-25],[22,-18],[77,2],[48,-37],[-24,-71],[34,34],[108,4],[79,19],[99,-32],[11,-23],[-101,11],[-5,-11]],[[5360,8704],[63,-29],[-37,-8],[-17,-46],[-144,11],[-116,-5],[-50,33],[3,21],[98,28],[174,-16],[26,11]],[[8240,9553],[300,54],[118,11],[-31,-42],[-92,-32],[-45,0],[-66,-44],[-185,-69],[-100,-55],[-45,-43],[-110,-6],[61,-23],[-23,-16],[-73,4],[-173,-35],[95,2],[82,16],[9,-34],[-87,-16],[65,-10],[-26,-23],[-135,-34],[-77,14],[-14,23],[-90,5],[-24,16],[-74,-24],[150,-7],[22,-60],[-94,-19],[-112,9],[16,-24],[-128,13],[19,-20],[-126,5],[-124,-4],[85,-21],[139,1],[14,-9],[152,2],[-20,-13],[44,-32],[-30,-9],[-137,20],[-31,24],[-191,2],[-44,-9],[187,-5],[59,-12],[-18,-23],[55,-8],[-28,-23],[81,3],[47,-28],[81,-12],[-77,-7],[26,-27],[-167,-30],[73,-8],[47,-24],[-57,-29],[-129,10],[-24,-15],[144,-15],[-36,-42],[-26,13],[-71,-20],[-156,7],[-32,-12],[47,-20],[46,7],[-56,-43],[44,-18],[-68,-54],[-100,-22],[-123,1],[-5,-19],[115,1],[33,-25],[-44,-48],[71,-9],[58,34],[40,-17],[5,-76],[-60,-45],[-49,28],[-20,-37],[-193,-64],[-45,14],[39,50],[-57,19],[-96,5],[-20,-30],[-161,7],[-55,47],[-1,-29],[-49,-15],[-46,36],[13,-42],[54,-27],[-92,-4],[-129,26],[-33,-11],[-86,27],[-19,-28],[-80,11],[-18,30],[-48,-25],[-85,41],[29,25],[-15,42],[120,61],[151,27],[3,39],[-69,-2],[3,42],[-60,30],[13,39],[92,19],[124,-25],[36,-40],[7,-51],[154,-31],[-9,26],[123,-11],[-44,26],[48,11],[101,101],[-8,22],[-91,-98],[-56,-29],[-98,7],[-29,-14],[-37,30],[-8,61],[51,15],[-81,8],[78,32],[21,69],[-71,-59],[-94,-8],[50,63],[-96,-50],[-92,0],[-5,68],[77,83],[185,41],[81,-14],[11,33],[-42,19],[52,30],[-21,54],[-62,48],[-164,49],[22,39],[-36,35],[13,43],[52,9],[82,-15],[139,0],[61,-16],[166,-86],[13,-33],[155,-37],[101,35],[-141,-13],[-63,14],[-10,59],[-78,23],[-102,68],[325,32],[12,16],[244,18],[-215,2],[72,24],[164,27],[158,8],[-150,14],[-129,-14],[-1,31],[113,67],[121,34],[4,15],[-137,-34],[-148,-80],[-13,-34],[-166,-47],[-157,-23],[-85,-5],[3,25],[60,25],[-93,-16],[-46,13],[-4,-46],[-155,-8],[-100,4],[-74,17],[22,29],[105,62],[237,31],[-248,-12],[-51,-19],[-126,-84],[-101,14],[-129,41],[-16,15],[160,22],[146,-1],[208,76],[-136,-28],[-27,-16],[-120,-15],[-89,0],[-166,-16],[-55,11],[-15,35],[119,7],[-83,25],[45,7],[92,47],[-192,-45],[-45,17],[146,48],[-122,7],[-36,-24],[-57,8],[-55,-20],[-1,31],[65,33],[97,25],[92,4],[42,-24],[-7,33],[66,-18],[-29,32],[114,28],[202,-14],[60,-15],[116,4],[-219,29],[-28,22],[144,6],[31,11],[-50,44],[132,2],[-31,-10],[136,-19],[102,-65],[-25,34],[40,15],[49,-21],[178,-48],[84,-9],[13,14],[-85,6],[-68,28],[-168,47],[12,35],[75,5],[-57,22],[21,15],[81,-8],[70,-29],[34,6],[-118,61],[108,3],[58,-18],[-1,48],[85,10],[36,-25],[37,19],[31,-26],[71,22],[84,-18],[55,-45],[89,-28],[44,16],[-94,20],[-54,45],[-90,36],[71,12],[268,-13],[83,-45],[122,-36],[-90,62],[94,34],[128,2],[4,-38],[85,-15],[-68,35],[111,20],[248,-39],[211,-5],[-162,-55],[-96,-20],[132,7],[200,49],[113,11],[28,-28],[96,13],[-22,-29],[94,-34],[-23,-20],[98,9],[113,-27],[8,-48],[-131,-54],[-146,-35],[-82,-34],[-58,9],[-155,-41],[-55,8],[-183,-18],[145,4],[50,-12],[-193,-46],[-185,-36],[202,25]],[[4980,8736],[-89,29],[93,10],[9,15],[-80,16],[-90,64],[39,19],[-46,64],[106,-1],[151,-41],[-15,-25],[73,-2],[92,-42],[-66,-28],[59,-30],[-23,-40],[-34,6],[-101,-28],[-21,12],[-48,-29],[-9,31]],[[5388,7998],[-11,-50],[-133,-9],[-77,41],[-18,-39],[30,-31],[-62,10],[6,63],[-73,46],[-29,-4],[21,52],[57,44],[-22,7],[139,55],[65,-12],[94,-77],[13,-96]],[[5422,9572],[150,-50],[72,-91],[67,-33],[-24,-18],[95,-14],[78,4],[25,-18],[-22,-36],[48,-43],[73,-10],[-63,49],[32,37],[88,-8],[7,-56],[-46,-25],[78,3],[37,-40],[-47,-99],[67,31],[77,-8],[10,-40],[33,44],[92,-87],[-45,-20],[-136,-30],[-93,-62],[-24,-35],[-42,10],[-10,65],[-27,-28],[40,-64],[-41,-80],[-4,49],[-61,27],[30,-36],[-33,-67],[-37,16],[-92,92],[-16,-10],[75,-92],[-102,32],[1,-40],[-191,15],[-100,71],[145,9],[-134,25],[-53,-13],[-61,46],[93,-7],[-96,21],[-50,38],[102,43],[156,-2],[175,17],[-78,6],[-126,-10],[-46,14],[73,8],[-63,22],[20,18],[-181,-50],[-2,29],[-57,11],[-49,-37],[-88,34],[0,32],[160,32],[-178,-4],[-81,60],[-7,59],[116,-25],[92,2],[47,29],[-92,-13],[-128,38],[46,75],[86,7],[-82,20],[94,1],[43,-33],[12,30],[50,2],[-128,22],[-16,29],[69,39],[63,-20],[-6,28],[140,-1],[-9,30],[-133,8],[35,28],[108,-2]],[[6999,3466],[-31,-81],[-15,52],[-35,-71],[3,48],[35,97],[16,-49],[14,81],[38,-30],[-33,-140],[8,93]],[[7368,6143],[-46,0],[-79,-1],[-26,51],[-7,67],[37,88],[32,39],[89,23],[98,-43],[-14,-49],[12,-90],[-35,-55],[-61,-30]],[[6815,7725],[52,-1],[91,-28],[154,8],[107,-38],[83,-96],[26,-71],[-225,18],[-101,-35],[-49,0],[-50,27],[-15,85],[-71,15],[-16,81],[14,35]],[[6919,4764],[-46,102],[46,95],[43,-2],[24,-36],[-47,-151],[-20,-8]],[[6776,2726],[51,-98],[-8,-25],[-148,78],[56,45],[49,0]],[[3703,6200],[20,45],[22,-29],[-7,-46],[-35,30]],[[4058,6461],[61,3],[20,-35],[-35,-2],[-46,34]],[[4618,6564],[9,41],[31,-13],[-34,-32],[0,-42],[-51,-6],[-3,56],[48,-4]],[[5161,6702],[3,-35],[-34,-28],[2,64],[-23,-46],[-12,34],[22,32],[42,-21]],[[4401,6471],[-25,25],[38,31],[36,-19],[-15,-46],[-34,9]],[[5022,6707],[53,5],[5,-58],[-49,33],[-9,20]],[[4594,6980],[32,-31],[-5,-22],[-56,22],[29,31]],[[5772,6544],[3,-15]],[[5775,6529],[-4,7],[1,8]],[[5772,6544],[-5,31],[-20,47],[36,-25],[-11,-53]],[[4897,6486],[-124,45],[-67,14],[1,60],[41,-3],[78,41],[-26,35],[64,107],[65,-27],[4,22],[-4,-48],[131,-76],[43,-51],[8,-65],[76,-5],[-41,-46],[-25,21],[-59,-68],[-148,26],[-17,18]],[[5188,1859],[-1,-1],[1,1]],[[998,2915],[-1,20],[46,5],[-23,-201],[-57,-25],[-25,27],[27,18],[-46,33],[-12,74],[-24,42],[25,54],[47,-30],[29,17],[14,-34]],[[1441,2481],[35,29],[2,-56],[-33,-14],[-4,41]],[[1471,2386],[12,-92],[-21,16],[-4,96],[13,-20]],[[1323,2690],[-33,9],[26,48],[23,1],[-16,-58]],[[1353,2844],[14,-86],[-22,-3],[-7,74],[15,15]],[[1202,3091],[19,25],[-19,-25]],[[1202,3091],[1,-1],[-1,1]],[[1184,2812],[9,22],[40,-30],[40,-73],[-23,-11],[-66,92]],[[1184,2812],[-5,-16],[4,16],[1,0]],[[1219,2916],[-41,-46],[0,60],[-26,35],[4,49],[-34,60],[35,0],[2,-100],[60,-58]],[[1059,2706],[-4,-83],[25,-35],[-25,-9],[51,-37],[25,-54],[-28,-23],[-42,76],[-69,89],[-29,79],[65,28],[31,-31]],[[1958,1738],[8,-47],[-9,47]],[[1957,1738],[-12,17],[13,-17]],[[2613,8206],[-76,-56],[-93,26],[53,38],[36,36],[54,14],[54,38],[26,-8],[-54,-88]],[[2981,8480],[105,7],[32,-15],[-16,-28],[-137,11],[16,25]],[[3022,8686],[-92,60],[33,7],[57,22],[4,-22],[82,-39],[-84,-28]],[[2586,7853],[84,-12],[85,-53],[153,-117],[-56,-46],[-76,-21],[-111,-50],[-193,-106],[-14,-61],[-56,-34],[-39,3],[-37,-72],[-2,-92],[-97,-44],[-53,29],[-25,-46],[-128,-57],[-32,35],[-21,65],[-41,44],[-148,77],[-57,-8],[12,70],[40,59],[43,31],[-10,56],[67,25],[-49,34],[37,40],[55,101],[35,25],[-50,27],[-42,48],[-13,45],[9,25],[236,24],[110,23],[161,-68],[112,-14],[20,-52],[22,50],[69,17]],[[2633,8462],[-65,-3],[-1,-54],[-57,2],[33,-55],[-45,-16],[-12,-43],[-29,10],[-24,54],[-22,-20],[23,-54],[-27,-41],[-84,-11],[4,42],[-31,5],[-16,44],[-17,-59],[-122,18],[-65,-33],[23,49],[-15,17],[-46,-22],[42,62],[71,25],[54,-1],[38,46],[94,46],[29,43],[84,47],[15,29],[45,11],[122,3],[58,-19],[67,26],[-55,14],[43,20],[62,-3],[39,53],[4,-73],[33,-42],[-95,-27],[15,-28],[59,-24],[-74,-2],[43,-26],[-7,-49],[-112,-20],[12,-48],[-42,-21],[-84,37],[35,91]],[[9054,966],[28,28],[-28,-30]],[[9054,964],[8,-19],[-27,-37]],[[9035,908],[39,4],[15,22]],[[9089,934],[29,39],[-41,-13],[34,59]],[[9111,1019],[-12,-9],[28,46]],[[9127,1056],[44,-26],[15,-51],[-46,-69]],[[9140,910],[-88,-51],[-40,23]],[[9012,882],[-22,105],[50,97],[23,80],[39,62]],[[9102,1226],[29,-39],[-5,-57],[-30,-120],[-41,-33]],[[9055,977],[-18,-15],[17,4]],[[8650,528],[0,1],[0,-1]],[[8842,1077],[-1,-1],[2,0]],[[8843,1076],[26,14],[74,-3],[-59,-58],[-20,-62]],[[8864,967],[-34,25],[-60,36]],[[8770,1028],[-72,46],[9,43],[-40,32],[47,86],[-9,-75],[51,-47]],[[8756,1113],[45,-31],[40,1]],[[8841,1083],[4,0],[-3,-6]],[[514,6541],[-2,2],[2,0]],[[514,6542],[-1,0]],[[513,6537],[-16,9],[16,-7]],[[513,6537],[0,0]],[[513,6539],[1,1],[0,1]],[[5886,3614],[116,-94],[37,-88],[48,-39],[35,-5],[142,-85],[61,-75],[67,-6],[71,15],[29,-21],[74,4],[80,-44],[8,-61],[-25,-146],[33,-91],[-10,-56],[12,-77],[-15,-21]],[[5188,1849],[7,-13],[-7,-16]],[[5188,1857],[5,-3],[-4,-1]],[[5188,1863],[-7,-10],[7,4]],[[5189,1853],[-6,-2],[5,-2]],[[5188,1861],[1,0],[-1,0]],[[5188,1861],[-1,0],[1,0]],[[5188,1816],[52,23],[-52,-36]],[[5188,1820],[-1,0],[1,-4]],[[7010,2830],[0,0]],[[7010,2830],[-8,-3],[8,3]],[[7103,4006],[6,-5],[-5,1]],[[7104,4002],[-16,15],[15,-11]],[[8026,4616],[2,-4],[-3,4]],[[8025,4616],[1,1],[0,-1]],[[8039,4612],[-1,-4],[-3,5]],[[8035,4613],[8,18],[-4,-19]],[[8616,4446],[0,0]],[[8630,4404],[16,5],[-30,37]],[[8616,4446],[14,24],[24,-16]],[[8654,4454],[-38,-8]],[[8616,4446],[6,2],[10,3],[13,3],[9,0]],[[8665,4472],[-5,-15],[-5,-2]],[[8655,4455],[-40,40],[32,54],[-7,-50],[25,-27]],[[4414,5399],[-57,13],[-93,20],[-123,24],[-68,13]],[[4073,5469],[341,-70]],[[5243,4127],[0,-1]],[[5243,4126],[-1,-1],[0,1]],[[5242,4126],[1,0]],[[5266,4078],[0,-1]],[[5266,4077],[23,9],[120,-5],[20,-102],[68,-248],[-33,-90],[31,22],[54,2],[91,46],[59,-1],[93,-63],[94,-33]],[[5229,4156],[0,1],[0,-1]],[[5229,4156],[1,-14],[13,-15]],[[5266,4080],[0,1],[0,-1]],[[5266,4080],[0,-2]],[[5265,4083],[0,0]],[[5243,4126],[8,-19],[14,-24]],[[5265,4083],[1,-3]],[[3527,8158],[109,-14],[-5,53],[-104,41]],[[3527,8238],[0,9]],[[3527,8238],[-22,8],[22,9]],[[6649,2724],[1,-1],[-3,-3]],[[6647,2720],[2,4]],[[7007,2873],[0,0]],[[7010,2830],[-4,21],[1,22]],[[7019,2898],[0,0]],[[7217,3897],[-2,2],[2,0]],[[7217,3899],[1,0]],[[7218,3899],[-1,-2]],[[7065,4111],[0,0]],[[7066,4111],[0,-1],[-1,1]],[[7218,3899],[-35,51],[-60,35],[-60,66],[2,60]],[[7065,4111],[1,0]],[[7681,4932],[4,1],[-3,-2]],[[7682,4931],[-3,-2]],[[7679,4929],[0,2]],[[7679,4931],[2,1]],[[7065,4111],[23,4],[27,74],[48,42],[-11,78],[56,20],[-30,61],[9,39],[-33,46],[-10,91],[-37,24],[55,79],[-9,123],[-26,10],[-18,102],[10,50],[66,55],[79,-15],[147,-61],[18,11],[104,-18],[87,56],[53,-39],[8,-11]],[[7681,4932],[1,-1]],[[7003,2796],[-2,1],[3,0]],[[7008,2807],[1,2],[0,-2]],[[7004,2797],[-2,3],[6,7]],[[7009,2807],[19,7],[-18,16]],[[7009,2875],[0,1],[1,-1]],[[7007,2873],[2,2]],[[7010,2875],[-5,20],[14,3]],[[7011,2911],[0,0]],[[7019,2898],[-20,13],[12,0]],[[7141,3221],[0,1],[0,-1]],[[7011,2911],[0,52],[-50,33],[-6,76],[-22,4],[161,100],[47,45]],[[7141,3221],[13,10],[42,55],[77,128],[20,68],[-1,187],[-14,82],[-49,133],[-10,14],[-2,-1]],[[3527,8784],[33,-17],[-33,-25]],[[3527,8742],[1,15]],[[3527,8742],[-121,-18],[28,-23],[69,1],[-2,-51],[-95,-38],[-127,-19],[-66,33],[-67,14],[-10,81],[72,28],[185,31],[134,3]],[[3527,8913],[70,-41],[-23,-39],[-48,-3]],[[3526,8830],[2,3]],[[3526,8830],[-60,-6],[-86,28],[-36,-30],[-82,25],[-116,-25],[-2,35],[105,33],[102,12],[26,24],[86,17],[64,-30]],[[2718,6735],[-23,14],[-20,72],[44,20],[117,27],[186,24],[114,-11],[73,-18],[131,35],[-55,7],[-22,32],[-158,32],[-70,7],[-168,-35],[-50,25],[-147,-2],[-90,55],[-18,44],[63,32],[178,51],[70,47],[-215,-45],[-81,3],[21,38],[42,3],[-41,28],[-35,-23],[-24,20],[-58,0],[-5,45],[67,82],[51,15],[-54,36],[7,26],[105,73],[27,29],[317,110],[66,-52],[-8,-72],[-65,-63],[121,19],[-8,17],[39,56],[26,6],[110,-29],[96,-40],[-10,-41],[-64,-58],[69,37],[18,-34],[43,59],[96,-33]],[[3526,7472],[0,0]],[[3526,7472],[-1,0],[1,0]],[[1173,4381],[329,0]],[[221,4381],[-15,20],[15,66],[-72,-5],[-32,-37],[-53,30],[-9,-20],[-54,21],[0,1592],[-1,678],[69,-14],[58,6],[92,-35],[73,-63],[138,-69],[83,-14]],[[2377,4381],[0,0]],[[3525,7409],[-44,27],[44,-20]],[[3526,7405],[9,-3],[-10,7]],[[3525,7469],[-1,-2],[1,2]],[[3527,7470],[0,1]],[[3525,7469],[2,1]],[[3528,8372],[-1,-41]],[[3527,8331],[-58,16],[-5,27],[63,19]],[[3527,8255],[65,29],[-65,47]],[[3526,7428],[-31,31],[30,1]],[[3525,7416],[10,3],[-9,9]],[[3525,7460],[4,0],[-4,9]],[[3526,7474],[-69,27],[-30,37],[37,6],[63,-21]],[[3527,7471],[10,2],[-11,1]],[[3527,7523],[54,-44],[47,7],[-9,-49],[50,18],[-9,-73],[52,-88],[-8,-48],[33,-33],[81,43],[-56,78],[-56,249],[43,4],[-14,40],[54,1],[38,-38],[39,28],[166,-124],[43,-162],[77,-134],[4,-58],[-38,-54],[64,-52],[6,-36],[66,-43],[25,25],[148,-106],[26,14],[19,-43],[57,12],[15,-92],[-44,-60],[-24,85],[-15,-46],[-103,16],[-1,-55],[-56,-18],[18,-22],[81,25],[16,-57],[58,-24],[-163,-90],[-128,15],[-44,24],[-13,-22],[-79,23],[41,25],[-110,29],[-56,2],[4,52],[-37,21],[-36,-32],[6,-27],[-68,-64],[-114,-22],[-57,-40],[-79,-22],[-51,1],[-88,-43],[-82,21],[-171,-23],[-54,87],[1,91],[-61,22],[-198,4],[-78,40],[-41,54]],[[3526,8067],[2,-70]],[[3528,7997],[-93,-25],[11,-13],[-127,-53],[-140,-24],[-89,13],[-84,58],[113,36],[67,34],[133,3],[87,62],[-38,2],[-36,-27],[-94,-4],[-34,32],[-20,-37],[-117,-14],[13,68],[-28,35],[-16,-62],[-32,-39],[-66,-24],[-17,52],[-56,-50],[-63,23],[-11,35],[-40,-22],[-110,32],[57,57],[127,1],[84,34],[-15,7],[-111