{"type":"Topology","objects":{"default":{"type":"GeometryCollection","geometries":[{"type":"Polygon","arcs":[[0,1,2]],"id":"relation/406116","properties":{"name":"Hurdal","region":"Akershus","hc-group":"admin2","hc-key":"no-ak-3242","hc-a2":"HU","hc-middle-lon":10.886,"hc-middle-lat":60.426}},{"type":"Polygon","arcs":[[3,4,5,6,-2]],"id":"relation/406117","properties":{"name":"Eidsvoll","region":"Akershus","hc-group":"admin2","hc-key":"no-ak-3240","hc-a2":"EI","hc-middle-lon":11.256,"hc-middle-lat":60.419}},{"type":"MultiPolygon","arcs":[[[7,8,9,-5,10]],[[11,12]]],"id":"relation/406118","properties":{"name":"Ullensaker","region":"Akershus","hc-group":"admin2","hc-key":"no-ak-3209","hc-a2":"UL","hc-middle-lon":11.19,"hc-middle-lat":60.149}},{"type":"Polygon","arcs":[[-10,13,14,15,-6]],"id":"relation/406119","properties":{"name":"Nes","region":"Akershus","hc-group":"admin2","hc-key":"no-ak-3228","hc-a2":"NE","hc-middle-lon":11.56,"hc-middle-lat":60.169}},{"type":"Polygon","arcs":[[16,17,-11,-4,-1,18,19,20]],"id":"relation/406121","properties":{"name":"Nannestad","region":"Akershus","hc-group":"admin2","hc-key":"no-ak-3238","hc-a2":"NA","hc-middle-lon":10.939,"hc-middle-lat":60.222}},{"type":"Polygon","arcs":[[21,22,23,24,-17,25,26]],"id":"relation/406122","properties":{"name":"Nittedal","region":"Akershus","hc-group":"admin2","hc-key":"no-ak-3232","hc-a2":"NI","hc-middle-lon":10.819,"hc-middle-lat":60.076}},{"type":"Polygon","arcs":[[27,28,-13,-8,-18,-25]],"id":"relation/406123","properties":{"name":"Gjerdrum","region":"Akershus","hc-group":"admin2","hc-key":"no-ak-3230","hc-a2":"GJ","hc-middle-lon":11.005,"hc-middle-lat":60.076}},{"type":"Polygon","arcs":[[29,30,31,32,33]],"id":"relation/406126","properties":{"name":"Lørenskog","region":"Akershus","hc-group":"admin2","hc-key":"no-ak-3222","hc-a2":"LØ","hc-middle-lon":10.952,"hc-middle-lat":59.898}},{"type":"Polygon","arcs":[[-31,34,35,36]],"id":"relation/406127","properties":{"name":"Rælingen","region":"Akershus","hc-group":"admin2","hc-key":"no-ak-3224","hc-a2":"RÆ","hc-middle-lon":11.071,"hc-middle-lat":59.885}},{"type":"Polygon","arcs":[[37,38,39,-35,-30,40]],"id":"relation/406129","properties":{"name":"Enebakk","region":"Akershus","hc-group":"admin2","hc-key":"no-ak-3220","hc-a2":"EN","hc-middle-lon":11.071,"hc-middle-lat":59.766}},{"type":"MultiPolygon","arcs":[[[41,42,43]],[[44]]],"id":"relation/406133","properties":{"name":"Vestby","region":"Akershus","hc-group":"admin2","hc-key":"no-ak-3216","hc-a2":"VE","hc-middle-lon":10.734,"hc-middle-lat":59.562}},{"type":"Polygon","arcs":[[-44,45,46,47,48]],"id":"relation/406134","properties":{"name":"Frogn","region":"Akershus","hc-group":"admin2","hc-key":"no-ak-3214","hc-a2":"FR","hc-middle-lon":10.643,"hc-middle-lat":59.698}},{"type":"Polygon","arcs":[[-48,49]],"id":"relation/406135","properties":{"name":"Nesodden","region":"Akershus","hc-group":"admin2","hc-key":"no-ak-3212","hc-a2":"NE","hc-middle-lon":10.636,"hc-middle-lat":59.786}},{"type":"Polygon","arcs":[[50,51]],"id":"relation/406136","properties":{"name":"Bærum","region":"Akershus","hc-group":"admin2","hc-key":"no-ak-3201","hc-a2":"BÆ","hc-middle-lon":10.489,"hc-middle-lat":59.951}},{"type":"Polygon","arcs":[[-43,52,53,54,55,56,-46]],"id":"relation/409940","properties":{"name":"Ås","region":"Akershus","hc-group":"admin2","hc-key":"no-ak-3218","hc-a2":"ÅS","hc-middle-lon":10.78,"hc-middle-lat":59.674}},{"type":"Polygon","arcs":[[57,58]],"id":"relation/412429","properties":{"name":"Jevnaker","region":"Akershus","hc-group":"admin2","hc-key":"no-ak-3236","hc-a2":"JE","hc-middle-lon":10.37,"hc-middle-lat":60.281}},{"type":"Polygon","arcs":[[59,-27,60,-20,61,-58]],"id":"relation/412430","properties":{"name":"Lunner","region":"Akershus","hc-group":"admin2","hc-key":"no-ak-3234","hc-a2":"LU","hc-middle-lon":10.661,"hc-middle-lat":60.228}},{"type":"Polygon","arcs":[[62,-33,63,-36,-40,64,65,-14,-9,-12,-29,66,-23]],"id":"relation/10155374","properties":{"name":"Lillestrøm","region":"Akershus","hc-group":"admin2","hc-key":"no-ak-3205","hc-a2":"LI","hc-middle-lon":11.177,"hc-middle-lat":59.912}},{"type":"Polygon","arcs":[[67,-15,-66]],"id":"relation/10155381","properties":{"name":"Aurskog-Høland","region":"Akershus","hc-group":"admin2","hc-key":"no-ak-3226","hc-a2":"AU","hc-middle-lon":11.614,"hc-middle-lat":59.806}},{"type":"MultiPolygon","arcs":[[[-56,68]],[[-54,69,-38,70]]],"id":"relation/10155388","properties":{"name":"Nordre Follo","region":"Akershus","hc-group":"admin2","hc-key":"no-ak-3207","hc-a2":"NO","hc-middle-lon":10.833,"hc-middle-lat":59.727}},{"type":"Polygon","arcs":[[-51,71]],"id":"relation/10483728","properties":{"name":"Asker","region":"Akershus","hc-group":"admin2","hc-key":"no-ak-3203","hc-a2":"AS","hc-middle-lon":10.45,"hc-middle-lat":59.704}}]}},"arcs":[[[204,381],[45,-5]],[[249,376],[8,11],[8,35],[-16,18],[0,24]],[[249,464],[-22,-6],[-15,-18],[-31,6],[-22,0],[-15,18],[0,-6],[-8,-6],[8,-18],[-15,-12],[30,0],[38,-11],[7,-24],[0,-6]],[[249,376],[16,-35]],[[265,341],[22,0],[23,-7]],[[310,334],[15,24],[23,12],[0,6],[7,11]],[[355,387],[-22,47],[-15,0],[-8,18],[-23,0],[0,29],[-15,18],[-15,-6],[0,-29],[-8,0]],[[249,282],[8,-24]],[[257,258],[8,-6],[7,6],[46,0]],[[318,258],[7,24],[0,41],[-15,11]],[[265,341],[-23,-30],[7,-23],[0,-6]],[[249,252],[8,0],[0,6]],[[257,258],[-8,0],[0,-6]],[[318,258],[0,-6],[7,0],[0,-11],[23,-6],[7,-12]],[[355,223],[23,18],[23,-6],[68,0]],[[469,235],[0,23],[-8,-6],[0,12],[-7,0],[-8,6],[0,6],[-15,0],[-38,29],[0,6],[8,6],[0,35],[-15,12],[-8,0],[-23,23]],[[159,311],[30,0],[15,-23]],[[204,288],[8,0],[22,-12],[15,6]],[[204,381],[-15,-11]],[[189,370],[-15,-12],[0,-17],[-15,-12]],[[159,329],[0,-18]],[[136,288],[15,-6],[8,-6],[0,-6],[15,-12],[0,-23],[30,-18]],[[204,217],[8,0],[0,6],[7,0]],[[219,223],[0,29]],[[219,252],[-15,12],[0,24]],[[159,311],[0,-12]],[[159,299],[-23,0],[0,-11]],[[219,252],[0,-5]],[[219,247],[15,0],[0,-6],[15,11]],[[204,158],[30,0]],[[234,158],[0,41],[-7,6]],[[227,205],[-8,0]],[[219,205],[0,6],[-7,0]],[[212,211],[0,-6],[-8,0],[-7,-35],[7,-12]],[[234,158],[23,-5],[15,11]],[[272,164],[-7,24],[-31,17]],[[234,205],[-7,0]],[[204,153],[15,-6]],[[219,147],[0,-47],[46,-6],[30,-6],[0,41]],[[295,129],[-8,24],[-15,11]],[[204,158],[0,-5]],[[125,62],[1,-3],[5,-9],[-3,-10],[0,-11],[1,-10],[4,-9],[3,-4],[15,-6],[8,6],[0,11],[7,0],[0,18],[15,6],[0,12]],[[181,53],[-22,12],[-23,5]],[[136,70],[-11,-8]],[[130,6],[1,0],[0,1],[-1,-1]],[[136,70],[0,6],[15,12],[-7,30]],[[144,118],[0,10],[-1,1]],[[143,129],[-22,-6],[0,-18],[-14,17]],[[107,122],[-3,-4],[-1,-10],[5,-11],[6,-7],[5,5],[1,-15],[2,-11],[3,-7]],[[143,129],[-7,0],[-7,35],[-1,0],[-9,-8],[-4,-9],[-7,-21],[-1,-4]],[[45,182],[16,-6],[0,6],[7,0],[0,-6]],[[68,176],[23,0],[2,0],[2,2],[6,1],[4,-1],[12,2],[2,3],[2,1],[8,-2],[-16,35],[-7,12],[-23,0],[0,12],[-22,0],[0,-6],[-8,-12],[-8,0],[-7,-12],[7,-23],[0,-6]],[[181,53],[0,-6],[8,0],[8,12]],[[197,59],[-8,0],[-8,23],[-7,0],[7,12],[-7,6],[0,23],[-24,0]],[[150,123],[-1,-9],[-4,9]],[[145,123],[-1,0]],[[144,123],[0,-5]],[[98,305],[-7,41],[-8,12],[-7,0],[0,12]],[[76,370],[-8,0],[-23,6],[8,23],[-23,-6],[-7,12],[-23,0],[0,-18],[30,-35],[0,-18],[23,-5],[30,-24],[15,0]],[[98,305],[8,-12],[7,0],[0,-5],[23,0]],[[159,299],[0,30]],[[189,370],[-45,6],[-38,0],[-30,-6]],[[204,217],[8,-6]],[[219,205],[15,0]],[[295,129],[38,-6]],[[333,123],[-23,24],[23,11],[0,53],[7,0],[8,6],[7,0],[0,6]],[[219,247],[0,-24]],[[333,123],[7,-29],[30,-12],[0,-35],[8,0],[8,23],[22,12],[30,0],[0,-17],[31,5],[30,30],[0,41],[-23,17],[-7,24],[-8,0],[8,12],[-8,29],[8,12]],[[145,123],[0,3],[-1,-3]],[[197,59],[0,6],[15,5],[7,6],[0,71]],[[204,153],[-30,-6],[-15,11],[-2,-11],[-6,-17],[-1,-7]],[[45,182],[-7,-6],[-8,-41],[0,-26],[8,-8],[5,0],[1,0],[1,0],[2,0],[2,-1],[2,-2],[6,-7],[2,-2],[1,-5],[1,-2],[0,-2],[1,-9],[3,-16],[1,-4],[-2,-19],[1,-9],[2,-4],[4,-3],[10,-2],[17,10],[15,29],[0,17],[-15,15],[-2,3],[-13,12],[-7,23],[0,35],[7,18],[-15,0]]],"bbox":[10.198,59.483,11.944,60.604],"transform":{"scale":[0.003498997995991985,0.0022464929859719483],"translate":[10.198,59.483]},"title":"Akershus","version":"2.3.0","copyright":"Copyright (c) 2024 Highsoft AS, Based on data from OpenStreetMap","copyrightShort":"OpenStreetMap","copyrightUrl":"https://openstreetmap.org/copyright"}