{"type":"Topology","objects":{"default":{"type":"GeometryCollection","geometries":[{"type":"MultiPolygon","arcs":[[[0]],[[179,800,801,802,803]]],"id":"NO.TF.5429","properties":{"hc-group":"admin2","hc-key":"no-tf-5429","hc-a2":"KV","name":"Kvænangen","hc-middle-lon":22.042,"hc-middle-lat":69.841}},{"type":"MultiPolygon","arcs":[[[1]],[[2,804]],[[4]],[[5]]],"id":"NO.TF.5427","properties":{"hc-group":"admin2","hc-key":"no-tf-5427","hc-a2":"SK","name":"Skjervøy","hc-middle-lon":20.737,"hc-middle-lat":70.025}},{"type":"MultiPolygon","arcs":[[[41]],[[42]],[[43,805]]],"id":"NO.VL.4625","properties":{"hc-group":"admin2","hc-key":"no-vl-4625","hc-a2":"AU","name":"Austevoll","hc-middle-lon":5.196,"hc-middle-lat":60.056}},{"type":"MultiPolygon","arcs":[[[6]],[[7,806]],[[223,807,808,809,221,810]],[[219,811]],[[9,812]],[[11]]],"id":"NO.TF.5401","properties":{"hc-group":"admin2","hc-key":"no-tf-5401","hc-a2":"TR","name":"Tromsø","hc-middle-lon":19.038,"hc-middle-lat":69.676}},{"type":"Polygon","arcs":[[70]],"id":"NO.TD.5052","properties":{"hc-group":"admin2","hc-key":"no-td-5052","hc-a2":"LE","name":"Leka","hc-middle-lon":11.648,"hc-middle-lat":65.077}},{"type":"MultiPolygon","arcs":[[[82]],[[83]],[[403,-677,404]],[[406,-678]],[[-679,409]],[[84]]],"id":"NO.MR.1576","properties":{"hc-group":"admin2","hc-key":"no-mr-1576","hc-a2":"AU","name":"Aure","hc-middle-lon":8.411,"hc-middle-lat":63.283}},{"type":"MultiPolygon","arcs":[[[106]],[[230,813,814,815,816,577,817]],[[575,818]]],"id":"NO.NO.1837","properties":{"hc-group":"admin2","hc-key":"no-no-1837","hc-a2":"ME","name":"Meløy","hc-middle-lon":13.836,"hc-middle-lat":66.78}},{"type":"MultiPolygon","arcs":[[[107]],[[108,819]],[[110,820]],[[112,821]],[[573,822,823,571,824]]],"id":"NO.NO.1834","properties":{"hc-group":"admin2","hc-key":"no-no-1834","hc-a2":"LU","name":"Lurøy","hc-middle-lon":12.927,"hc-middle-lat":66.443}},{"type":"Polygon","arcs":[[114]],"id":"NO.NO.1835","properties":{"hc-group":"admin2","hc-key":"no-no-1835","hc-a2":"TR","name":"Træna","hc-middle-lon":12.04,"hc-middle-lat":66.504}},{"type":"MultiPolygon","arcs":[[[115]],[[233,825,826]],[[578,-818]],[[231,827,-814]],[[116]]],"id":"NO.NO.1838","properties":{"hc-group":"admin2","hc-key":"no-no-1838","hc-a2":"GI","name":"Gildeskål","hc-middle-lon":14.02,"hc-middle-lat":66.968}},{"type":"MultiPolygon","arcs":[[[12]],[[13]],[[187,828]],[[829,830,185,831]],[[14]]],"id":"NO.TF.5434","properties":{"hc-group":"admin2","hc-key":"no-tf-5434","hc-a2":"MÅ","name":"Måsøy","hc-middle-lon":24.659,"hc-middle-lat":70.873}},{"type":"MultiPolygon","arcs":[[[15]],[[182,832]],[[833,16,834]],[[835,17]],[[180,836,-801]]],"id":"NO.TF.5432","properties":{"hc-group":"admin2","hc-key":"no-tf-5432","hc-a2":"LO","name":"Loppa","hc-middle-lon":21.937,"hc-middle-lat":70.216}},{"type":"MultiPolygon","arcs":[[[71]],[[372,837,838,424,839]]],"id":"NO.TD.5037","properties":{"hc-group":"admin2","hc-key":"no-td-5037","hc-a2":"LE","name":"Levanger","hc-middle-lon":11.278,"hc-middle-lat":63.692}},{"type":"MultiPolygon","arcs":[[[161]],[[585,840,841,587,588,589,-750,842,843]],[[454,844,845]]],"id":"NO.AG.4207","properties":{"hc-group":"admin2","hc-key":"no-ag-4207","hc-a2":"FL","name":"Flekkefjord","hc-middle-lon":6.636,"hc-middle-lat":58.377}},{"type":"MultiPolygon","arcs":[[[20]],[[21]],[[-830,846,189,847,848,849,850,851,852]]],"id":"NO.TF.5436","properties":{"hc-group":"admin2","hc-key":"no-tf-5436","hc-a2":"P/","name":"Porsanger / Porsangu / Porsanki","hc-middle-lon":25.061,"hc-middle-lat":70.255}},{"type":"Polygon","arcs":[[162]],"id":"NO.RO.1145","properties":{"hc-group":"admin2","hc-key":"no-ro-1145","hc-a2":"BO","name":"Bokn","hc-middle-lon":5.423,"hc-middle-lat":59.201}},{"type":"Polygon","arcs":[[45]],"id":"NO.VL.4633","properties":{"hc-group":"admin2","hc-key":"no-vl-4633","hc-a2":"FE","name":"Fedje","hc-middle-lon":4.719,"hc-middle-lat":60.771}},{"type":"MultiPolygon","arcs":[[[85]],[[389,853,854]]],"id":"NO.MR.1547","properties":{"hc-group":"admin2","hc-key":"no-mr-1547","hc-a2":"AU","name":"Aukra","hc-middle-lon":6.911,"hc-middle-lat":62.803}},{"type":"MultiPolygon","arcs":[[[117]],[[118]],[[569,855]]],"id":"NO.NO.1828","properties":{"hc-group":"admin2","hc-key":"no-no-1828","hc-a2":"NE","name":"Nesna","hc-middle-lon":13.019,"hc-middle-lat":66.24}},{"type":"MultiPolygon","arcs":[[[119]],[[562,856]],[[857,120]]],"id":"NO.NO.1820","properties":{"hc-group":"admin2","hc-key":"no-no-1820","hc-a2":"AL","name":"Alstahaug","hc-middle-lon":12.568,"hc-middle-lat":65.885}},{"type":"MultiPolygon","arcs":[[[22]],[[214,858,859]]],"id":"NO.TF.5420","properties":{"hc-group":"admin2","hc-key":"no-tf-5420","hc-a2":"DY","name":"Dyrøy","hc-middle-lon":17.705,"hc-middle-lat":69.018}},{"type":"MultiPolygon","arcs":[[[122]],[[123]],[[260,860,262,861,862]],[[258,863]]],"id":"NO.NO.1848","properties":{"hc-group":"admin2","hc-key":"no-no-1848","hc-a2":"ST","name":"Steigen","hc-middle-lon":15.316,"hc-middle-lat":67.837}},{"type":"MultiPolygon","arcs":[[[124]],[[125,864]],[[127,-128]],[[129,865,131,866]],[[269,867,868]]],"id":"NO.NO.1865","properties":{"hc-group":"admin2","hc-key":"no-no-1865","hc-a2":"VÅ","name":"Vågan","hc-middle-lon":14.645,"hc-middle-lat":68.277}},{"type":"MultiPolygon","arcs":[[[133]],[[134,869,870,139,871]]],"id":"NO.NO.1868","properties":{"hc-group":"admin2","hc-key":"no-no-1868","hc-a2":"ØK","name":"Øksnes","hc-middle-lon":15.026,"hc-middle-lat":68.869}},{"type":"MultiPolygon","arcs":[[[86]],[[87,872]],[[91,873]],[[874,93]]],"id":"NO.MR.1515","properties":{"hc-group":"admin2","hc-key":"no-mr-1515","hc-a2":"HE","name":"Herøy","hc-middle-lon":5.704,"hc-middle-lat":62.283}},{"type":"Polygon","arcs":[[143]],"id":"NO.NO.1815","properties":{"hc-group":"admin2","hc-key":"no-no-1815","hc-a2":"VE","name":"Vega","hc-middle-lon":11.863,"hc-middle-lat":65.642}},{"type":"MultiPolygon","arcs":[[[144]],[[560,875,876]]],"id":"NO.NO.1816","properties":{"hc-group":"admin2","hc-key":"no-no-1816","hc-a2":"VE","name":"Vevelstad","hc-middle-lon":12.667,"hc-middle-lat":65.653}},{"type":"MultiPolygon","arcs":[[[145]],[[557,-558,877]],[[550,878,552,879,880,555,881,559,-877,882,883,884]],[[885,146]]],"id":"NO.NO.1813","properties":{"hc-group":"admin2","hc-key":"no-no-1813","hc-a2":"BR","name":"Brønnøy","hc-middle-lon":12.603,"hc-middle-lat":65.418}},{"type":"Polygon","arcs":[[148]],"id":"NO.NO.1818","properties":{"hc-group":"admin2","hc-key":"no-no-1818","hc-a2":"HE","name":"Herøy","hc-middle-lon":12.222,"hc-middle-lat":65.998}},{"type":"Polygon","arcs":[[99]],"id":"NO.MR.1532","properties":{"hc-group":"admin2","hc-key":"no-mr-1532","hc-a2":"GI","name":"Giske","hc-middle-lon":6.076,"hc-middle-lat":62.556}},{"type":"MultiPolygon","arcs":[[[100]],[[528,886]],[[526,887]]],"id":"NO.MR.1531","properties":{"hc-group":"admin2","hc-key":"no-mr-1531","hc-a2":"SU","name":"Sula","hc-middle-lon":6.199,"hc-middle-lat":62.426}},{"type":"Polygon","arcs":[[163]],"id":"NO.RO.1151","properties":{"hc-group":"admin2","hc-key":"no-ro-1151","hc-a2":"UT","name":"Utsira","hc-middle-lon":4.884,"hc-middle-lat":59.305}},{"type":"MultiPolygon","arcs":[[[172]],[[173]],[[888,661,535]]],"id":"NO.VL.4635","properties":{"hc-group":"admin2","hc-key":"no-vl-4635","hc-a2":"GU","name":"Gulen","hc-middle-lon":5.198,"hc-middle-lat":60.952}},{"type":"MultiPolygon","arcs":[[[174]],[[175]],[[481,889]]],"id":"NO.VL.4636","properties":{"hc-group":"admin2","hc-key":"no-vl-4636","hc-a2":"SO","name":"Solund","hc-middle-lon":4.878,"hc-middle-lat":61.101}},{"type":"Polygon","arcs":[[178]],"id":"NO.VI.3011","properties":{"hc-group":"admin2","hc-key":"no-vi-3011","hc-a2":"HV","name":"Hvaler","hc-middle-lon":11.038,"hc-middle-lat":59.052}},{"type":"Polygon","arcs":[[149]],"id":"NO.NO.1856","properties":{"hc-group":"admin2","hc-key":"no-no-1856","hc-a2":"RØ","name":"Røst","hc-middle-lon":12.127,"hc-middle-lat":67.521}},{"type":"Polygon","arcs":[[150]],"id":"NO.NO.1857","properties":{"hc-group":"admin2","hc-key":"no-no-1857","hc-a2":"VÆ","name":"Værøy","hc-middle-lon":12.643,"hc-middle-lat":67.674}},{"type":"MultiPolygon","arcs":[[[23]],[[24]],[[25]],[[26]],[[8,-807]],[[10,-813]],[[27]],[[28]]],"id":"NO.TF.5423","properties":{"hc-group":"admin2","hc-key":"no-tf-5423","hc-a2":"KA","name":"Karlsøy","hc-middle-lon":19.455,"hc-middle-lat":70.069}},{"type":"MultiPolygon","arcs":[[[151]],[[252,890]],[[247,891,249,892,893]],[[245,894]],[[243,895]],[[241,896]],[[-826,234,897]],[[898,250]],[[236,899,900]]],"id":"NO.NO.1804","properties":{"hc-group":"admin2","hc-key":"no-no-1804","hc-a2":"BO","name":"Bodø","hc-middle-lon":14.776,"hc-middle-lat":67.252}},{"type":"MultiPolygon","arcs":[[[543,901,257,-864,259,-863,902]],[[261,-861]],[[255,903]],[[251,-891,253,904,-893,250]]],"id":"NO.NO.1845","properties":{"hc-group":"admin2","hc-key":"no-no-1845","hc-a2":"SØ","name":"Sørfold","hc-middle-lon":15.737,"hc-middle-lat":67.522}},{"type":"MultiPolygon","arcs":[[[46]],[[312,905,906]],[[316,907]],[[314,908]]],"id":"NO.VL.4627","properties":{"hc-group":"admin2","hc-key":"no-vl-4627","hc-a2":"AS","name":"Askøy","hc-middle-lon":5.131,"hc-middle-lat":60.472}},{"type":"MultiPolygon","arcs":[[[273,658,909,910,271,911]],[[135,912,137,913,-870]],[[142,-872,140,914]]],"id":"NO.NO.1870","properties":{"hc-group":"admin2","hc-key":"no-no-1870","hc-a2":"SO","name":"Sortland","hc-middle-lon":15.398,"hc-middle-lat":68.751}},{"type":"MultiPolygon","arcs":[[[29]],[[213,915]],[[30]]],"id":"NO.TF.5413","properties":{"hc-group":"admin2","hc-key":"no-tf-5413","hc-a2":"IB","name":"Ibestad","hc-middle-lon":17.143,"hc-middle-lat":68.823}},{"type":"Polygon","arcs":[[649,916,-838,373,917,918,919]],"id":"NO.TD.5038","properties":{"hc-group":"admin2","hc-key":"no-td-5038","hc-a2":"VE","name":"Verdal","hc-middle-lon":12.054,"hc-middle-lat":63.777}},{"type":"MultiPolygon","arcs":[[[130,-866]],[[141,-915]],[[-868,270,-911,920]],[[132,127,128,-867]],[[152]]],"id":"NO.NO.1866","properties":{"hc-group":"admin2","hc-key":"no-no-1866","hc-a2":"HA","name":"Hadsel","hc-middle-lon":14.994,"hc-middle-lat":68.499}},{"type":"Polygon","arcs":[[482,921,922,637,-890]],"id":"NO.VL.4637","properties":{"hc-group":"admin2","hc-key":"no-vl-4637","hc-a2":"HY","name":"Hyllestad","hc-middle-lon":5.238,"hc-middle-lat":61.174}},{"type":"Polygon","arcs":[[646,923,924,734,735]],"id":"NO.TD.5043","properties":{"hc-group":"admin2","hc-key":"no-td-5043","hc-a2":"RØ","name":"Røyrvik","hc-middle-lon":13.686,"hc-middle-lat":64.823}},{"type":"Polygon","arcs":[[423,-839,925,926,927],[928],[929]],"id":"NO.TD.5035","properties":{"hc-group":"admin2","hc-key":"no-td-5035","hc-a2":"ST","name":"Stjørdal","hc-middle-lon":11.263,"hc-middle-lat":63.455}},{"type":"MultiPolygon","arcs":[[[-929]],[[-930]],[[422,-928,930,931]]],"id":"NO.TD.5031","properties":{"hc-group":"admin2","hc-key":"no-td-5031","hc-a2":"MA","name":"Malvik","hc-middle-lon":10.779,"hc-middle-lat":63.375}},{"type":"Polygon","arcs":[[164]],"id":"NO.RO.1144","properties":{"hc-group":"admin2","hc-key":"no-ro-1144","hc-a2":"KV","name":"Kvitsøy","hc-middle-lon":5.412,"hc-middle-lat":59.054}},{"type":"MultiPolygon","arcs":[[[165]],[[166]],[[336,932,933,934,935,936]],[[338,937]],[[-168,167,938]],[[169,939]],[[346,940,345]]],"id":"NO.RO.1103","properties":{"hc-group":"admin2","hc-key":"no-ro-1103","hc-a2":"ST","name":"Stavanger","hc-middle-lon":5.825,"hc-middle-lat":59.082}},{"type":"MultiPolygon","arcs":[[[47]],[[309,941]],[[311,-907,942]],[[48]]],"id":"NO.VL.4626","properties":{"hc-group":"admin2","hc-key":"no-vl-4626","hc-a2":"ØY","name":"Øygarden","hc-middle-lon":5.001,"hc-middle-lat":60.436}},{"type":"MultiPolygon","arcs":[[[176]],[[943,-699,944,505]],[[945,946,498,947]]],"id":"NO.VL.4602","properties":{"hc-group":"admin2","hc-key":"no-vl-4602","hc-a2":"KI","name":"Kinn","hc-middle-lon":5.292,"hc-middle-lat":61.774}},{"type":"MultiPolygon","arcs":[[[72]],[[415,948]],[[73]]],"id":"NO.TD.5056","properties":{"hc-group":"admin2","hc-key":"no-td-5056","hc-a2":"HI","name":"Hitra","hc-middle-lon":8.766,"hc-middle-lat":63.549}},{"type":"MultiPolygon","arcs":[[[101]],[[396,949,-705,950,534,-855,951,952]],[[532,953]]],"id":"NO.MR.1506","properties":{"hc-group":"admin2","hc-key":"no-mr-1506","hc-a2":"MO","name":"Molde","hc-middle-lon":7.683,"hc-middle-lat":62.582}},{"type":"MultiPolygon","arcs":[[[74]],[[-672,579,730,954,955,387]],[[75]],[[76]]],"id":"NO.TD.5060","properties":{"hc-group":"admin2","hc-key":"no-td-5060","hc-a2":"NÆ","name":"Nærøysund","hc-middle-lon":11.66,"hc-middle-lat":64.893}},{"type":"MultiPolygon","arcs":[[[77]],[[78]],[[956,957,958,959,960,384]],[[961,962,386,-956]],[[79]]],"id":"NO.TD.5007","properties":{"hc-group":"admin2","hc-key":"no-td-5007","hc-a2":"NA","name":"Namsos","hc-middle-lon":11.472,"hc-middle-lat":64.467}},{"type":"MultiPolygon","arcs":[[[80]],[[-959,963,964,965,381,966]]],"id":"NO.TD.5058","properties":{"hc-group":"admin2","hc-key":"no-td-5058","hc-a2":"ÅF","name":"Åfjord","hc-middle-lon":10.369,"hc-middle-lat":64.02}},{"type":"MultiPolygon","arcs":[[[967]],[[968,969,463]]],"id":"NO.VT.3804","properties":{"hc-group":"admin2","hc-key":"no-vt-3804","hc-a2":"SA","name":"Sandefjord","hc-middle-lon":10.182,"hc-middle-lat":59.217}},{"type":"MultiPolygon","arcs":[[[970]],[[458,971,460,972,462,-970,973,974,456,975]]],"id":"NO.VT.3803","properties":{"hc-group":"admin2","hc-key":"no-vt-3803","hc-a2":"TØ","name":"Tønsberg","hc-middle-lon":10.276,"hc-middle-lat":59.362}},{"type":"MultiPolygon","arcs":[[[576,-817,976,-823,574,-819]],[[572,-825]],[[113,-822]],[[111,-820,109,-821]]],"id":"NO.NO.1836","properties":{"hc-group":"admin2","hc-key":"no-no-1836","hc-a2":"RØ","name":"Rødøy","hc-middle-lon":13.236,"hc-middle-lat":66.56}},{"type":"Polygon","arcs":[[457,-976],[970]],"id":"NO.VT.3801","properties":{"hc-group":"admin2","hc-key":"no-vt-3801","hc-a2":"HO","name":"Horten","hc-middle-lon":10.411,"hc-middle-lat":59.399}},{"type":"MultiPolygon","arcs":[[[586,-842,977]],[[978,979,980,981,982,-845,455,-844,983]]],"id":"NO.AG.4227","properties":{"hc-group":"admin2","hc-key":"no-ag-4227","hc-a2":"KV","name":"Kvinesdal","hc-middle-lon":6.937,"hc-middle-lat":58.519}},{"type":"MultiPolygon","arcs":[[[49,984,985]],[[54,986,987]],[[275,-276,988]],[[330,989]]],"id":"NO.VL.4614","properties":{"hc-group":"admin2","hc-key":"no-vl-4614","hc-a2":"ST","name":"Stord","hc-middle-lon":5.486,"hc-middle-lat":59.828}},{"type":"MultiPolygon","arcs":[[[990,184,-831,-853]],[[31,991]],[[33]],[[34,992]]],"id":"NO.TF.5406","properties":{"hc-group":"admin2","hc-key":"no-tf-5406","hc-a2":"HA","name":"Hammerfest","hc-middle-lon":23.78,"hc-middle-lat":70.473}},{"type":"MultiPolygon","arcs":[[[496,993]],[[494,994]],[[492,995]],[[488,996,490,997,998]],[[484,999]]],"id":"NO.VL.4645","properties":{"hc-group":"admin2","hc-key":"no-vl-4645","hc-a2":"AS","name":"Askvoll","hc-middle-lon":5.252,"hc-middle-lat":61.408}},{"type":"MultiPolygon","arcs":[[[88,1000,90,-873]],[[508,1001]]],"id":"NO.MR.1514","properties":{"hc-group":"admin2","hc-key":"no-mr-1514","hc-a2":"SA","name":"Sande","hc-middle-lon":5.583,"hc-middle-lat":62.23}},{"type":"MultiPolygon","arcs":[[[554,-881,1002]],[[556,557,558,-882]],[[-886,147]]],"id":"NO.NO.1812","properties":{"hc-group":"admin2","hc-key":"no-no-1812","hc-a2":"SØ","name":"Sømna","hc-middle-lon":12.267,"hc-middle-lat":65.328}},{"type":"MultiPolygon","arcs":[[[1003,1004,1005,1006,1007]],[[1008,1009]]],"id":"NO.VT.3816","properties":{"hc-group":"admin2","hc-key":"no-vt-3816","hc-a2":"NO","name":"Nome","hc-middle-lon":9.131,"hc-middle-lat":59.263}},{"type":"Polygon","arcs":[[-1004,1010,-757,1011,1012,468,1013,1014,-1005,-1010,1009]],"id":"NO.VT.3807","properties":{"hc-group":"admin2","hc-key":"no-vt-3807","hc-a2":"SK","name":"Skien","hc-middle-lon":9.487,"hc-middle-lat":59.27}},{"type":"MultiPolygon","arcs":[[[1015,1016]],[[539,1017,1018,1019,1020,1021]]],"id":"NO.VI.3021","properties":{"hc-group":"admin2","hc-key":"no-vi-3021","hc-a2":"ÅS","name":"Ås","hc-middle-lon":10.772,"hc-middle-lat":59.678}},{"type":"Polygon","arcs":[[-1021,1022,621,1023,623,-1022]],"id":"NO.VI.3022","properties":{"hc-group":"admin2","hc-key":"no-vi-3022","hc-a2":"FR","name":"Frogn","hc-middle-lon":10.653,"hc-middle-lat":59.692}},{"type":"MultiPolygon","arcs":[[[3,-805]],[[229,-804,1024,204,1025]]],"id":"NO.TF.5428","properties":{"hc-group":"admin2","hc-key":"no-tf-5428","hc-a2":"NO","name":"Nordreisa","hc-middle-lon":21.54,"hc-middle-lat":69.529}},{"type":"MultiPolygon","arcs":[[[225,1026]],[[205,1027,228,-1026]]],"id":"NO.TF.5426","properties":{"hc-group":"admin2","hc-key":"no-tf-5426","hc-a2":"G/","name":"Gáivuotna / Kåfjord","hc-middle-lon":20.832,"hc-middle-lat":69.495}},{"type":"MultiPolygon","arcs":[[[1028,1029,-1014,469,1030,1031]],[[466,1032]]],"id":"NO.VT.3813","properties":{"hc-group":"admin2","hc-key":"no-vt-3813","hc-a2":"BA","name":"Bamble","hc-middle-lon":9.512,"hc-middle-lat":59.024}},{"type":"MultiPolygon","arcs":[[[470,-1032,1033]],[[-1029,471,681,682,1034]]],"id":"NO.VT.3814","properties":{"hc-group":"admin2","hc-key":"no-vt-3814","hc-a2":"KR","name":"Kragerø","hc-middle-lon":9.355,"hc-middle-lat":58.888}},{"type":"Polygon","arcs":[[-1030,-1035,683,1035,1036,-1006,-1015]],"id":"NO.VT.3815","properties":{"hc-group":"admin2","hc-key":"no-vt-3815","hc-a2":"DR","name":"Drangedal","hc-middle-lon":9.005,"hc-middle-lat":59.096}},{"type":"MultiPolygon","arcs":[[[370,1037]],[[368,1038,1039]],[[171]]],"id":"NO.RO.1149","properties":{"hc-group":"admin2","hc-key":"no-ro-1149","hc-a2":"KA","name":"Karmøy","hc-middle-lon":5.27,"hc-middle-lat":59.282}},{"type":"MultiPolygon","arcs":[[[400,1040]],[[402,-676,-675,-674,1041]]],"id":"NO.MR.1566","properties":{"hc-group":"admin2","hc-key":"no-mr-1566","hc-a2":"SU","name":"Surnadal","hc-middle-lon":8.812,"hc-middle-lat":62.917}},{"type":"MultiPolygon","arcs":[[[59,1042]],[[322,1043,-664,1044,1045,1046,1047,318,1048,320,1049]]],"id":"NO.VL.4628","properties":{"hc-group":"admin2","hc-key":"no-vl-4628","hc-a2":"VA","name":"Vaksdal","hc-middle-lon":5.96,"hc-middle-lat":60.676}},{"type":"Polygon","arcs":[[-684,-683,1050,1051,-685]],"id":"NO.AG.4211","properties":{"hc-group":"admin2","hc-key":"no-ag-4211","hc-a2":"GJ","name":"Gjerstad","hc-middle-lon":8.976,"hc-middle-lat":58.889}},{"type":"Polygon","arcs":[[595,1052,1053,1054,1055]],"id":"NO.RO.1120","properties":{"hc-group":"admin2","hc-key":"no-ro-1120","hc-a2":"KL","name":"Klepp","hc-middle-lon":5.61,"hc-middle-lat":58.769}},{"type":"Polygon","arcs":[[-1053,596,1056,-934,1057]],"id":"NO.RO.1124","properties":{"hc-group":"admin2","hc-key":"no-ro-1124","hc-a2":"SO","name":"Sola","hc-middle-lon":5.618,"hc-middle-lat":58.897}},{"type":"Polygon","arcs":[[-1057,597,-937,1058,-935]],"id":"NO.RO.1127","properties":{"hc-group":"admin2","hc-key":"no-ro-1127","hc-a2":"RA","name":"Randaberg","hc-middle-lon":5.589,"hc-middle-lat":59.004}},{"type":"Polygon","arcs":[[289,1059,1060,291,1061,-795,-794,1062]],"id":"NO.VL.4619","properties":{"hc-group":"admin2","hc-key":"no-vl-4619","hc-a2":"EI","name":"Eidfjord","hc-middle-lon":7.323,"hc-middle-lat":60.342}},{"type":"MultiPolygon","arcs":[[[-1060,290,1063]],[[287,1064]],[[791,-796,-1062,292,1065,1066]]],"id":"NO.VL.4620","properties":{"hc-group":"admin2","hc-key":"no-vl-4620","hc-a2":"UL","name":"Ulvik","hc-middle-lon":7.213,"hc-middle-lat":60.623}},{"type":"MultiPolygon","arcs":[[[-1046,1067,295,1068,1069]],[[285,1070]],[[1071,1071,1071]],[[282,1072]],[[297,1073,1074]]],"id":"NO.VL.4622","properties":{"hc-group":"admin2","hc-key":"no-vl-4622","hc-a2":"KV","name":"Kvam","hc-middle-lon":6.179,"hc-middle-lat":60.33}},{"type":"MultiPolygon","arcs":[[[-1074,298,1075,1076,301,1077,303,1078,-1069,296,1079]],[[44,805]],[[305,1080,307,1081,1082]]],"id":"NO.VL.4624","properties":{"hc-group":"admin2","hc-key":"no-vl-4624","hc-a2":"BJ","name":"Bjørnafjorden","hc-middle-lon":5.634,"hc-middle-lat":60.181}},{"type":"Polygon","arcs":[[612,1083,1084,1085,1086,1087,1088]],"id":"NO.VI.3003","properties":{"hc-group":"admin2","hc-key":"no-vi-3003","hc-a2":"SA","name":"Sarpsborg","hc-middle-lon":11.149,"hc-middle-lat":59.263}},{"type":"Polygon","arcs":[[1089,1090,1091,-686,-1052]],"id":"NO.AG.4212","properties":{"hc-group":"admin2","hc-key":"no-ag-4212","hc-a2":"VE","name":"Vegårshei","hc-middle-lon":8.818,"hc-middle-lat":58.757}},{"type":"MultiPolygon","arcs":[[[-1090,-1051,-682,430,1092]],[[432,1093]]],"id":"NO.AG.4201","properties":{"hc-group":"admin2","hc-key":"no-ag-4201","hc-a2":"RI","name":"Risør","hc-middle-lon":9.164,"hc-middle-lat":58.741}},{"type":"MultiPolygon","arcs":[[[436,1094,1095,1096]],[[434,-435,1097]]],"id":"NO.AG.4203","properties":{"hc-group":"admin2","hc-key":"no-ag-4203","hc-a2":"AR","name":"Arendal","hc-middle-lon":8.745,"hc-middle-lat":58.499}},{"type":"Polygon","arcs":[[437,438,1098,1099,1100,-1095]],"id":"NO.AG.4202","properties":{"hc-group":"admin2","hc-key":"no-ag-4202","hc-a2":"GR","name":"Grimstad","hc-middle-lon":8.519,"hc-middle-lat":58.374}},{"type":"MultiPolygon","arcs":[[[544,1101,240,-897,242,-896,244,-895,246,-894,-905,254,-904,256,-902]],[[238,1102]],[[248,-892]]],"id":"NO.NO.1841","properties":{"hc-group":"admin2","hc-key":"no-no-1841","hc-a2":"FA","name":"Fauske","hc-middle-lon":15.688,"hc-middle-lat":67.235}},{"type":"Polygon","arcs":[[239,-1102,545,1103,1104,-900,237,-1103]],"id":"NO.NO.1840","properties":{"hc-group":"admin2","hc-key":"no-no-1840","hc-a2":"SA","name":"Saltdal","hc-middle-lon":15.635,"hc-middle-lat":66.879}},{"type":"Polygon","arcs":[[1105,-800,-799,-798,1106,1107]],"id":"NO.IN.3430","properties":{"hc-group":"admin2","hc-key":"no-in-3430","hc-a2":"OS","name":"Os","hc-middle-lon":11.29,"hc-middle-lat":62.418}},{"type":"Polygon","arcs":[[-1106,1108,1109,1110,1111,-718,-717,-716]],"id":"NO.IN.3427","properties":{"hc-group":"admin2","hc-key":"no-in-3427","hc-a2":"TY","name":"Tynset","hc-middle-lon":10.618,"hc-middle-lat":62.363}},{"type":"Polygon","arcs":[[1112,1113,-1109,-1108]],"id":"NO.IN.3426","properties":{"hc-group":"admin2","hc-key":"no-in-3426","hc-a2":"TO","name":"Tolga","hc-middle-lon":11.084,"hc-middle-lat":62.371}},{"type":"Polygon","arcs":[[-1113,-1107,-797,639,1114,1115]],"id":"NO.IN.3425","properties":{"hc-group":"admin2","hc-key":"no-in-3425","hc-a2":"EN","name":"Engerdal","hc-middle-lon":11.928,"hc-middle-lat":61.977}},{"type":"Polygon","arcs":[[-1115,640,1116,1117,1118,1119]],"id":"NO.IN.3421","properties":{"hc-group":"admin2","hc-key":"no-in-3421","hc-a2":"TR","name":"Trysil","hc-middle-lon":12.296,"hc-middle-lat":61.361}},{"type":"Polygon","arcs":[[-1120,1120,1121,1122,-1110,-1114,-1116]],"id":"NO.IN.3424","properties":{"hc-group":"admin2","hc-key":"no-in-3424","hc-a2":"RE","name":"Rendalen","hc-middle-lon":11.146,"hc-middle-lat":61.804}},{"type":"Polygon","arcs":[[533,-951,-704,-703,1123,1124,531,-954]],"id":"NO.MR.1539","properties":{"hc-group":"admin2","hc-key":"no-mr-1539","hc-a2":"RA","name":"Rauma","hc-middle-lon":7.713,"hc-middle-lat":62.44}},{"type":"Polygon","arcs":[[-1101,1125,1126,1127,1128,1129,-1096]],"id":"NO.AG.4214","properties":{"hc-group":"admin2","hc-key":"no-ag-4214","hc-a2":"FR","name":"Froland","hc-middle-lon":8.368,"hc-middle-lat":58.586}},{"type":"Polygon","arcs":[[779,1130,1131,1132,1133]],"id":"NO.IN.3443","properties":{"hc-group":"admin2","hc-key":"no-in-3443","hc-a2":"VT","name":"Vestre Toten","hc-middle-lon":10.631,"hc-middle-lat":60.625}},{"type":"Polygon","arcs":[[-780,-779,1134,1135,-781]],"id":"NO.VI.3037","properties":{"hc-group":"admin2","hc-key":"no-vi-3037","hc-a2":"HU","name":"Hurdal","hc-middle-lon":10.905,"hc-middle-lat":60.427}},{"type":"Polygon","arcs":[[1136,1137,1138,-782,-1136,1139,1140]],"id":"NO.VI.3036","properties":{"hc-group":"admin2","hc-key":"no-vi-3036","hc-a2":"NA","name":"Nannestad","hc-middle-lon":10.951,"hc-middle-lat":60.226}},{"type":"Polygon","arcs":[[-1137,1141,1142,1143]],"id":"NO.VI.3032","properties":{"hc-group":"admin2","hc-key":"no-vi-3032","hc-a2":"GJ","name":"Gjerdrum","hc-middle-lon":11.018,"hc-middle-lat":60.079}},{"type":"Polygon","arcs":[[-1142,-1141,1144,1145,1146]],"id":"NO.VI.3033","properties":{"hc-group":"admin2","hc-key":"no-vi-3033","hc-a2":"UL","name":"Ullensaker","hc-middle-lon":11.188,"hc-middle-lat":60.155}},{"type":"Polygon","arcs":[[645,771,772,1147,1148]],"id":"NO.IN.3416","properties":{"hc-group":"admin2","hc-key":"no-in-3416","hc-a2":"EI","name":"Eidskog","hc-middle-lon":12.075,"hc-middle-lat":59.991}},{"type":"Polygon","arcs":[[-773,1149,1150,-1146,1151,-775,-774]],"id":"NO.VI.3034","properties":{"hc-group":"admin2","hc-key":"no-vi-3034","hc-a2":"NE","name":"Nes","hc-middle-lon":11.543,"hc-middle-lat":60.173}},{"type":"Polygon","arcs":[[778,-1134,1152,1153,1154,777]],"id":"NO.IN.3442","properties":{"hc-group":"admin2","hc-key":"no-in-3442","hc-a2":"ØT","name":"Østre Toten","hc-middle-lon":10.909,"hc-middle-lat":60.627}},{"type":"Polygon","arcs":[[-778,-777,-776,-1152,-1145,-1140,-1135]],"id":"NO.VI.3035","properties":{"hc-group":"admin2","hc-key":"no-vi-3035","hc-a2":"EI","name":"Eidsvoll","hc-middle-lon":11.248,"hc-middle-lat":60.422}},{"type":"Polygon","arcs":[[-1117,641,1155,1156,1157,1158]],"id":"NO.IN.3419","properties":{"hc-group":"admin2","hc-key":"no-in-3419","hc-a2":"VÅ","name":"Våler","hc-middle-lon":11.972,"hc-middle-lat":60.814}},{"type":"Polygon","arcs":[[-1144,1159,726,1160,-1138]],"id":"NO.VI.3031","properties":{"hc-group":"admin2","hc-key":"no-vi-3031","hc-a2":"NI","name":"Nittedal","hc-middle-lon":10.836,"hc-middle-lat":60.08}},{"type":"Polygon","arcs":[[-1160,-1143,-1147,-1151,1161,1162,1163,1164,1165,725]],"id":"NO.VI.3030","properties":{"hc-group":"admin2","hc-key":"no-vi-3030","hc-a2":"LI","name":"Lillestrøm","hc-middle-lon":11.196,"hc-middle-lat":59.904}},{"type":"MultiPolygon","arcs":[[[376,1166,378,1167,1168]],[[-918,374,1169]]],"id":"NO.TD.5053","properties":{"hc-group":"admin2","hc-key":"no-td-5053","hc-a2":"IN","name":"Inderøy","hc-middle-lon":11.079,"hc-middle-lat":63.849}},{"type":"Polygon","arcs":[[703,704,705,-721,1170,1171,1172,1173]],"id":"NO.IN.3432","properties":{"hc-group":"admin2","hc-key":"no-in-3432","hc-a2":"LE","name":"Lesja","hc-middle-lon":8.658,"hc-middle-lat":62.186}},{"type":"Polygon","arcs":[[-1171,-720,1174,1175,1176]],"id":"NO.IN.3431","properties":{"hc-group":"admin2","hc-key":"no-in-3431","hc-a2":"DO","name":"Dovre","hc-middle-lon":9.454,"hc-middle-lat":62.121}},{"type":"MultiPolygon","arcs":[[[451,1177]],[[449,1178,1179]],[[447,1180]],[[-846,-983,1181,453]]],"id":"NO.AG.4206","properties":{"hc-group":"admin2","hc-key":"no-ag-4206","hc-a2":"FA","name":"Farsund","hc-middle-lon":6.757,"hc-middle-lat":58.128}},{"type":"Polygon","arcs":[[-1173,1182,1183,712,1184]],"id":"NO.IN.3434","properties":{"hc-group":"admin2","hc-key":"no-in-3434","hc-a2":"LO","name":"Lom","hc-middle-lon":8.433,"hc-middle-lat":61.706}},{"type":"Polygon","arcs":[[794,795,789,-709,1185,1186]],"id":"NO.VI.3044","properties":{"hc-group":"admin2","hc-key":"no-vi-3044","hc-a2":"HO","name":"Hol","hc-middle-lon":8.039,"hc-middle-lat":60.608}},{"type":"Polygon","arcs":[[-1086,1187,1188,1189,1190,1191]],"id":"NO.VI.3018","properties":{"hc-group":"admin2","hc-key":"no-vi-3018","hc-a2":"VÅ","name":"Våler","hc-middle-lon":10.951,"hc-middle-lat":59.464}},{"type":"MultiPolygon","arcs":[[[1192,616,1193]],[[-1085,1194,614,1195,-1188]]],"id":"NO.VI.3017","properties":{"hc-group":"admin2","hc-key":"no-vi-3017","hc-a2":"RÅ","name":"Råde","hc-middle-lon":10.845,"hc-middle-lat":59.344}},{"type":"MultiPolygon","arcs":[[[51,1196,1197,53,-986,1198]],[[55,1199,-987]],[[57,1200]]],"id":"NO.VL.4615","properties":{"hc-group":"admin2","hc-key":"no-vl-4615","hc-a2":"FI","name":"Fitjar","hc-middle-lon":5.38,"hc-middle-lat":59.898}},{"type":"MultiPolygon","arcs":[[[52,-1198,1201]],[[-985,50,-1199]],[[334,1202]],[[332,1203,-668]],[[69]]],"id":"NO.VL.4613","properties":{"hc-group":"admin2","hc-key":"no-vl-4613","hc-a2":"BØ","name":"Bømlo","hc-middle-lon":5.28,"hc-middle-lat":59.69}},{"type":"MultiPolygon","arcs":[[[547,1204,1205,567,1206]],[[565,1207,1208]]],"id":"NO.NO.1832","properties":{"hc-group":"admin2","hc-key":"no-no-1832","hc-a2":"HE","name":"Hemnes","hc-middle-lon":13.971,"hc-middle-lat":66.003}},{"type":"Polygon","arcs":[[-816,1209,-1104,546,-1207,568,-856,570,-824,-977]],"id":"NO.NO.1833","properties":{"hc-group":"admin2","hc-key":"no-no-1833","hc-a2":"RA","name":"Rana","hc-middle-lon":14.357,"hc-middle-lat":66.437}},{"type":"Polygon","arcs":[[-898,235,-901,-1105,-1210,-815,-828,232,-827]],"id":"NO.NO.1839","properties":{"hc-group":"admin2","hc-key":"no-no-1839","hc-a2":"BE","name":"Beiarn","hc-middle-lon":14.671,"hc-middle-lat":66.897}},{"type":"MultiPolygon","arcs":[[[186,-829,188,-847,-832]],[[-848,190,1210]],[[36]]],"id":"NO.TF.5435","properties":{"hc-group":"admin2","hc-key":"no-tf-5435","hc-a2":"NO","name":"Nordkapp","hc-middle-lon":25.929,"hc-middle-lat":70.908}},{"type":"MultiPolygon","arcs":[[[18,1211,-835,17]],[[35,-993]]],"id":"NO.TF.5433","properties":{"hc-group":"admin2","hc-key":"no-tf-5433","hc-a2":"HA","name":"Hasvik","hc-middle-lon":22.39,"hc-middle-lat":70.532}},{"type":"MultiPolygon","arcs":[[[181,-833,183,-991,-852,1212,1213,-802,-837]],[[-834,-1212,19]],[[32,-992]]],"id":"NO.TF.5403","properties":{"hc-group":"admin2","hc-key":"no-tf-5403","hc-a2":"AL","name":"Alta","hc-middle-lon":23.279,"hc-middle-lat":70.03}},{"type":"Polygon","arcs":[[1214,-763,-762,-761,1215,1216,1217]],"id":"NO.VT.3818","properties":{"hc-group":"admin2","hc-key":"no-vt-3818","hc-a2":"TI","name":"Tinn","hc-middle-lon":8.534,"hc-middle-lat":59.973}},{"type":"Polygon","arcs":[[1218,1219,1220,1221,1222,1223,1224,-1218]],"id":"NO.VT.3820","properties":{"hc-group":"admin2","hc-key":"no-vt-3820","hc-a2":"SE","name":"Seljord","hc-middle-lon":8.56,"hc-middle-lat":59.57}},{"type":"Polygon","arcs":[[-1216,-760,-759,1225,-1220,1226]],"id":"NO.VT.3808","properties":{"hc-group":"admin2","hc-key":"no-vt-3808","hc-a2":"NO","name":"Notodden","hc-middle-lon":9.099,"hc-middle-lat":59.694}},{"type":"Polygon","arcs":[[1227,1228,-766,1229,1230]],"id":"NO.VI.3040","properties":{"hc-group":"admin2","hc-key":"no-vi-3040","hc-a2":"NE","name":"Nes","hc-middle-lon":9.047,"hc-middle-lat":60.539}},{"type":"Polygon","arcs":[[-1228,1231,-1186,-708,1232,1233]],"id":"NO.VI.3043","properties":{"hc-group":"admin2","hc-key":"no-vi-3043","hc-a2":"ÅL","name":"Ål","hc-middle-lon":8.32,"hc-middle-lat":60.707}},{"type":"Polygon","arcs":[[650,1234,1235,-926,-917]],"id":"NO.TD.5034","properties":{"hc-group":"admin2","hc-key":"no-td-5034","hc-a2":"ME","name":"Meråker","hc-middle-lon":11.833,"hc-middle-lat":63.406}},{"type":"Polygon","arcs":[[425,-840]],"id":"NO.TD.5036","properties":{"hc-group":"admin2","hc-key":"no-td-5036","hc-a2":"FR","name":"Frosta","hc-middle-lon":10.806,"hc-middle-lat":63.613}},{"type":"MultiPolygon","arcs":[[[420,1236]],[[418,1237,1238,1239,1240,1241]]],"id":"NO.TD.5028","properties":{"hc-group":"admin2","hc-key":"no-td-5028","hc-a2":"ME","name":"Melhus","hc-middle-lon":10.291,"hc-middle-lat":63.185}},{"type":"Polygon","arcs":[[417,-1242,1242]],"id":"NO.TD.5029","properties":{"hc-group":"admin2","hc-key":"no-td-5029","hc-a2":"SK","name":"Skaun","hc-middle-lon":10.064,"hc-middle-lat":63.269}},{"type":"MultiPolygon","arcs":[[[170,167,168,-940]],[[356,1243]],[[354,1244,742,1245,1246,352,1247,1248]],[[350,1249]],[[348,1250]]],"id":"NO.RO.1133","properties":{"hc-group":"admin2","hc-key":"no-ro-1133","hc-a2":"HJ","name":"Hjelmeland","hc-middle-lon":6.447,"hc-middle-lat":59.213}},{"type":"MultiPolygon","arcs":[[[-1248,353,1251]],[[359,1252,-740,1253]],[[355,-1244,357,1254,-737,-751,741,-1245]],[[363,1255,361,1256]]],"id":"NO.RO.1134","properties":{"hc-group":"admin2","hc-key":"no-ro-1134","hc-a2":"SU","name":"Suldal","hc-middle-lon":6.551,"hc-middle-lat":59.534}},{"type":"MultiPolygon","arcs":[[[347,-1251,349,-1250,351,-1247,1257,342,1258,344,-941]],[[-346,345,1259]]],"id":"NO.RO.1130","properties":{"hc-group":"admin2","hc-key":"no-ro-1130","hc-a2":"ST","name":"Strand","hc-middle-lon":6.052,"hc-middle-lat":59.047}},{"type":"Polygon","arcs":[[358,-1254,-739,-738,-1255]],"id":"NO.RO.1135","properties":{"hc-group":"admin2","hc-key":"no-ro-1135","hc-a2":"SA","name":"Sauda","hc-middle-lon":6.431,"hc-middle-lat":59.7}},{"type":"Polygon","arcs":[[-1236,1260,1261,1262,-1239,1263,-931,-927]],"id":"NO.TD.5032","properties":{"hc-group":"admin2","hc-key":"no-td-5032","hc-a2":"SE","name":"Selbu","hc-middle-lon":11.138,"hc-middle-lat":63.174}},{"type":"Polygon","arcs":[[-1261,-1235,651,1264,1265]],"id":"NO.TD.5033","properties":{"hc-group":"admin2","hc-key":"no-td-5033","hc-a2":"TY","name":"Tydal","hc-middle-lon":11.75,"hc-middle-lat":62.965}},{"type":"Polygon","arcs":[[1266,799,715,1267,1268,-1240,-1263]],"id":"NO.TD.5027","properties":{"hc-group":"admin2","hc-key":"no-td-5027","hc-a2":"MG","name":"Midtre Gauldal","hc-middle-lon":10.513,"hc-middle-lat":62.888}},{"type":"Polygon","arcs":[[1269,1270,1271,1272,1273,1274,1275]],"id":"NO.IN.3438","properties":{"hc-group":"admin2","hc-key":"no-in-3438","hc-a2":"SF","name":"Sør-Fron","hc-middle-lon":9.677,"hc-middle-lat":61.603}},{"type":"Polygon","arcs":[[-1270,1276,1277,-1176,1278]],"id":"NO.IN.3437","properties":{"hc-group":"admin2","hc-key":"no-in-3437","hc-a2":"SE","name":"Sel","hc-middle-lon":9.558,"hc-middle-lat":61.766}},{"type":"Polygon","arcs":[[-1230,-765,607,1279,1280,1281,1282]],"id":"NO.VI.3039","properties":{"hc-group":"admin2","hc-key":"no-vi-3039","hc-a2":"FL","name":"Flå","hc-middle-lon":9.461,"hc-middle-lat":60.435}},{"type":"Polygon","arcs":[[764,765,766,1283,1284,1285,1286,786,-608]],"id":"NO.IN.3449","properties":{"hc-group":"admin2","hc-key":"no-in-3449","hc-a2":"SA","name":"Sør-Aurdal","hc-middle-lon":9.653,"hc-middle-lat":60.664}},{"type":"Polygon","arcs":[[-1281,1287,1288,1289]],"id":"NO.VI.3046","properties":{"hc-group":"admin2","hc-key":"no-vi-3046","hc-a2":"KR","name":"Krødsherad","hc-middle-lon":9.675,"hc-middle-lat":60.19}},{"type":"Polygon","arcs":[[-1289,1290,1291,1292,1293,1294]],"id":"NO.VI.3047","properties":{"hc-group":"admin2","hc-key":"no-vi-3047","hc-a2":"MO","name":"Modum","hc-middle-lon":9.994,"hc-middle-lat":60.012}},{"type":"Polygon","arcs":[[-1282,-1290,-1295,1295,1296,1297,1298]],"id":"NO.VI.3045","properties":{"hc-group":"admin2","hc-key":"no-vi-3045","hc-a2":"SI","name":"Sigdal","hc-middle-lon":9.501,"hc-middle-lat":60.133}},{"type":"MultiPolygon","arcs":[[[478,1299,480,275,276,1300,278,1301,1302]],[[299,1303,-1076]],[[280,1304]],[[476,1305,1306]],[[474,1307]]],"id":"NO.VL.4617","properties":{"hc-group":"admin2","hc-key":"no-vl-4617","hc-a2":"KV","name":"Kvinnherad","hc-middle-lon":6.076,"hc-middle-lat":59.972}},{"type":"MultiPolygon","arcs":[[[-1200,56,-1201,58,-988]],[[-1304,300,-1077]],[[277,-1301]]],"id":"NO.VL.4616","properties":{"hc-group":"admin2","hc-key":"no-vl-4616","hc-a2":"TY","name":"Tysnes","hc-middle-lon":5.555,"hc-middle-lat":59.983}},{"type":"Polygon","arcs":[[-1293,1308,1309,1310,605,1311]],"id":"NO.VI.3049","properties":{"hc-group":"admin2","hc-key":"no-vi-3049","hc-a2":"LI","name":"Lier","hc-middle-lon":10.226,"hc-middle-lat":59.846}},{"type":"Polygon","arcs":[[-1309,-1292,1312,1313]],"id":"NO.VI.3038","properties":{"hc-group":"admin2","hc-key":"no-vi-3038","hc-a2":"HO","name":"Hole","hc-middle-lon":10.3,"hc-middle-lat":60.04}},{"type":"Polygon","arcs":[[-1296,-1294,1314,752,1315,1316]],"id":"NO.VI.3048","properties":{"hc-group":"admin2","hc-key":"no-vi-3048","hc-a2":"ØE","name":"Øvre Eiker","hc-middle-lon":9.861,"hc-middle-lat":59.746}},{"type":"MultiPolygon","arcs":[[[272,-912]],[[153]]],"id":"NO.NO.1871","properties":{"hc-group":"admin2","hc-key":"no-no-1871","hc-a2":"AN","name":"Andøy","hc-middle-lon":15.781,"hc-middle-lat":69.039}},{"type":"Polygon","arcs":[[102,1317]],"id":"NO.MR.1505","properties":{"hc-group":"admin2","hc-key":"no-mr-1505","hc-a2":"KR","name":"Kristiansund","hc-middle-lon":7.801,"hc-middle-lat":63.06}},{"type":"Polygon","arcs":[[200,1318,1319,198,1320]],"id":"NO.TF.5442","properties":{"hc-group":"admin2","hc-key":"no-tf-5442","hc-a2":"U/","name":"Unjárga / Nesseby","hc-middle-lon":28.855,"hc-middle-lat":70.112}},{"type":"Polygon","arcs":[[-850,1321,1322,193,1323,1324,-1319,201,1325]],"id":"NO.TF.5441","properties":{"hc-group":"admin2","hc-key":"no-tf-5441","hc-a2":"D/","name":"Deatnu / Tana","hc-middle-lon":27.503,"hc-middle-lat":70.248}},{"type":"Polygon","arcs":[[-743,-742,-693,-692,1326,1327,-744]],"id":"NO.AG.4222","properties":{"hc-group":"admin2","hc-key":"no-ag-4222","hc-a2":"BY","name":"Bykle","hc-middle-lon":7.205,"hc-middle-lat":59.435}},{"type":"Polygon","arcs":[[-1328,1328,1329,-984,-843,-749,-748,-747,-746,-745]],"id":"NO.AG.4228","properties":{"hc-group":"admin2","hc-key":"no-ag-4228","hc-a2":"SI","name":"Sirdal","hc-middle-lon":6.818,"hc-middle-lat":58.846}},{"type":"MultiPolygon","arcs":[[[365,1330,367,-1040,1331,669,1332]],[[362,-1257]]],"id":"NO.RO.1146","properties":{"hc-group":"admin2","hc-key":"no-ro-1146","hc-a2":"TY","name":"Tysvær","hc-middle-lon":5.634,"hc-middle-lat":59.401}},{"type":"Polygon","arcs":[[327,1333,329,-662,-667,1334,1335]],"id":"NO.VL.4634","properties":{"hc-group":"admin2","hc-key":"no-vl-4634","hc-a2":"MA","name":"Masfjorden","hc-middle-lon":5.509,"hc-middle-lat":60.84}},{"type":"Polygon","arcs":[[325,1336]],"id":"NO.VL.4632","properties":{"hc-group":"admin2","hc-key":"no-vl-4632","hc-a2":"AU","name":"Austrheim","hc-middle-lon":4.986,"hc-middle-lat":60.772}},{"type":"Polygon","arcs":[[1337,1338,-1274,1339,1340,1341,1342]],"id":"NO.IN.3441","properties":{"hc-group":"admin2","hc-key":"no-in-3441","hc-a2":"GA","name":"Gausdal","hc-middle-lon":9.835,"hc-middle-lat":61.264}},{"type":"Polygon","arcs":[[-1338,1343,1344,-1284,767,768,1345,1346]],"id":"NO.IN.3451","properties":{"hc-group":"admin2","hc-key":"no-in-3451","hc-a2":"NA","name":"Nord-Aurdal","hc-middle-lon":9.29,"hc-middle-lat":61.001}},{"type":"Polygon","arcs":[[-1229,-1234,1347,-768,-767]],"id":"NO.VI.3041","properties":{"hc-group":"admin2","hc-key":"no-vi-3041","hc-a2":"GO","name":"Gol","hc-middle-lon":9.024,"hc-middle-lat":60.756}},{"type":"Polygon","arcs":[[-1346,769,1348,1349]],"id":"NO.IN.3452","properties":{"hc-group":"admin2","hc-key":"no-in-3452","hc-a2":"VS","name":"Vestre Slidre","hc-middle-lon":8.904,"hc-middle-lat":61.054}},{"type":"Polygon","arcs":[[-1172,-1177,-1278,1350,1351,1352,-1183]],"id":"NO.IN.3435","properties":{"hc-group":"admin2","hc-key":"no-in-3435","hc-a2":"VÅ","name":"Vågå","hc-middle-lon":8.943,"hc-middle-lat":61.698}},{"type":"Polygon","arcs":[[-1352,1353,-1275,-1339,-1347,-1350,1354]],"id":"NO.IN.3453","properties":{"hc-group":"admin2","hc-key":"no-in-3453","hc-a2":"ØS","name":"Øystre Slidre","hc-middle-lon":9.104,"hc-middle-lat":61.256}},{"type":"Polygon","arcs":[[-1354,-1351,-1277,-1276]],"id":"NO.IN.3436","properties":{"hc-group":"admin2","hc-key":"no-in-3436","hc-a2":"NF","name":"Nord-Fron","hc-middle-lon":9.463,"hc-middle-lat":61.601}},{"type":"Polygon","arcs":[[-1353,-1355,-1349,770,709,710,711,-1184]],"id":"NO.IN.3454","properties":{"hc-group":"admin2","hc-key":"no-in-3454","hc-a2":"VA","name":"Vang","hc-middle-lon":8.455,"hc-middle-lat":61.191}},{"type":"Polygon","arcs":[[-1340,-1273,1355,1356]],"id":"NO.IN.3439","properties":{"hc-group":"admin2","hc-key":"no-in-3439","hc-a2":"RI","name":"Ringebu","hc-middle-lon":10.303,"hc-middle-lat":61.564}},{"type":"Polygon","arcs":[[-1087,-1192,1357,1358]],"id":"NO.VI.3015","properties":{"hc-group":"admin2","hc-key":"no-vi-3015","hc-a2":"SK","name":"Skiptvet","hc-middle-lon":11.146,"hc-middle-lat":59.471}},{"type":"Polygon","arcs":[[-1359,1359,1360,1361,1362,-1088]],"id":"NO.VI.3016","properties":{"hc-group":"admin2","hc-key":"no-vi-3016","hc-a2":"RA","name":"Rakkestad","hc-middle-lon":11.398,"hc-middle-lat":59.358}},{"type":"Polygon","arcs":[[-1363,1363,611,-1089]],"id":"NO.VI.3001","properties":{"hc-group":"admin2","hc-key":"no-vi-3001","hc-a2":"HA","name":"Halden","hc-middle-lon":11.459,"hc-middle-lat":59.068}},{"type":"Polygon","arcs":[[-1208,566,-1206,1364,1365,-883,-876,561,-857,563,1366]],"id":"NO.NO.1824","properties":{"hc-group":"admin2","hc-key":"no-no-1824","hc-a2":"VE","name":"Vefsn","hc-middle-lon":13.181,"hc-middle-lat":65.817}},{"type":"MultiPolygon","arcs":[[[-1367,564,-1209]],[[121,-858]]],"id":"NO.NO.1822","properties":{"hc-group":"admin2","hc-key":"no-no-1822","hc-a2":"LE","name":"Leirfjord","hc-middle-lon":13.076,"hc-middle-lat":66.097}},{"type":"Polygon","arcs":[[-1126,-1100,1367,1368,1369,1370,1371]],"id":"NO.AG.4216","properties":{"hc-group":"admin2","hc-key":"no-ag-4216","hc-a2":"BI","name":"Birkenes","hc-middle-lon":8.214,"hc-middle-lat":58.44}},{"type":"Polygon","arcs":[[-1370,1372,1373,1374,1375]],"id":"NO.AG.4223","properties":{"hc-group":"admin2","hc-key":"no-ag-4223","hc-a2":"VE","name":"Vennesla","hc-middle-lon":7.846,"hc-middle-lat":58.34}},{"type":"Polygon","arcs":[[1376,1377,1378,1379,-1121,-1119,1380]],"id":"NO.IN.3422","properties":{"hc-group":"admin2","hc-key":"no-in-3422","hc-a2":"ÅM","name":"Åmot","hc-middle-lon":11.438,"hc-middle-lat":61.259}},{"type":"Polygon","arcs":[[-1377,1381,-1158,1382,1383]],"id":"NO.IN.3412","properties":{"hc-group":"admin2","hc-key":"no-in-3412","hc-a2":"LØ","name":"Løten","hc-middle-lon":11.428,"hc-middle-lat":60.866}},{"type":"Polygon","arcs":[[-1155,1384,1385,-1383,-1157,1386,1387,776]],"id":"NO.IN.3413","properties":{"hc-group":"admin2","hc-key":"no-in-3413","hc-a2":"ST","name":"Stange","hc-middle-lon":11.347,"hc-middle-lat":60.629}},{"type":"Polygon","arcs":[[-1387,-1156,642,1388,1389]],"id":"NO.IN.3418","properties":{"hc-group":"admin2","hc-key":"no-in-3418","hc-a2":"ÅS","name":"Åsnes","hc-middle-lon":12.11,"hc-middle-lat":60.679}},{"type":"Polygon","arcs":[[1390,1391,-1341,-1357,1392]],"id":"NO.IN.3440","properties":{"hc-group":"admin2","hc-key":"no-in-3440","hc-a2":"ØY","name":"Øyer","hc-middle-lon":10.514,"hc-middle-lat":61.326}},{"type":"Polygon","arcs":[[-1391,1393,-1379,1394,-1385,-1154,1395,1396]],"id":"NO.IN.3411","properties":{"hc-group":"admin2","hc-key":"no-in-3411","hc-a2":"RI","name":"Ringsaker","hc-middle-lon":10.788,"hc-middle-lat":60.98}},{"type":"Polygon","arcs":[[-1390,1397,1398,774,775,-1388]],"id":"NO.IN.3414","properties":{"hc-group":"admin2","hc-key":"no-in-3414","hc-a2":"NO","name":"Nord-Odal","hc-middle-lon":11.59,"hc-middle-lat":60.441}},{"type":"Polygon","arcs":[[-1148,773,-1399,1399,1400]],"id":"NO.IN.3415","properties":{"hc-group":"admin2","hc-key":"no-in-3415","hc-a2":"SO","name":"Sør-Odal","hc-middle-lon":11.736,"hc-middle-lat":60.211}},{"type":"MultiPolygon","arcs":[[[-1368,-1099,439,1401,441,1402]],[[1403,1403,1403]]],"id":"NO.AG.4215","properties":{"hc-group":"admin2","hc-key":"no-ag-4215","hc-a2":"LI","name":"Lillesand","hc-middle-lon":8.299,"hc-middle-lat":58.229}},{"type":"Polygon","arcs":[[1404,-657,1405,211,1406]],"id":"NO.TF.5415","properties":{"hc-group":"admin2","hc-key":"no-tf-5415","hc-a2":"LA","name":"Lavangen","hc-middle-lon":17.736,"hc-middle-lat":68.718}},{"type":"Polygon","arcs":[[-1405,1407,1408,1409,208,-658]],"id":"NO.TF.5416","properties":{"hc-group":"admin2","hc-key":"no-tf-5416","hc-a2":"BA","name":"Bardu","hc-middle-lon":19.127,"hc-middle-lat":68.704}},{"type":"Polygon","arcs":[[-1407,212,-916,-860,1410,-1408]],"id":"NO.TF.5417","properties":{"hc-group":"admin2","hc-key":"no-tf-5417","hc-a2":"SA","name":"Salangen","hc-middle-lon":17.817,"hc-middle-lat":68.875}},{"type":"Polygon","arcs":[[215,1411,1412,-1409,-1411,-859]],"id":"NO.TF.5419","properties":{"hc-group":"admin2","hc-key":"no-tf-5419","hc-a2":"SØ","name":"Sørreisa","hc-middle-lon":18.182,"hc-middle-lat":69.099}},{"type":"Polygon","arcs":[[-1224,1413,1414,1415,1416,690,691,1417]],"id":"NO.VT.3824","properties":{"hc-group":"admin2","hc-key":"no-vt-3824","hc-a2":"TO","name":"Tokke","hc-middle-lon":7.934,"hc-middle-lat":59.477}},{"type":"MultiPolygon","arcs":[[[-1415,-1222,-1007,-1037,1418,1419,1420]],[[1222,1413]]],"id":"NO.VT.3821","properties":{"hc-group":"admin2","hc-key":"no-vt-3821","hc-a2":"KV","name":"Kviteseid","hc-middle-lon":8.501,"hc-middle-lat":59.41}},{"type":"Polygon","arcs":[[-691,-690,1421,-1329,-1327]],"id":"NO.AG.4221","properties":{"hc-group":"admin2","hc-key":"no-ag-4221","hc-a2":"VA","name":"Valle","hc-middle-lon":7.403,"hc-middle-lat":59.174}},{"type":"Polygon","arcs":[[-1419,-1036,684,685,686,1422]],"id":"NO.VT.3822","properties":{"hc-group":"admin2","hc-key":"no-vt-3822","hc-a2":"NI","name":"Nissedal","hc-middle-lon":8.553,"hc-middle-lat":59.047}},{"type":"Polygon","arcs":[[323,1423,-1335,-666,-665,-1044]],"id":"NO.VL.4629","properties":{"hc-group":"admin2","hc-key":"no-vl-4629","hc-a2":"MO","name":"Modalen","hc-middle-lon":5.918,"hc-middle-lat":60.884}},{"type":"Polygon","arcs":[[-1265,652,796,797,1424]],"id":"NO.TD.5025","properties":{"hc-group":"admin2","hc-key":"no-td-5025","hc-a2":"RØ","name":"Røros","hc-middle-lon":11.686,"hc-middle-lat":62.563}},{"type":"Polygon","arcs":[[716,1425,1426,1427,-1268]],"id":"NO.TD.5022","properties":{"hc-group":"admin2","hc-key":"no-td-5022","hc-a2":"RE","name":"Rennebu","hc-middle-lon":9.873,"hc-middle-lat":62.765}},{"type":"Polygon","arcs":[[-920,1428,1429,1430,1431,648]],"id":"NO.TD.5041","properties":{"hc-group":"admin2","hc-key":"no-td-5041","hc-a2":"SN","name":"Snåsa","hc-middle-lon":12.609,"hc-middle-lat":64.194}},{"type":"Polygon","arcs":[[625,626,1432,628,1433,1434,-710,706,707,708,-789,1435]],"id":"NO.VL.4642","properties":{"hc-group":"admin2","hc-key":"no-vl-4642","hc-a2":"LÆ","name":"Lærdal","hc-middle-lon":7.651,"hc-middle-lat":61.027}},{"type":"Polygon","arcs":[[-707,-771,-770,-769,-1348,-1233]],"id":"NO.VI.3042","properties":{"hc-group":"admin2","hc-key":"no-vi-3042","hc-a2":"HE","name":"Hemsedal","hc-middle-lon":8.471,"hc-middle-lat":60.926}},{"type":"Polygon","arcs":[[631,1436,-711,-1435,1437]],"id":"NO.VL.4643","properties":{"hc-group":"admin2","hc-key":"no-vl-4643","hc-a2":"ÅR","name":"Årdal","hc-middle-lon":7.811,"hc-middle-lat":61.289}},{"type":"MultiPolygon","arcs":[[[-712,-1437,632,1438,1439,1440,-714,-713]],[[630,-1438,1441]],[[634,1442]]],"id":"NO.VL.4644","properties":{"hc-group":"admin2","hc-key":"no-vl-4644","hc-a2":"LU","name":"Luster","hc-middle-lon":7.563,"hc-middle-lat":61.528}},{"type":"MultiPolygon","arcs":[[[483,-1000,485,1443,1444,-922]],[[489,-997]],[[487,-999,1445]]],"id":"NO.VL.4646","properties":{"hc-group":"admin2","hc-key":"no-vl-4646","hc-a2":"FJ","name":"Fjaler","hc-middle-lon":5.352,"hc-middle-lat":61.272}},{"type":"Polygon","arcs":[[-1386,-1395,-1378,-1384]],"id":"NO.IN.3403","properties":{"hc-group":"admin2","hc-key":"no-in-3403","hc-a2":"HA","name":"Hamar","hc-middle-lon":11.109,"hc-middle-lat":61.004}},{"type":"Polygon","arcs":[[-1153,-1133,1446,1447,1448,-1396]],"id":"NO.IN.3407","properties":{"hc-group":"admin2","hc-key":"no-in-3407","hc-a2":"GJ","name":"Gjøvik","hc-middle-lon":10.455,"hc-middle-lat":60.874}},{"type":"Polygon","arcs":[[760,1449,-1297,-1317,1450,759]],"id":"NO.VI.3050","properties":{"hc-group":"admin2","hc-key":"no-vi-3050","hc-a2":"FL","name":"Flesberg","hc-middle-lon":9.443,"hc-middle-lat":59.86}},{"type":"Polygon","arcs":[[-1232,-1231,-1283,-1299,1451,762,763,793,-1187]],"id":"NO.VI.3052","properties":{"hc-group":"admin2","hc-key":"no-vi-3052","hc-a2":"NO","name":"Nore og Uvdal","hc-middle-lon":8.324,"hc-middle-lat":60.267}},{"type":"Polygon","arcs":[[333,-1203,335,-990,331,-671,-670,-669,-1204]],"id":"NO.VL.4612","properties":{"hc-group":"admin2","hc-key":"no-vl-4612","hc-a2":"SV","name":"Sveio","hc-middle-lon":5.361,"hc-middle-lat":59.602}},{"type":"MultiPolygon","arcs":[[[126,-865]],[[154]]],"id":"NO.NO.1860","properties":{"hc-group":"admin2","hc-key":"no-no-1860","hc-a2":"VE","name":"Vestvågøy","hc-middle-lon":13.815,"hc-middle-lat":68.19}},{"type":"MultiPolygon","arcs":[[[-914,138,-871]],[[136,-913]]],"id":"NO.NO.1867","properties":{"hc-group":"admin2","hc-key":"no-no-1867","hc-a2":"BØ","name":"Bø","hc-middle-lon":14.616,"hc-middle-lat":68.719}},{"type":"Polygon","arcs":[[-1127,-1372,1452,-1375,1453,1454,1455,1456]],"id":"NO.AG.4219","properties":{"hc-group":"admin2","hc-key":"no-ag-4219","hc-a2":"EO","name":"Evje og Hornnes","hc-middle-lon":7.772,"hc-middle-lat":58.593}},{"type":"Polygon","arcs":[[1457,-979,-1330,-1422,-689,1458,-1128,-1457]],"id":"NO.AG.4220","properties":{"hc-group":"admin2","hc-key":"no-ag-4220","hc-a2":"BY","name":"Bygland","hc-middle-lon":7.528,"hc-middle-lat":58.855}},{"type":"Polygon","arcs":[[-1459,-688,-687,-1092,1459,-1129]],"id":"NO.AG.4217","properties":{"hc-group":"admin2","hc-key":"no-ag-4217","hc-a2":"ÅM","name":"Åmli","hc-middle-lon":8.359,"hc-middle-lat":58.797}},{"type":"Polygon","arcs":[[-1371,-1376,-1453]],"id":"NO.AG.4218","properties":{"hc-group":"admin2","hc-key":"no-ag-4218","hc-a2":"IV","name":"Iveland","hc-middle-lon":7.947,"hc-middle-lat":58.434}},{"type":"Polygon","arcs":[[371,667,668,-1332,-1039,369,-1038]],"id":"NO.RO.1106","properties":{"hc-group":"admin2","hc-key":"no-ro-1106","hc-a2":"HA","name":"Haugesund","hc-middle-lon":5.301,"hc-middle-lat":59.454}},{"type":"Polygon","arcs":[[1460,746,1461,1462,1463]],"id":"NO.RO.1114","properties":{"hc-group":"admin2","hc-key":"no-ro-1114","hc-a2":"BJ","name":"Bjerkreim","hc-middle-lon":6.238,"hc-middle-lat":58.667}},{"type":"Polygon","arcs":[[1464,-1055,1465,1466,-1464]],"id":"NO.RO.1121","properties":{"hc-group":"admin2","hc-key":"no-ro-1121","hc-a2":"TI","name":"Time","hc-middle-lon":5.767,"hc-middle-lat":58.705}},{"type":"Polygon","arcs":[[747,1467,1468,593,1469,-1462]],"id":"NO.RO.1101","properties":{"hc-group":"admin2","hc-key":"no-ro-1101","hc-a2":"EI","name":"Eigersund","hc-middle-lon":6.185,"hc-middle-lat":58.496}},{"type":"MultiPolygon","arcs":[[[95,1470]],[[516,1471]],[[97,1472]]],"id":"NO.MR.1517","properties":{"hc-group":"admin2","hc-key":"no-mr-1517","hc-a2":"HA","name":"Hareid","hc-middle-lon":5.99,"hc-middle-lat":62.352}},{"type":"Polygon","arcs":[[98,-874,92,93,94,-1471,96,-1473]],"id":"NO.MR.1516","properties":{"hc-group":"admin2","hc-key":"no-mr-1516","hc-a2":"UL","name":"Ulstein","hc-middle-lon":5.896,"hc-middle-lat":62.337}},{"type":"MultiPolygon","arcs":[[[507,-1002,509,1473,511,1474,1475,513,1476,697,698,699]],[[89,-1001]]],"id":"NO.MR.1511","properties":{"hc-group":"admin2","hc-key":"no-mr-1511","hc-a2":"VA","name":"Vanylven","hc-middle-lon":5.647,"hc-middle-lat":62.089}},{"type":"Polygon","arcs":[[1477,-884,-1366,1478,-735,-734]],"id":"NO.NO.1825","properties":{"hc-group":"admin2","hc-key":"no-no-1825","hc-a2":"GR","name":"Grane","hc-middle-lon":13.403,"hc-middle-lat":65.442}},{"type":"MultiPolygon","arcs":[[[-1478,-733,-732,-731,549,-885]],[[388,671]],[[-879,551]],[[553,-1003,-880]],[[155]]],"id":"NO.NO.1811","properties":{"hc-group":"admin2","hc-key":"no-no-1811","hc-a2":"BI","name":"Bindal","hc-middle-lon":12.577,"hc-middle-lat":65.122}},{"type":"Polygon","arcs":[[-1125,1479,1480,530]],"id":"NO.MR.1535","properties":{"hc-group":"admin2","hc-key":"no-mr-1535","hc-a2":"VE","name":"Vestnes","hc-middle-lon":7.001,"hc-middle-lat":62.551}},{"type":"MultiPolygon","arcs":[[[304,-1083,1481,-1047,-1070,-1079]],[[302,-1078]],[[306,-1081]]],"id":"NO.VL.4623","properties":{"hc-group":"admin2","hc-key":"no-vl-4623","hc-a2":"SA","name":"Samnanger","hc-middle-lon":5.779,"hc-middle-lat":60.407}},{"type":"Polygon","arcs":[[-1271,-1279,-1175,-719,-1112,1482,1483]],"id":"NO.IN.3429","properties":{"hc-group":"admin2","hc-key":"no-in-3429","hc-a2":"FO","name":"Folldal","hc-middle-lon":9.989,"hc-middle-lat":62.154}},{"type":"Polygon","arcs":[[-1484,1484,-1122,-1380,-1394,-1393,-1356,-1272]],"id":"NO.IN.3423","properties":{"hc-group":"admin2","hc-key":"no-in-3423","hc-a2":"SE","name":"Stor-Elvdal","hc-middle-lon":10.71,"hc-middle-lat":61.578}},{"type":"Polygon","arcs":[[467,-1013,1485,1486,465,-1033]],"id":"NO.VT.3806","properties":{"hc-group":"admin2","hc-key":"no-vt-3806","hc-a2":"PO","name":"Porsgrunn","hc-middle-lon":9.76,"hc-middle-lat":59.104}},{"type":"Polygon","arcs":[[-1486,-1012,-756,1487]],"id":"NO.VT.3812","properties":{"hc-group":"admin2","hc-key":"no-vt-3812","hc-a2":"SI","name":"Siljan","hc-middle-lon":9.725,"hc-middle-lat":59.31}},{"type":"Polygon","arcs":[[622,-1024]],"id":"NO.VI.3023","properties":{"hc-group":"admin2","hc-key":"no-vi-3023","hc-a2":"NE","name":"Nesodden","hc-middle-lon":10.633,"hc-middle-lat":59.794}},{"type":"Polygon","arcs":[[-1020,1488,-1190,1489,618,1490,620,-1023]],"id":"NO.VI.3019","properties":{"hc-group":"admin2","hc-key":"no-vi-3019","hc-a2":"VE","name":"Vestby","hc-middle-lon":10.755,"hc-middle-lat":59.561}},{"type":"Polygon","arcs":[[-1310,-1314,1491,729,599,1492]],"id":"NO.OS.3024","properties":{"hc-group":"admin2","hc-key":"no-os-3024","hc-a2":"BÆ","name":"Bærum","hc-middle-lon":10.498,"hc-middle-lat":59.955}},{"type":"MultiPolygon","arcs":[[[103,-1318]],[[394,1493]],[[391,1494]],[[104]]],"id":"NO.MR.1554","properties":{"hc-group":"admin2","hc-key":"no-mr-1554","hc-a2":"AV","name":"Averøy","hc-middle-lon":7.514,"hc-middle-lat":63.023}},{"type":"Polygon","arcs":[[393,-1494,395,-953,1495]],"id":"NO.MR.1557","properties":{"hc-group":"admin2","hc-key":"no-mr-1557","hc-a2":"GJ","name":"Gjemnes","hc-middle-lon":7.752,"hc-middle-lat":62.897}},{"type":"Polygon","arcs":[[-1131,780,781,782,783,784,1496]],"id":"NO.IN.3446","properties":{"hc-group":"admin2","hc-key":"no-in-3446","hc-a2":"GR","name":"Gran","hc-middle-lon":10.532,"hc-middle-lat":60.435}},{"type":"Polygon","arcs":[[-783,-1139,-1161,727,1497,1498]],"id":"NO.IN.3054","properties":{"hc-group":"admin2","hc-key":"no-in-3054","hc-a2":"LU","name":"Lunner","hc-middle-lon":10.672,"hc-middle-lat":60.231}},{"type":"MultiPolygon","arcs":[[[-923,-1445,1499,1500,636]],[[665,666,-889,536,1501]]],"id":"NO.VL.4638","properties":{"hc-group":"admin2","hc-key":"no-vl-4638","hc-a2":"HØ","name":"Høyanger","hc-middle-lon":5.927,"hc-middle-lat":61.121}},{"type":"MultiPolygon","arcs":[[[664,-1502,537,721,662,663]],[[624,-1436,-788]]],"id":"NO.VL.4639","properties":{"hc-group":"admin2","hc-key":"no-vl-4639","hc-a2":"VI","name":"Vik","hc-middle-lon":6.574,"hc-middle-lat":61.034}},{"type":"Polygon","arcs":[[-790,-792,-791,-722,638,787,788]],"id":"NO.VL.4641","properties":{"hc-group":"admin2","hc-key":"no-vl-4641","hc-a2":"AU","name":"Aurland","hc-middle-lon":7.233,"hc-middle-lat":60.867}},{"type":"Polygon","arcs":[[609,1502,-1361,1503,1504]],"id":"NO.VI.3013","properties":{"hc-group":"admin2","hc-key":"no-vi-3013","hc-a2":"MA","name":"Marker","hc-middle-lon":11.654,"hc-middle-lat":59.481}},{"type":"Polygon","arcs":[[-1362,-1503,610,-1364]],"id":"NO.VI.3012","properties":{"hc-group":"admin2","hc-key":"no-vi-3012","hc-a2":"AR","name":"Aremark","hc-middle-lon":11.7,"hc-middle-lat":59.186}},{"type":"MultiPolygon","arcs":[[[156,1505]],[[158]]],"id":"NO.NO.1859","properties":{"hc-group":"admin2","hc-key":"no-no-1859","hc-a2":"FL","name":"Flakstad","hc-middle-lon":13.219,"hc-middle-lat":68.065}},{"type":"Polygon","arcs":[[-1287,1506,-1447,-1132,-1497,785]],"id":"NO.IN.3447","properties":{"hc-group":"admin2","hc-key":"no-in-3447","hc-a2":"SL","name":"Søndre Land","hc-middle-lon":10.263,"hc-middle-lat":60.698}},{"type":"Polygon","arcs":[[-786,-785,1507,-1498,728,-1492,-1313,-1291,-1288,-1280,-787]],"id":"NO.VI.3007","properties":{"hc-group":"admin2","hc-key":"no-vi-3007","hc-a2":"RI","name":"Ringerike","hc-middle-lon":10.14,"hc-middle-lat":60.324}},{"type":"MultiPolygon","arcs":[[[-921,-910,659,660,274,-869]],[[426,-680]],[[427,680]]],"id":"NO.NO.1851","properties":{"hc-group":"admin2","hc-key":"no-no-1851","hc-a2":"LØ","name":"Lødingen","hc-middle-lon":15.637,"hc-middle-lat":68.458}},{"type":"Polygon","arcs":[[268,653,1508,266,1509]],"id":"NO.NO.1853","properties":{"hc-group":"admin2","hc-key":"no-no-1853","hc-a2":"EV","name":"Evenes","hc-middle-lon":16.943,"hc-middle-lat":68.503}},{"type":"Polygon","arcs":[[700,701,702,-1174,-1185,713,714]],"id":"NO.IN.3433","properties":{"hc-group":"admin2","hc-key":"no-in-3433","hc-a2":"SK","name":"Skjåk","hc-middle-lon":7.986,"hc-middle-lat":61.941}},{"type":"MultiPolygon","arcs":[[[-701,694,1510,1511,1512,1513,520,1514]],[[522,1515]]],"id":"NO.MR.1525","properties":{"hc-group":"admin2","hc-key":"no-mr-1525","hc-a2":"ST","name":"Stranda","hc-middle-lon":7.009,"hc-middle-lat":62.182}},{"type":"Polygon","arcs":[[-695,-715,-1441,1516,1517,501,1518,-696]],"id":"NO.VL.4651","properties":{"hc-group":"admin2","hc-key":"no-vl-4651","hc-a2":"ST","name":"Stryn","hc-middle-lon":6.862,"hc-middle-lat":61.804}},{"type":"Polygon","arcs":[[515,-1472,517,1519,-1512,1520]],"id":"NO.MR.1520","properties":{"hc-group":"admin2","hc-key":"no-mr-1520","hc-a2":"ØR","name":"Ørsta","hc-middle-lon":6.37,"hc-middle-lat":62.203}},{"type":"MultiPolygon","arcs":[[[62,1521,64,65,66,1522,68,-1043,60,1523]],[[321,-1050]],[[319,-1049]]],"id":"NO.VL.4630","properties":{"hc-group":"admin2","hc-key":"no-vl-4630","hc-a2":"OS","name":"Osterøy","hc-middle-lon":5.513,"hc-middle-lat":60.566}},{"type":"Polygon","arcs":[[-1130,-1460,-1091,-1093,431,-1094,433,434,435,-1097]],"id":"NO.AG.4213","properties":{"hc-group":"admin2","hc-key":"no-ag-4213","hc-a2":"TV","name":"Tvedestrand","hc-middle-lon":8.956,"hc-middle-lat":58.627}},{"type":"Polygon","arcs":[[643,1524,-1400,-1398,-1389]],"id":"NO.IN.3417","properties":{"hc-group":"admin2","hc-key":"no-in-3417","hc-a2":"GR","name":"Grue","hc-middle-lon":12.207,"hc-middle-lat":60.412}},{"type":"MultiPolygon","arcs":[[[518,1525,-1513,-1520]],[[524,1526,1527]]],"id":"NO.MR.1528","properties":{"hc-group":"admin2","hc-key":"no-mr-1528","hc-a2":"SY","name":"Sykkylven","hc-middle-lon":6.657,"hc-middle-lat":62.333}},{"type":"Polygon","arcs":[[-728,-727,-726,-725,-724,-723,538,-730,-729]],"id":"NO.OS.0301","properties":{"hc-group":"admin2","hc-key":"no-os-0301","hc-a2":"OS","name":"Oslo","hc-middle-lon":10.722,"hc-middle-lat":59.972}},{"type":"Polygon","arcs":[[724,-1166,1528,1529]],"id":"NO.VI.3029","properties":{"hc-group":"admin2","hc-key":"no-vi-3029","hc-a2":"LØ","name":"Lørenskog","hc-middle-lon":10.961,"hc-middle-lat":59.894}},{"type":"Polygon","arcs":[[217,1530,1531,207,-1410,-1413,1532]],"id":"NO.TF.5418","properties":{"hc-group":"admin2","hc-key":"no-tf-5418","hc-a2":"MÅ","name":"Målselv","hc-middle-lon":19.269,"hc-middle-lat":68.961}},{"type":"Polygon","arcs":[[-1532,1533,-809,1534,227,-1028,206]],"id":"NO.TF.5425","properties":{"hc-group":"admin2","hc-key":"no-tf-5425","hc-a2":"ST","name":"Storfjord","hc-middle-lon":20.392,"hc-middle-lat":69.247}},{"type":"MultiPolygon","arcs":[[[222,-811]],[[226,-1535,-808,224,-1027]]],"id":"NO.TF.5424","properties":{"hc-group":"admin2","hc-key":"no-tf-5424","hc-a2":"LY","name":"Lyngen","hc-middle-lon":20.113,"hc-middle-lat":69.683}},{"type":"Polygon","arcs":[[-1344,-1343,1535,-1448,-1507,-1286,1536]],"id":"NO.IN.3448","properties":{"hc-group":"admin2","hc-key":"no-in-3448","hc-a2":"NL","name":"Nordre Land","hc-middle-lon":9.955,"hc-middle-lat":60.949}},{"type":"Polygon","arcs":[[-1342,-1392,-1397,-1449,-1536]],"id":"NO.IN.3405","properties":{"hc-group":"admin2","hc-key":"no-in-3405","hc-a2":"LI","name":"Lillehammer","hc-middle-lon":10.395,"hc-middle-lat":61.134}},{"type":"MultiPolygon","arcs":[[[1537,-1431,1538,1539,1540]],[[1541,1542]]],"id":"NO.TD.5045","properties":{"hc-group":"admin2","hc-key":"no-td-5045","hc-a2":"GR","name":"Grong","hc-middle-lon":12.579,"hc-middle-lat":64.532}},{"type":"Polygon","arcs":[[-1538,-924,647,-1432]],"id":"NO.TD.5042","properties":{"hc-group":"admin2","hc-key":"no-td-5042","hc-a2":"LI","name":"Lierne","hc-middle-lon":13.611,"hc-middle-lat":64.412}},{"type":"Polygon","arcs":[[717,718,719,720,672,673,1543,-1426]],"id":"NO.TD.5021","properties":{"hc-group":"admin2","hc-key":"no-td-5021","hc-a2":"OP","name":"Oppdal","hc-middle-lon":9.518,"hc-middle-lat":62.536}},{"type":"Polygon","arcs":[[723,-1530,1544,-1164,1545,1546]],"id":"NO.VI.3028","properties":{"hc-group":"admin2","hc-key":"no-vi-3028","hc-a2":"EN","name":"Enebakk","hc-middle-lon":11.09,"hc-middle-lat":59.766}},{"type":"Polygon","arcs":[[-1545,-1529,-1165]],"id":"NO.VI.3027","properties":{"hc-group":"admin2","hc-key":"no-vi-3027","hc-a2":"RÆ","name":"Rælingen","hc-middle-lon":11.089,"hc-middle-lat":59.885}},{"type":"Polygon","arcs":[[-980,-1458,-1456,1547,1548]],"id":"NO.AG.4224","properties":{"hc-group":"admin2","hc-key":"no-ag-4224","hc-a2":"ÅS","name":"Åseral","hc-middle-lon":7.422,"hc-middle-lat":58.677}},{"type":"Polygon","arcs":[[1549,-962,-955,731,1550,1542,-1540]],"id":"NO.TD.5046","properties":{"hc-group":"admin2","hc-key":"no-td-5046","hc-a2":"HØ","name":"Høylandet","hc-middle-lon":12.372,"hc-middle-lat":64.757}},{"type":"Polygon","arcs":[[-1550,-1539,-1430,1551,-957,385,-963]],"id":"NO.TD.5047","properties":{"hc-group":"admin2","hc-key":"no-td-5047","hc-a2":"OV","name":"Overhalla","hc-middle-lon":11.919,"hc-middle-lat":64.481}},{"type":"Polygon","arcs":[[755,756,757,758,-1451,-1316,753,754]],"id":"NO.VI.3006","properties":{"hc-group":"admin2","hc-key":"no-vi-3006","hc-a2":"KO","name":"Kongsberg","hc-middle-lon":9.695,"hc-middle-lat":59.602}},{"type":"MultiPolygon","arcs":[[[670,583,-741,-1253,360,-1256,364,-1333]],[[472,-694]],[[366,-1331]]],"id":"NO.RO.1160","properties":{"hc-group":"admin2","hc-key":"no-ro-1160","hc-a2":"VI","name":"Vindafjord","hc-middle-lon":5.81,"hc-middle-lat":59.555}},{"type":"MultiPolygon","arcs":[[[310,-943,-906,313,-909,315,-908,317,-1048,-1482,-1082,308,-942]],[[61,-1524]]],"id":"NO.VL.4601","properties":{"hc-group":"admin2","hc-key":"no-vl-4601","hc-a2":"BE","name":"Bergen","hc-middle-lon":5.429,"hc-middle-lat":60.382}},{"type":"MultiPolygon","arcs":[[[584,693,473,-1308,475,-1307,1552,477,-1303,1553,738,739,740]],[[479,-1300]]],"id":"NO.VL.4611","properties":{"hc-group":"admin2","hc-key":"no-vl-4611","hc-a2":"ET","name":"Etne","hc-middle-lon":6.137,"hc-middle-lat":59.794}},{"type":"Polygon","arcs":[[592,-1469,1554,590,591]],"id":"NO.RO.1111","properties":{"hc-group":"admin2","hc-key":"no-ro-1111","hc-a2":"SO","name":"Sokndal","hc-middle-lon":6.31,"hc-middle-lat":58.373}},{"type":"MultiPolygon","arcs":[[[503,1555]],[[1556,500,-1518,1557,-946]]],"id":"NO.VL.4650","properties":{"hc-group":"admin2","hc-key":"no-vl-4650","hc-a2":"GL","name":"Gloppen","hc-middle-lon":6.195,"hc-middle-lat":61.729}},{"type":"MultiPolygon","arcs":[[[-1557,-948,499]],[[177]]],"id":"NO.VL.4648","properties":{"hc-group":"admin2","hc-key":"no-vl-4648","hc-a2":"BR","name":"Bremanger","hc-middle-lon":5.35,"hc-middle-lat":61.801}},{"type":"Polygon","arcs":[[-1468,748,749,-1555]],"id":"NO.RO.1112","properties":{"hc-group":"admin2","hc-key":"no-ro-1112","hc-a2":"LU","name":"Lund","hc-middle-lon":6.459,"hc-middle-lat":58.453}},{"type":"Polygon","arcs":[[-1465,-1463,-1470,594,-1056]],"id":"NO.RO.1119","properties":{"hc-group":"admin2","hc-key":"no-ro-1119","hc-a2":"HÅ","name":"Hå","hc-middle-lon":5.738,"hc-middle-lat":58.594}},{"type":"Polygon","arcs":[[399,-1041,401,-1042,-673,-706,-950,397,1558]],"id":"NO.MR.1563","properties":{"hc-group":"admin2","hc-key":"no-mr-1563","hc-a2":"SU","name":"Sunndal","hc-middle-lon":8.718,"hc-middle-lat":62.625}},{"type":"Polygon","arcs":[[-1544,674,1559,1560,-1427]],"id":"NO.MR.5061","properties":{"hc-group":"admin2","hc-key":"no-mr-5061","hc-a2":"RI","name":"Rindal","hc-middle-lon":9.245,"hc-middle-lat":62.998}},{"type":"Polygon","arcs":[[613,-1195,-1084]],"id":"NO.VI.3004","properties":{"hc-group":"admin2","hc-key":"no-vi-3004","hc-a2":"FR","name":"Fredrikstad","hc-middle-lon":10.949,"hc-middle-lat":59.223}},{"type":"Polygon","arcs":[[-1506,157]],"id":"NO.NO.1874","properties":{"hc-group":"admin2","hc-key":"no-no-1874","hc-a2":"MO","name":"Moskenes","hc-middle-lon":12.955,"hc-middle-lat":67.93}},{"type":"Polygon","arcs":[[-1213,-851,-1326,202,1561]],"id":"NO.TF.5437","properties":{"hc-group":"admin2","hc-key":"no-tf-5437","hc-a2":"K/","name":"Kárásjohka / Karasjok","hc-middle-lon":25.047,"hc-middle-lat":69.42}},{"type":"Polygon","arcs":[[382,1562,-960,-967]],"id":"NO.TD.5020","properties":{"hc-group":"admin2","hc-key":"no-td-5020","hc-a2":"OS","name":"Osen","hc-middle-lon":10.658,"hc-middle-lat":64.301}},{"type":"Polygon","arcs":[[-1219,-1217,-1227]],"id":"NO.VT.3819","properties":{"hc-group":"admin2","hc-key":"no-vt-3819","hc-a2":"HJ","name":"Hjartdal","hc-middle-lon":8.694,"hc-middle-lat":59.693}},{"type":"Polygon","arcs":[[-1285,-1345,-1537]],"id":"NO.IN.3450","properties":{"hc-group":"admin2","hc-key":"no-in-3450","hc-a2":"ET","name":"Etnedal","hc-middle-lon":9.617,"hc-middle-lat":60.958}},{"type":"Polygon","arcs":[[-1365,-1205,548,-736,-1479]],"id":"NO.NO.1826","properties":{"hc-group":"admin2","hc-key":"no-no-1826","hc-a2":"HA","name":"Hattfjelldal","hc-middle-lon":14.133,"hc-middle-lat":65.502}},{"type":"Polygon","arcs":[[689,-1417,-1420,-1423,687,688]],"id":"NO.VT.3823","properties":{"hc-group":"admin2","hc-key":"no-vt-3823","hc-a2":"FY","name":"Fyresdal","hc-middle-lon":8.056,"hc-middle-lat":59.144}},{"type":"Polygon","arcs":[[750,-793,-764,-1215,-1225,-1418,692]],"id":"NO.VT.3825","properties":{"hc-group":"admin2","hc-key":"no-vt-3825","hc-a2":"VI","name":"Vinje","hc-middle-lon":7.692,"hc-middle-lat":59.801}},{"type":"Polygon","arcs":[[-1262,-1266,-1425,798,-1267]],"id":"NO.TD.5026","properties":{"hc-group":"admin2","hc-key":"no-td-5026","hc-a2":"HO","name":"Holtålen","hc-middle-lon":11.284,"hc-middle-lat":62.868}},{"type":"Polygon","arcs":[[-1452,-1298,-1450,761]],"id":"NO.VI.3051","properties":{"hc-group":"admin2","hc-key":"no-vi-3051","hc-a2":"RO","name":"Rollag","hc-middle-lon":9.213,"hc-middle-lat":60.017}},{"type":"Polygon","arcs":[[-1401,-1525,644,-1149]],"id":"NO.IN.3401","properties":{"hc-group":"admin2","hc-key":"no-in-3401","hc-a2":"KO","name":"Kongsvinger","hc-middle-lon":12.194,"hc-middle-lat":60.187}},{"type":"Polygon","arcs":[[-1499,-1508,-784]],"id":"NO.IN.3053","properties":{"hc-group":"admin2","hc-key":"no-in-3053","hc-a2":"JE","name":"Jevnaker","hc-middle-lon":10.378,"hc-middle-lat":60.283}},{"type":"Polygon","arcs":[[-1382,-1381,-1118,-1159]],"id":"NO.IN.3420","properties":{"hc-group":"admin2","hc-key":"no-in-3420","hc-a2":"EL","name":"Elverum","hc-middle-lon":11.735,"hc-middle-lat":60.974}},{"type":"Polygon","arcs":[[732,733,-925,-1541,1541,-1551]],"id":"NO.TD.5044","properties":{"hc-group":"admin2","hc-key":"no-td-5044","hc-a2":"NA","name":"Namsskogan","hc-middle-lon":13.076,"hc-middle-lat":64.809}},{"type":"MultiPolygon","arcs":[[[446,-1181,448,-1180,1563,450,-1178,452,-1182,-982,1564,-1548,-1455,1565]],[[444,1566]]],"id":"NO.AG.4225","properties":{"hc-group":"admin2","hc-key":"no-ag-4225","hc-a2":"LY","name":"Lyngdal","hc-middle-lon":7.218,"hc-middle-lat":58.256}},{"type":"Polygon","arcs":[[-1565,-981,-1549]],"id":"NO.AG.4226","properties":{"hc-group":"admin2","hc-key":"no-ag-4226","hc-a2":"HÆ","name":"Hægebostad","hc-middle-lon":7.231,"hc-middle-lat":58.482}},{"type":"Polygon","arcs":[[-1374,1567,443,-1567,445,-1566,-1454]],"id":"NO.AG.4205","properties":{"hc-group":"admin2","hc-key":"no-ag-4205","hc-a2":"LI","name":"Lindesnes","hc-middle-lon":7.349,"hc-middle-lat":58.233}},{"type":"MultiPolygon","arcs":[[[-1369,-1403,442,-1568,-1373]],[[440,-1402]]],"id":"NO.AG.4204","properties":{"hc-group":"admin2","hc-key":"no-ag-4204","hc-a2":"KR","name":"Kristiansand","hc-middle-lon":7.881,"hc-middle-lat":58.22}},{"type":"MultiPolygon","arcs":[[[-1258,-1246,743,744,1568,341]],[[-1259,343]],[[-1058,-933,337,-938,339,1569,-1466,-1054]]],"id":"NO.RO.1108","properties":{"hc-group":"admin2","hc-key":"no-ro-1108","hc-a2":"SA","name":"Sandnes","hc-middle-lon":6.277,"hc-middle-lat":58.984}},{"type":"Polygon","arcs":[[340,-1569,745,-1461,-1467,-1570]],"id":"NO.RO.1122","properties":{"hc-group":"admin2","hc-key":"no-ro-1122","hc-a2":"GJ","name":"Gjesdal","hc-middle-lon":6.253,"hc-middle-lat":58.828}},{"type":"MultiPolygon","arcs":[[[294,-1068,-1045,-663,790,-1067,1570]],[[1571,1571,1571]]],"id":"NO.VL.4621","properties":{"hc-group":"admin2","hc-key":"no-vl-4621","hc-a2":"VO","name":"Voss","hc-middle-lon":6.419,"hc-middle-lat":60.685}},{"type":"MultiPolygon","arcs":[[[-1337,326,-1336,-1424,324]],[[328,-1334]],[[67,-1523]],[[65,-66,1572]],[[63,-1522]]],"id":"NO.VL.4631","properties":{"hc-group":"admin2","hc-key":"no-vl-4631","hc-a2":"AL","name":"Alver","hc-middle-lon":5.388,"hc-middle-lat":60.69}},{"type":"MultiPolygon","arcs":[[[-1065,288,-1063,792,736,737,-1554,-1302,279,-1305,281,-1073,283,284,-1071,286]],[[293,-1571,-1066]]],"id":"NO.VL.4618","properties":{"hc-group":"admin2","hc-key":"no-vl-4618","hc-a2":"UL","name":"Ullensvang","hc-middle-lon":6.796,"hc-middle-lat":60.096}},{"type":"MultiPolygon","arcs":[[[523,-1528,1573,-1480,-1124,-702,-1515,521,-1516]],[[519,-1514,-1526]]],"id":"NO.MR.1578","properties":{"hc-group":"admin2","hc-key":"no-mr-1578","hc-a2":"FJ","name":"Fjord","hc-middle-lon":7.356,"hc-middle-lat":62.272}},{"type":"MultiPolygon","arcs":[[[695,696,-1477,514,-1521,-1511]],[[512,1574,-1475]],[[510,-1474]]],"id":"NO.MR.1577","properties":{"hc-group":"admin2","hc-key":"no-mr-1577","hc-a2":"VO","name":"Volda","hc-middle-lon":6.235,"hc-middle-lat":62.072}},{"type":"MultiPolygon","arcs":[[[-698,-697,-1519,502,-1556,504,-945]],[[-944,506,-700]]],"id":"NO.VL.4649","properties":{"hc-group":"admin2","hc-key":"no-vl-4649","hc-a2":"ST","name":"Stad","hc-middle-lon":5.78,"hc-middle-lat":62.039}},{"type":"Polygon","arcs":[[-1517,-1440,1575,-1500,-1444,486,-1446,-998,491,-996,493,-995,495,-994,497,-947,-1558]],"id":"NO.VL.4647","properties":{"hc-group":"admin2","hc-key":"no-vl-4647","hc-a2":"SU","name":"Sunnfjord","hc-middle-lon":6.082,"hc-middle-lat":61.459}},{"type":"MultiPolygon","arcs":[[[633,-1443,635,-1501,-1576,-1439]],[[629,-1442,-1434]],[[627,-1433]],[[1576,1576,1576]]],"id":"NO.VL.4640","properties":{"hc-group":"admin2","hc-key":"no-vl-4640","hc-a2":"SO","name":"Sogndal","hc-middle-lon":6.741,"hc-middle-lat":61.322}},{"type":"Polygon","arcs":[[-1527,525,-888,527,-887,529,-1481,-1574]],"id":"NO.MR.1507","properties":{"hc-group":"admin2","hc-key":"no-mr-1507","hc-a2":"ÅL","name":"Ålesund","hc-middle-lon":6.656,"hc-middle-lat":62.511}},{"type":"Polygon","arcs":[[419,-1237,421,-932,-1264,-1238]],"id":"NO.TD.5001","properties":{"hc-group":"admin2","hc-key":"no-td-5001","hc-a2":"TR","name":"Trondheim","hc-middle-lon":10.391,"hc-middle-lat":63.31}},{"type":"Polygon","arcs":[[-1243,-1241,-1269,-1428,-1561,1577,412,1578,414,-949,416]],"id":"NO.TD.5059","properties":{"hc-group":"admin2","hc-key":"no-td-5059","hc-a2":"OR","name":"Orkland","hc-middle-lon":9.591,"hc-middle-lat":63.268}},{"type":"MultiPolygon","arcs":[[[-1578,-1560,675,407,677,408,405,676,410,678,411]]],"id":"NO.MR.5055","properties":{"hc-group":"admin2","hc-key":"no-mr-5055","hc-a2":"HE","name":"Heim","hc-middle-lon":8.796,"hc-middle-lat":63.252}},{"type":"Polygon","arcs":[[-854,390,-1495,392,-1496,-952]],"id":"NO.MR.1579","properties":{"hc-group":"admin2","hc-key":"no-mr-1579","hc-a2":"HU","name":"Hustadvika","hc-middle-lon":7.269,"hc-middle-lat":62.89}},{"type":"Polygon","arcs":[[-961,-1563,383]],"id":"NO.TD.5049","properties":{"hc-group":"admin2","hc-key":"no-td-5049","hc-a2":"FL","name":"Flatanger","hc-middle-lon":10.797,"hc-middle-lat":64.438}},{"type":"MultiPolygon","arcs":[[[-1552,-1429,-919,-1170,375,-1169,1579,-964,-958]],[[377,-1167]]],"id":"NO.TD.5006","properties":{"hc-group":"admin2","hc-key":"no-td-5006","hc-a2":"ST","name":"Steinkjer","hc-middle-lon":11.383,"hc-middle-lat":64.042}},{"type":"Polygon","arcs":[[-1580,-1168,379,1580,-965]],"id":"NO.TD.5054","properties":{"hc-group":"admin2","hc-key":"no-td-5054","hc-a2":"IF","name":"Indre Fosen","hc-middle-lon":10.324,"hc-middle-lat":63.685}},{"type":"Polygon","arcs":[[-966,-1581,380]],"id":"NO.TD.5057","properties":{"hc-group":"admin2","hc-key":"no-td-5057","hc-a2":"ØR","name":"Ørland","hc-middle-lon":9.872,"hc-middle-lat":63.786}},{"type":"MultiPolygon","arcs":[[[267,-1510]],[[1581,265,-1509,654,655,656,657,541]],[[1582,264]]],"id":"NO.NO.1806","properties":{"hc-group":"admin2","hc-key":"no-no-1806","hc-a2":"NA","name":"Narvik","hc-middle-lon":17.132,"hc-middle-lat":68.274}},{"type":"MultiPolygon","arcs":[[[-1582,542,-903,-862,263,-1583]],[[159]]],"id":"NO.NO.1875","properties":{"hc-group":"admin2","hc-key":"no-no-1875","hc-a2":"HA","name":"Hamarøy","hc-middle-lon":16.032,"hc-middle-lat":67.892}},{"type":"Polygon","arcs":[[-656,1583,210,-1406]],"id":"NO.TF.5414","properties":{"hc-group":"admin2","hc-key":"no-tf-5414","hc-a2":"GR","name":"Gratangen","hc-middle-lon":17.525,"hc-middle-lat":68.706}},{"type":"Polygon","arcs":[[608,-1505,1584,-1162,-1150,-772]],"id":"NO.VI.3026","properties":{"hc-group":"admin2","hc-key":"no-vi-3026","hc-a2":"AH","name":"Aurskog-Høland","hc-middle-lon":11.601,"hc-middle-lat":59.81}},{"type":"MultiPolygon","arcs":[[[-1412,216,-1533]],[[37]]],"id":"NO.TF.5421","properties":{"hc-group":"admin2","hc-key":"no-tf-5421","hc-a2":"SE","name":"Senja","hc-middle-lon":17.65,"hc-middle-lat":69.306}},{"type":"MultiPolygon","arcs":[[[-655,-654,209,-1584]],[[428,680,-661,1585,1586,582,679]],[[38]]],"id":"NO.TF.5412","properties":{"hc-group":"admin2","hc-key":"no-tf-5412","hc-a2":"TJ","name":"Tjeldsund","hc-middle-lon":16.781,"hc-middle-lat":68.545}},{"type":"Polygon","arcs":[[-1586,-660,-659,580,1587]],"id":"NO.TF.5411","properties":{"hc-group":"admin2","hc-key":"no-tf-5411","hc-a2":"KV","name":"Kvæfjord","hc-middle-lon":16,"hc-middle-lat":68.665}},{"type":"MultiPolygon","arcs":[[[-1587,-1588,581]],[[39]]],"id":"NO.TF.5402","properties":{"hc-group":"admin2","hc-key":"no-tf-5402","hc-a2":"HA","name":"Harstad","hc-middle-lon":16.411,"hc-middle-lat":68.777}},{"type":"Polygon","arcs":[[-1487,-1488,-755,1588,-974,-969,464],[-968]],"id":"NO.VT.3805","properties":{"hc-group":"admin2","hc-key":"no-vt-3805","hc-a2":"LA","name":"Larvik","hc-middle-lon":9.987,"hc-middle-lat":59.214}},{"type":"MultiPolygon","arcs":[[[461,-973]],[[459,-972]]],"id":"NO.VT.3811","properties":{"hc-group":"admin2","hc-key":"no-vt-3811","hc-a2":"FÆ","name":"Færder","hc-middle-lon":10.411,"hc-middle-lat":59.263}},{"type":"MultiPolygon","arcs":[[[-1312,606,751,-1315]],[[603,-604,1589]],[[601,1590]]],"id":"NO.VI.3005","properties":{"hc-group":"admin2","hc-key":"no-vi-3005","hc-a2":"DR","name":"Drammen","hc-middle-lon":10.185,"hc-middle-lat":59.698}},{"type":"Polygon","arcs":[[602,603,604,-1311,-1493,600,-1591]],"id":"NO.VI.3025","properties":{"hc-group":"admin2","hc-key":"no-vi-3025","hc-a2":"AS","name":"Asker","hc-middle-lon":10.458,"hc-middle-lat":59.712}},{"type":"MultiPolygon","arcs":[[[619,-1491]],[[-1189,-1196,615,1591,-1194,617,-1490]]],"id":"NO.VI.3002","properties":{"hc-group":"admin2","hc-key":"no-vi-3002","hc-a2":"MO","name":"Moss","hc-middle-lon":10.708,"hc-middle-lat":59.418}},{"type":"Polygon","arcs":[[540,722,-1547,1592,-1018]],"id":"NO.VI.5435","properties":{"hc-group":"admin2","hc-key":"no-vi-5435","hc-a2":"NF","name":"Norde Follo","hc-middle-lon":10.863,"hc-middle-lat":59.728}},{"type":"Polygon","arcs":[[-1585,-1504,-1360,-1358,-1191,-1489,-1019,-1593,-1546,-1163]],"id":"NO.VI.3014","properties":{"hc-group":"admin2","hc-key":"no-vi-3014","hc-a2":"IØ","name":"Indre Østfold","hc-middle-lon":11.151,"hc-middle-lat":59.608}},{"type":"Polygon","arcs":[[-1221,-1226,-758,-1011,-1008]],"id":"NO.VT.3817","properties":{"hc-group":"admin2","hc-key":"no-vt-3817","hc-a2":"MT","name":"Midt-Telemark","hc-middle-lon":9.172,"hc-middle-lat":59.439}},{"type":"Polygon","arcs":[[-752,598,-975,-1589,-754,-753]],"id":"NO.VT.3802","properties":{"hc-group":"admin2","hc-key":"no-vt-3802","hc-a2":"HO","name":"Holmestrand","hc-middle-lon":10.149,"hc-middle-lat":59.558}},{"type":"Polygon","arcs":[[81]],"id":"NO.TD.5014","properties":{"hc-group":"admin2","hc-key":"no-td-5014","hc-a2":"FR","name":"Frøya","hc-middle-lon":8.56,"hc-middle-lat":63.74}},{"type":"Polygon","arcs":[[160]],"id":"NO.NO.1827","properties":{"hc-group":"admin2","hc-key":"no-no-1827","hc-a2":"DØ","name":"Dønna","hc-middle-lon":12.465,"hc-middle-lat":66.111}},{"type":"MultiPolygon","arcs":[[[199,-1321]],[[40]]],"id":"NO.TF.5444","properties":{"hc-group":"admin2","hc-key":"no-tf-5444","hc-a2":"SV","name":"Sør-Varanger","hc-middle-lon":29.488,"hc-middle-lat":69.487}},{"type":"Polygon","arcs":[[196,1593,1594]],"id":"NO.TF.5404","properties":{"hc-group":"admin2","hc-key":"no-tf-5404","hc-a2":"VA","name":"Vardø","hc-middle-lon":30.612,"hc-middle-lat":70.336}},{"type":"Polygon","arcs":[[191,1595,-1322,-849,-1211]],"id":"NO.TF.5438","properties":{"hc-group":"admin2","hc-key":"no-tf-5438","hc-a2":"LE","name":"Lebesby","hc-middle-lon":26.814,"hc-middle-lat":70.553}},{"type":"Polygon","arcs":[[105]],"id":"NO.MR.1573","properties":{"hc-group":"admin2","hc-key":"no-mr-1573","hc-a2":"SM","name":"Smøla","hc-middle-lon":7.981,"hc-middle-lat":63.393}},{"type":"Polygon","arcs":[[203,-1025,-803,-1214,-1562]],"id":"NO.TF.5430","properties":{"hc-group":"admin2","hc-key":"no-tf-5430","hc-a2":"G/","name":"Guovdageaidnu / Kautokeino","hc-middle-lon":23.763,"hc-middle-lat":69.149}},{"type":"Polygon","arcs":[[194,1596,-1324]],"id":"NO.TF.5440","properties":{"hc-group":"admin2","hc-key":"no-tf-5440","hc-a2":"BE","name":"Berlevåg","hc-middle-lon":29.111,"hc-middle-lat":70.68}},{"type":"Polygon","arcs":[[192,-1323,-1596]],"id":"NO.TF.5439","properties":{"hc-group":"admin2","hc-key":"no-tf-5439","hc-a2":"GA","name":"Gamvik","hc-middle-lon":27.89,"hc-middle-lat":70.739}},{"type":"Polygon","arcs":[[195,-1595,1597,-1597]],"id":"NO.TF.5443","properties":{"hc-group":"admin2","hc-key":"no-tf-5443","hc-a2":"BÅ","name":"Båtsfjord","hc-middle-lon":29.998,"hc-middle-lat":70.511}},{"type":"Polygon","arcs":[[398,-1559]],"id":"NO.MR.1560","properties":{"hc-group":"admin2","hc-key":"no-mr-1560","hc-a2":"TI","name":"Tingvoll","hc-middle-lon":8.15,"hc-middle-lat":62.941}},{"type":"Polygon","arcs":[[220,-810,-1534,-1531,218,-812]],"id":"NO.TF.5422","properties":{"hc-group":"admin2","hc-key":"no-tf-5422","hc-a2":"BA","name":"Balsfjord","hc-middle-lon":19.226,"hc-middle-lat":69.27}},{"type":"Polygon","arcs":[[197,-1320,-1325,-1598,-1594]],"id":"NO.TF.5405","properties":{"hc-group":"admin2","hc-key":"no-tf-5405","hc-a2":"VA","name":"Vadsø","hc-middle-lon":29.69,"hc-middle-lat":70.262}},{"type":"Polygon","arcs":[[-1111,-1123,-1485,-1483]],"id":"NO.IN.3428","properties":{"hc-group":"admin2","hc-key":"no-in-3428","hc-a2":"AL","name":"Alvdal","hc-middle-lon":10.508,"hc-middle-lat":62.098}},{"type":"MultiLineString","arcs":[[0],[1],[2,3],[4],[5],[6],[7,8],[9,10],[11],[12],[13],[14],[15],[16,17,18,19],[20],[21],[22],[23],[24],[25],[26],[27],[28],[29],[30],[31,32],[33],[34,35],[36],[37],[38],[39],[40],[41],[42],[43,44],[45],[46],[47],[48],[49,50,51,52,53],[54,55,56,57,58],[59,60,61,62,63,64,65,66,67,68],[69],[70],[71],[72],[73],[74],[75],[76],[77],[78],[79],[80],[81],[82],[83],[84],[85],[86],[87,88,89,90],[91,92,93,94,95,96,97,98],[99],[100],[101],[102,103],[104],[105],[106],[107],[108,109,110,111],[112,113],[114],[115],[116],[117],[118],[119],[120,121],[122],[123],[124],[125,126],[127,128,129,130,131,132],[133],[134,135,136,137,138,139,140,141,142],[143],[144],[145],[146,147],[148],[149],[150],[151],[152],[153],[154],[155],[156,157],[158],[159],[160],[161],[162],[163],[164],[165],[166],[167,168,169,170],[171],[172],[173],[174],[175],[176],[177],[178],[179,180,181,182,183,184,185,186,187,188,189,190,191,192,193,194,195,196,197,198,199,200,201,202,203,204,205,206,207,208],[209,210,211,212,213,214,215,216,217,218,219,220,221,222,223,224,225,226,227,228,229],[230,231,232,233,234,235,236,237,238,239,240,241,242,243,244,245,246,247,248,249,250,251,252,253,254,255,256,257,258,259,260,261,262,263,264,265,266,267,268],[269,270,271,272,273],[274],[275,276,277,278,279,280,281,282,283,284,285,286,287,288,289,290,291,292,293,294,295,296,297,298,299,300,301,302,303,304,305,306,307,308,309,310,311,312,313,314,315,316,317,318,319,320,321,322,323,324,325,326,327,328,329],[330,331],[332,333,334,335],[336,337,338,339,340,341,342,343,344,345,346,347,348,349,350,351,352,353,354,355,356,357,358,359,360,361,362,363,364,365,366,367,368,369,370,371],[372,373,374,375,376,377,378,379,380,381,382,383,384,385,386,387],[388],[389,390,391,392,393,394,395,396,397,398,399,400,401,402],[403],[404],[405],[406],[407],[408],[409],[410],[411,412,413,414,415,416,417,418,419,420,421,422,423,424,425],[426],[427],[428],[429],[430,431,432,433,434,435,436,437,438,439,440,441,442,443,444,445,446,447,448,449,450,451,452,453,454,455],[456,457,458,459,460,461,462,463,464,465,466,467,468,469,470,471],[472],[473,474,475,476,477,478,479,480],[481,482,483,484,485,486,487,488,489,490,491,492,493,494,495,496,497,498,499,500,501,502,503,504,505,506],[507,508,509,510,511,512,513,514,515,516,517,518,519,520,521,522,523,524,525,526,527,528,529,530,531,532,533,534],[535,536,537],[538],[539,540],[541,542,543,544,545,546,547,548],[549,550,551,552,553,554,555,556,557,558,559,560,561,562,563,564,565,566,567,568,569,570,571,572,573,574,575,576,577,578],[579],[580,581,582],[583],[584],[585,586,587],[588],[589],[590],[591],[592,593,594,595,596,597],[598],[599,600,601,602,603,604,605,606],[607],[608,609,610,611,612,613,614,615,616,617,618,619,620,621,622,623],[-608],[624,625,626,627,628,629,630,631,632,633,634,635,636,637],[638],[639,640,641,642,643,644,645],[646,647,648,649,650,651,652],[653,654,655,656,657],[653,654,655,656,657],[658,659,660],[658,659,660],[661],[661],[662,663,664,665,666],[662,663,664,665,666],[667,668,669,670],[667,668,669,670],[671],[671],[672,673,674,675],[672,673,674,675],[676],[676],[677],[677],[678],[678],[679],[679],[680],[680],[429],[429],[681,682,683,684,685,686,687,688,689,690,691,692],[681,682,683,684,685,686,687,688,689,690,691,692],[693],[693],[694,695,696,697,698,699],[694,695,696,697,698,699],[700,701,702,703,704,705],[700,701,702,703,704,705],[706,707,708],[706,707,708],[709,710,711,712,713,714],[709,710,711,712,713,714],[715,716,717,718,719,720],[715,716,717,718,719,720],[721],[721],[722,723,724,725,726,727],[722,723,724,725,726,727],[728,729],[728,729],[730,731,732,733,734,735],[730,731,732,733,734,735],[736,737,738,739,740],[736,737,738,739,740],[741,742,743,744,745,746,747,748,749],[741,742,743,744,745,746,747,748,749],[750],[750],[751,752,753,754,755,756,757,758,759,760,761,762,763],[751,752,753,754,755,756,757,758,759,760,761,762,763],[764,765,766,767,768,769,770],[764,765,766,767,768,769,770],[771,772,773,774,775,776,777,778,779,780,781,782,783,784,785,786],[771,772,773,774,775,776,777,778,779,780,781,782,783,784,785,786],[787,788],[787,788],[789],[789],[790,791],[790,791],[792],[792],[793,794,795],[793,794,795],[796,797,798,799],[796,797,798,799]],"properties":{"hc-group":"__border_lines__"}}],"hc-recommended-transform":{"default":{"crs":"+proj=utm +zone=33 +datum=WGS84 +units=m +no_defs","scale":0.000471559186022,"jsonres":15.5,"jsonmarginX":-999,"jsonmarginY":9851,"xoffset":-76023.181595,"yoffset":7939205.65692}}}},"arcs":[[[6459,9129],[-13,-20],[-47,20],[17,19],[43,-19]],[[6146,9175],[-25,-5],[-13,34],[14,25],[33,-32],[-9,-22]],[[6013,9011],[8,24],[57,11],[-1,-66]],[[6077,8980],[-39,-22],[-20,5],[-5,48]],[[6112,9143],[31,0],[28,-26],[54,6],[-46,-22],[-14,-27],[-52,1],[-17,40],[16,28]],[[6069,9169],[-38,-19],[5,39],[-35,-30],[-29,7],[-16,27],[10,52],[65,49],[55,0],[34,-31],[-20,-61],[8,-36],[-39,3]],[[5232,8978],[12,30],[28,-8],[-2,-20],[-38,-2]],[[5357,9138],[-40,-35],[-11,11],[0,47]],[[5306,9161],[11,38],[30,-7],[10,-33],[31,36],[33,-25],[-64,-32]],[[5559,8973],[-83,-20],[-30,39],[-75,49],[-30,9],[-13,25],[51,-5],[27,22],[-38,18]],[[5368,9110],[38,27],[69,1],[-21,36],[55,16],[18,-25],[25,9],[-11,-35],[37,-30],[29,41],[34,8],[9,-48],[27,21],[12,-27],[-54,-26],[-9,-29],[-42,-57],[-25,-19]],[[5125,8758],[-33,31],[-42,15],[53,35],[39,-6],[20,-28],[42,37],[-42,-2],[-40,53],[111,1],[50,-13],[-7,14],[-77,7],[-24,34],[12,21],[48,-12],[-1,-20],[39,40],[27,1],[-5,-37],[25,-52],[31,73],[-39,39],[-3,39],[31,-12],[23,12],[5,-31],[58,-9],[27,-35],[-10,-33],[-46,-34],[-41,-13],[-13,-27],[16,-13],[4,-30],[-34,-19],[-40,10],[-139,-36],[-25,0]],[[7690,9908],[28,-10],[-17,-27],[-28,19],[17,18]],[[7616,9945],[21,4],[-24,-56],[-59,23],[37,39],[25,-10]],[[7350,9845],[51,3],[-19,-29],[-24,1],[-34,-4],[-37,24],[38,8],[-38,13],[20,34],[48,-3],[-5,-47]],[[6463,9315],[-21,16],[14,79],[30,-23],[1,-27],[-24,-45]],[[6749,9332],[-16,4],[-6,10]],[[6727,9346],[-1,0],[-19,27]],[[6707,9373],[36,10],[6,24],[43,-14],[32,22]],[[6824,9415],[11,-45],[6,38],[20,0],[17,-40],[49,-7],[16,-57],[-101,6],[-93,22]],[[7824,9335],[6,-21],[-38,-17],[18,36],[14,2]],[[8024,9624],[-18,-7],[-8,23],[23,12],[3,-28]],[[4825,8347],[-18,35],[37,37],[37,6],[-4,-27],[-52,-51]],[[5638,9187],[-72,14],[3,30],[31,2],[47,-33],[-9,-13]],[[5385,9261],[0,-38],[-38,11],[21,25],[17,2]],[[5893,9281],[-9,6],[1,60],[32,-32],[-24,-34]],[[5481,9297],[24,12],[20,-53],[-9,-39],[-47,-13],[-41,26],[54,35],[-18,27],[17,5]],[[5632,9054],[61,33],[30,31],[23,-8],[9,-16],[-52,-82],[-90,-20],[-16,15],[35,47]],[[5740,9160],[-26,19],[-1,39],[-44,63],[-36,24],[53,30],[9,-31],[34,-29],[10,-32],[19,31],[30,-32],[41,-4],[-28,-12],[66,-25],[-38,-9],[-29,-31],[-60,-1]],[[4729,8181],[-116,-34],[2,36],[64,66],[14,-33],[36,-35]],[[4840,8254],[-53,-47],[-29,-9],[-17,17],[-7,39],[-27,25],[6,20],[46,-49],[0,46],[36,-3],[45,-39]],[[6899,9414],[31,20],[-25,23],[46,35],[40,18],[9,-17],[46,17],[8,-29],[15,53],[21,-15],[10,22],[48,-13],[-56,56],[62,1],[16,-31],[-3,-48],[24,-9],[3,-26],[-27,-42],[-40,-27]],[[7127,9402],[-63,-28],[24,-18],[-62,-27],[-43,0],[-7,35],[18,66],[-36,-56],[-59,40]],[[7204,9621],[-18,27],[26,35],[40,1],[2,-31],[54,1],[26,-16],[13,-30],[23,-23],[-10,-23],[-89,-58],[-44,8],[-36,95],[13,14]],[[6854,9687],[64,-28],[-15,-17],[29,-26],[21,47],[36,-10],[17,16],[-51,46],[23,17],[26,-17],[0,26],[42,-36],[22,1],[-7,63],[50,-25],[7,-29],[-28,-5],[5,-30],[-20,6],[-30,-54],[-41,10],[9,-31],[-36,-51],[-27,13],[-7,-23],[-79,-38],[-22,26]],[[6842,9538],[-34,5],[-4,-29],[-24,-17],[-30,21],[-8,-28],[-26,15],[-22,-11],[-21,32],[-15,-40],[-40,-5],[36,73],[37,26],[-122,-11],[24,27],[-47,11],[36,8],[57,-21],[13,33],[71,-37],[-17,55],[15,7],[30,-24],[18,31],[43,-22],[-22,-27],[88,-4],[-36,63],[12,18]],[[8040,9844],[-63,11],[7,-25],[-83,-8],[-44,39],[55,26],[-41,10],[-48,-17],[-13,29],[40,30],[24,-10],[4,23],[89,-31],[-9,24],[-49,35],[43,19],[6,-16],[47,8],[-8,-32],[35,-12],[49,22],[9,-29],[-54,-26],[13,-10],[3,-22],[46,-5],[59,34],[-11,-35],[-41,-21],[-65,-11]],[[4817,8472],[-55,-36],[-28,-43],[9,-19],[-53,-6],[26,52],[-109,-24],[-16,13],[13,37],[91,10],[10,37],[-70,10],[-7,21],[25,11],[54,-6],[8,18],[-69,31],[-4,18],[82,-5],[-34,26],[5,15],[-68,-4],[24,30],[52,-9],[25,10],[92,-15],[-39,26],[62,0],[18,11],[-96,19],[-20,37],[77,-16],[-28,41],[54,-17],[46,-34],[24,-5],[-31,47],[-25,13],[-11,45],[18,-3],[38,-60],[25,-6],[-11,65],[7,6],[30,-48],[32,40],[21,-42],[-17,-27],[0,-42],[37,59],[41,-21],[-26,-10],[-16,-42],[22,-14],[29,12],[3,-55],[-50,-7],[-18,-19],[18,-51],[-28,-1],[31,-52],[-45,-7],[-51,0],[-36,-13],[-47,-1],[16,36],[-22,0],[-35,-36]],[[4331,7898],[30,23],[-22,5],[40,68],[46,10],[26,-14],[21,-38],[-36,-16],[10,-26],[-63,-2],[-41,-24],[-11,14]],[[4395,8331],[16,21],[61,-26],[38,5],[12,-16],[-12,-45],[-65,11],[-50,50]],[[9514,8929],[-31,6],[43,57],[-5,40],[24,18],[44,-16],[10,-47],[25,-11],[-69,-30],[-22,14],[-19,-31]],[[208,1534],[3,-30],[-30,-6],[-10,18],[37,18]],[[233,1580],[14,-37],[-11,-25],[-35,39],[11,47],[21,-24]],[[244,1633],[0,-1],[0,1]],[[244,1633],[14,24],[-14,-24]],[[17,2121],[16,-5],[6,-15],[-17,-9],[-5,29]],[[128,1943],[17,-23],[47,-16],[16,-23],[-1,-41],[-25,-12],[3,31],[-26,16],[-4,29],[-24,3],[-3,36]],[[69,2002],[7,-31],[-23,2],[3,56],[13,-27]],[[123,1859],[47,-93],[-9,-39],[15,-52],[-20,-5],[-7,34],[-17,-11],[-20,51],[30,12],[-19,19],[-9,75],[9,9]],[[307,1444],[16,-71],[-29,-34],[-35,18]],[[259,1357],[-5,6],[-8,30]],[[246,1393],[-1,3]],[[245,1396],[-2,10]],[[243,1406],[-14,47],[21,52],[32,-15],[25,-46]],[[332,1447],[-5,-1],[-8,16]],[[319,1462],[-1,7]],[[318,1469],[-3,25],[-17,-8]],[[298,1486],[-8,5],[-11,9]],[[279,1500],[-2,24],[27,3],[5,36],[74,19],[1,-47],[-21,-41],[14,-36],[-45,-11]],[[386,2045],[9,-9],[-6,-107]],[[389,1929],[1,-47],[-25,-23],[-36,-6]],[[329,1853],[-10,7],[-5,8]],[[314,1868],[-30,44],[-26,25]],[[258,1937],[-1,1],[1,1]],[[258,1939],[4,2]],[[262,1941],[1,0]],[[263,1941],[36,21],[56,43]],[[355,2005],[3,31],[5,7]],[[363,2043],[12,6],[11,-4]],[[233,1373],[32,-70],[-13,-15],[-8,45],[-24,4],[-25,-56],[11,-20],[5,-31],[-18,-18],[-16,47],[7,45],[22,35],[-43,6],[9,46],[27,17],[34,-35]],[[2698,5402],[-83,-52],[-15,10],[24,42],[74,0]],[[2486,4406],[-27,-2],[-52,-41],[11,35],[66,22],[2,-14]],[[1663,4306],[28,7],[18,-31],[-50,-13],[4,37]],[[1584,4269],[20,25],[31,4],[8,-48],[34,10],[37,-29],[-26,-26],[-94,-35],[-53,-3],[-81,-37],[-43,0],[-42,24],[14,36],[38,37],[100,12],[-51,19],[92,28],[16,-17]],[[2351,5310],[36,-6],[-51,-27],[-22,33],[37,0]],[[2422,5211],[13,30],[-29,1],[-37,-31],[-30,-1],[98,71],[68,-40],[-19,-24],[-51,-23],[-13,17]],[[2355,5263],[61,35],[28,-4],[-78,-45],[-61,-45],[18,56],[32,3]],[[2581,5004],[-13,-33],[-31,17],[5,53],[39,-37]],[[2537,5054],[-14,-40],[-26,31],[-27,-2],[4,28],[45,14],[18,-31]],[[2561,4918],[-37,12],[-12,20],[-40,-5],[-20,36],[17,14],[7,16],[-41,-5],[-15,32],[16,17],[70,-46],[16,-39],[44,-1],[-5,-51]],[[1999,4581],[-14,-24],[-17,22],[16,17],[15,-15]],[[1468,4326],[-80,-18],[7,25],[71,14],[84,41],[-29,4],[-2,12],[55,15],[7,-72],[-31,-24],[-109,-13],[27,16]],[[1386,3927],[-43,0],[-10,41],[25,1],[28,-42]],[[1341,3920],[-64,-15],[-35,30],[57,48],[29,-23],[13,-40]],[[1419,3972],[5,43],[63,-63],[-3,-17],[-54,-13],[-31,13],[-29,42],[4,32],[29,-6],[16,-31]],[[817,3689],[46,3],[-15,-63],[-38,26],[7,34]],[[407,3316],[8,-1],[-4,-26],[-48,2],[44,25]],[[345,3258],[53,12],[39,-18],[-7,-52]],[[430,3200],[-30,-14],[-60,2]],[[340,3188],[-5,3],[-2,4]],[[333,3195],[-9,17],[21,46]],[[453,3247],[3,6]],[[456,3253],[0,1]],[[456,3254],[-1,0]],[[455,3254],[-16,62],[12,31],[45,14]],[[496,3361],[17,-42],[30,-18],[-47,-35]],[[496,3266],[-3,-4]],[[493,3262],[-3,-3]],[[490,3259],[-25,-24],[-12,12]],[[563,3468],[0,-24],[-44,18],[40,26],[4,-20]],[[595,3376],[39,-14],[-1,-14],[-86,-2],[-25,27],[73,3]],[[855,3597],[4,-26],[-92,-32],[-9,22],[14,35],[22,-6],[42,17],[19,-10]],[[1150,3847],[19,25],[16,-10],[42,14],[10,-14],[-48,-47],[-39,26]],[[1150,3841],[-1,1],[1,5]],[[1055,3815],[-12,27],[39,0],[23,-27],[15,53],[16,15],[2,-44],[21,-34],[-69,-46],[-50,26],[15,30]],[[1256,4069],[-60,13],[-11,30],[56,21],[30,26],[36,-7],[31,-56],[-36,-46],[-35,-10],[-30,20],[19,9]],[[3302,6672],[34,-4],[-7,-14],[-71,-7],[44,25]],[[3143,6406],[-21,-59],[-37,23],[19,19],[-12,24],[26,11],[25,-18]],[[3013,6516],[-5,1],[0,5]],[[3008,6522],[15,18],[17,-20]],[[3040,6520],[-12,-27],[-13,21]],[[3015,6514],[-2,2]],[[3117,6486],[-20,-15],[-13,8]],[[3084,6479],[22,28],[11,-21]],[[2805,6465],[-10,-14],[-6,12],[11,6],[5,-4]],[[3489,6882],[-43,-12],[2,24],[25,7],[16,-19]],[[3604,6922],[18,34],[20,7],[-30,-63],[4,-56],[-17,-6],[-22,46],[-41,12],[29,43],[39,-17]],[[3224,6290],[-90,-40],[22,34],[64,11],[4,-5]],[[3088,6309],[23,-10],[4,-36],[-20,-21],[-25,4],[-17,28],[35,35]],[[2947,5896],[-23,-11],[15,26],[31,17],[-23,-32]],[[3042,6046],[-24,-12],[-49,-48],[-5,15],[-42,-5],[39,67],[48,31],[3,-32],[59,29]],[[3071,6091],[53,-2],[-82,-43]],[[4018,7571],[-31,0],[-10,22],[28,31],[13,-53]],[[3932,7572],[26,25],[12,-33],[57,-24],[-48,-12],[-72,5],[2,42],[23,-3]],[[3878,7781],[-9,-15],[-30,17],[35,41],[25,-17],[-21,-26]],[[3592,7808],[-31,13],[3,27],[65,-14],[1,-43],[-24,0]],[[3606,7791],[-12,13],[-2,4]],[[3749,7895],[-1,1],[-2,4]],[[3746,7900],[40,22],[20,-39],[7,40],[27,-3],[10,-28],[-25,-22]],[[3825,7870],[-1,-7],[14,4]],[[3838,7867],[34,23],[7,36],[42,-5],[62,20],[-52,-69],[-34,-9],[-7,-20]],[[3890,7843],[-62,-50],[-16,2],[19,42],[-15,15],[-23,-66],[-66,-40],[-113,-34],[-1,37],[61,31],[-21,53],[22,6],[14,-25],[37,22],[-42,43],[41,10],[37,-14]],[[3762,7875],[-2,10],[-11,10]],[[3901,8260],[-43,9],[11,32],[32,-2],[0,-39]],[[3923,8180],[-9,-4],[8,0]],[[3922,8176],[22,-12],[-19,-28],[-45,-23],[-35,0],[4,20]],[[3849,8133],[0,2]],[[3849,8135],[-1,4],[-3,-2]],[[3845,8137],[-22,-34],[-29,15],[-22,-47],[-69,-10],[-25,57],[66,37],[-40,15],[33,39],[24,-52],[8,52],[30,14],[0,-51],[27,13]],[[3826,8185],[32,16],[14,-28],[24,18],[-15,47],[18,16],[20,-55],[17,45],[41,-28],[-34,47],[-24,78],[50,25],[6,-40],[33,-36],[21,-6],[-15,-57]],[[4014,8227],[26,21],[22,-5],[-12,-37],[-25,0],[-4,-31],[45,-24],[1,-28],[-23,-32],[-44,-24]],[[4000,8067],[-59,-31],[-72,4],[-21,40],[88,28]],[[3936,8108],[43,21],[-5,41],[-51,10]],[[2765,5847],[6,-49],[-20,-31],[-59,20],[25,57],[48,3]],[[2951,5862],[-39,-52],[-14,13],[17,23],[36,16]],[[2847,5679],[-23,-44],[-23,-14],[19,24],[27,34]],[[2861,5604],[-18,15],[64,54],[-6,21],[-44,-16],[29,83],[20,-39],[44,-49],[18,-61],[-19,-12]],[[2949,5600],[-39,-30],[-48,-5],[14,-33],[-64,-50],[17,67],[-16,4],[16,37],[32,14]],[[2869,6088],[6,-18],[-16,-6],[5,10],[5,14]],[[2824,7240],[19,0],[-3,-9],[-22,-7],[6,16]],[[3054,7344],[-56,-11],[30,23],[25,9],[1,-21]],[[3690,7158],[-2,-18],[-63,-17],[55,49],[10,-14]],[[3809,8034],[108,-17],[-25,-36],[-81,-12],[-44,52],[42,13]],[[4244,8545],[90,50],[16,-35],[-32,-94],[-69,-63],[-11,-25],[-82,-33],[-31,23],[8,-29],[-16,-49],[-37,-23],[-2,60],[14,38],[41,71],[34,25],[50,17],[27,67]],[[3383,7717],[-41,-20],[19,31],[-5,27],[37,13],[-43,12],[51,39],[59,-19],[31,44],[41,8],[4,-60],[36,18],[27,-20],[-18,-36],[-30,-20],[-79,-29],[8,-17],[-27,-14],[-19,15],[-2,-34],[-28,-5],[-7,28],[-25,9],[2,-29],[-19,-31],[-22,23],[12,27],[38,40]],[[2782,5375],[39,37],[-5,20],[2,22],[37,27],[30,-38],[-18,-30],[32,-10],[-29,-33],[-29,-9],[-59,14]],[[3159,7633],[25,17],[-2,26],[38,-15],[-36,-40],[19,-3],[6,-36]],[[3209,7582],[-8,-31],[-50,22],[-1,-26],[28,-15],[-12,-28],[-44,-17],[-10,-23],[-31,-12],[42,113],[36,68]],[[3289,7662],[-22,33],[6,16],[54,-19],[-32,-88],[-13,14],[-31,-33],[-23,57],[23,24],[28,-25],[10,21]],[[4151,7585],[-51,13],[34,18],[109,1],[28,-23],[-36,-10],[-51,21],[-33,-20]],[[3014,6197],[-25,-20],[38,-14],[-43,-39],[-91,-35],[107,109],[-55,11],[62,25],[7,-37]],[[748,179],[2,-23],[-17,3],[-22,30],[37,-10]],[[305,887],[-27,34],[13,25],[20,-27],[-6,-32]],[[98,1003],[2,-8],[-16,-7],[-3,11],[17,4]],[[284,820],[17,-3],[-17,-31],[-6,15],[6,19]],[[364,866],[64,-17],[-10,-31],[-66,39],[12,9]],[[466,891],[-30,-22],[-6,28],[20,18],[16,-24]],[[536,980],[1,1]],[[537,981],[14,-8],[-37,-34]],[[514,939],[-28,9],[9,31],[38,3]],[[533,982],[3,-2]],[[201,1028],[13,51],[39,-108],[-6,-79],[-23,-22],[-26,42],[5,73],[18,-4],[-20,47]],[[68,2229],[18,2],[19,-41],[-16,-11],[-39,50],[18,0]],[[147,2166],[-26,15],[-4,53],[20,-14],[10,-54]],[[36,2303],[-13,-30],[-23,55],[21,16],[15,-41]],[[86,2385],[-10,46],[21,-20],[23,6],[10,-44],[-36,-49],[-13,35],[-23,-29],[-1,68],[29,-13]],[[161,3048],[19,13],[12,-22],[-21,-53],[-29,8],[13,26],[-26,47],[32,-19]],[[219,2926],[-39,-21],[2,27],[-43,-46],[-46,-8],[14,32],[-47,11],[24,37],[33,4],[102,-36]],[[2419,820],[17,2],[-14,-38],[-21,5],[1,32],[17,-1]],[[6273,9099],[40,38],[22,0],[63,-30],[18,-26],[-10,-21],[68,-34],[55,-44],[19,-36],[49,-29],[-10,41],[-54,34],[32,-2],[5,18],[-32,15],[-5,50],[9,31],[33,-1],[9,24],[-70,-3],[-26,19],[16,14],[63,4],[36,45],[-54,-28],[-46,7],[-45,-25],[-39,29],[-39,-5],[-29,44],[24,20],[-53,-9],[-29,9],[-20,34]],[[6273,9282],[80,38],[19,-47],[8,64],[28,14],[19,-38],[27,-8],[63,-79],[-19,92],[62,42],[8,-28],[37,13],[0,-45],[13,30],[48,9],[18,-18],[-21,-32],[12,-48],[-20,-20],[63,6],[59,-17]],[[6777,9210],[0,1]],[[6777,9211],[-21,15],[-67,16],[18,62],[18,8]],[[6725,9312],[95,-28],[110,-12],[2,-13],[-41,-49],[-48,-18],[-69,-12],[-45,3],[-15,-22],[95,11],[26,15],[58,8],[57,31],[-8,-49],[13,-40],[32,10],[16,-69],[48,32],[17,-35],[53,29],[26,29],[-92,12],[-46,40],[70,17],[16,19],[-39,21],[47,21],[-54,2],[-2,21],[81,7],[-7,16],[-67,-10],[40,27],[65,9],[-9,27],[-31,-6],[23,38]],[[7142,9394],[85,62],[33,36],[30,9],[150,-20],[-30,32],[-47,18],[58,44],[12,45],[21,19],[56,-10],[44,-39],[41,-4],[3,25]],[[7598,9611],[-28,42],[-43,28],[-95,14],[-18,16],[10,40],[48,21],[25,-36],[57,-30],[5,67],[37,4],[-34,16],[-23,32],[31,11],[-26,9],[30,12],[40,-7],[32,-31],[-14,-15],[62,4],[4,44],[26,-10],[-35,-62],[36,-18],[29,52],[34,-37],[12,-36],[-7,-26],[36,16],[13,33]],[[7842,9764],[1,6]],[[7843,9770],[6,28],[-20,40],[9,17],[48,-28]],[[7886,9827],[16,-12],[-16,-34],[-26,-14],[107,27],[15,-25],[52,26],[16,-30],[-38,-22],[-38,-39],[-36,-9],[10,-21],[-32,-28]],[[7916,9646],[-47,-29],[-35,-41],[-95,-64],[-11,-16],[65,19],[-1,-31],[-70,2],[15,-13],[55,5],[5,-70],[-23,10],[-44,-30],[41,-15],[5,-26],[-84,-58],[-12,-55],[6,-58],[28,-13],[-12,42],[34,26],[-6,-36],[21,-21],[44,18],[22,53],[28,18],[59,78],[-44,20],[87,88],[82,94],[45,32],[18,43]],[[8092,9618],[13,38],[115,118],[90,61],[20,4]],[[8330,9839],[25,-42],[-22,-51],[27,-6],[-39,-89],[-115,-45],[60,11],[61,-17],[-37,-92],[8,-32],[-27,-34],[-2,-52],[19,-8],[35,21],[5,35],[45,10],[12,31],[50,2],[1,-15],[40,10],[-33,47],[34,55],[81,-19],[-52,31],[-10,22],[20,20],[-30,16],[24,29],[55,2],[-3,24],[26,38],[106,-16],[-57,16],[21,16],[-47,52],[-27,-24],[-56,9],[-25,20],[18,35],[68,-19],[-45,41],[8,23],[84,-15],[30,-40],[11,47],[-23,39],[18,23],[27,-2],[3,24]],[[8702,9970],[25,-17],[-6,-29],[67,-22],[62,26],[18,-23],[39,34],[25,-23],[-28,-45],[18,-15],[42,21],[56,-4],[21,-14],[-24,-69],[-43,-2],[28,-16],[-38,-15],[8,-15],[-52,4],[28,-14],[-28,-21],[-104,9],[-72,-4],[25,-16],[-20,-21],[47,19],[41,-19],[47,-5],[-23,-26],[-52,-12],[-53,-38],[-54,-23],[54,6],[136,49],[46,30]],[[8938,9660],[5,-49],[-21,-30],[-90,-66],[-55,-34],[14,-41],[11,34],[102,23],[-39,-20],[18,-27],[47,52],[31,5],[-61,-92],[-6,-113],[3,-85],[-38,-54],[44,39],[16,45],[-12,84],[20,98],[29,19],[13,34],[28,9],[23,-38],[25,49],[-28,1],[-32,28],[46,99]],[[9031,9630],[35,-3],[-32,36],[75,96],[26,19],[99,8],[2,-19],[60,-3],[31,-43],[39,-11],[-42,-31],[46,-6],[-35,-9],[11,-22],[-27,-10],[19,-16],[23,28],[48,7],[68,28],[25,-7]],[[9502,9672],[6,-34],[-38,-53],[54,11],[64,60],[43,-2],[38,-22],[-42,-26],[55,-10],[37,-21],[-4,-17],[-77,-25],[15,-20],[111,27],[48,-14],[-8,-19],[64,-40]],[[9868,9467],[30,-38],[44,32],[51,-68],[-16,-32],[22,-31],[-55,-16],[-145,-11],[-35,-36]],[[9764,9267],[-38,-21],[10,-14],[-25,-28],[-66,-19],[6,-17],[-361,40]],[[9290,9208],[-208,45],[-22,-16],[59,5],[-54,-36],[21,-16],[41,9],[28,-14],[-43,-6],[72,-8],[26,-14],[55,2],[21,-16],[-13,-22],[60,6]],[[9333,9127],[139,-35],[-93,-52],[-29,-32],[28,2],[29,36],[86,-2],[13,-52],[-47,-51],[-63,-84],[74,57],[84,0],[49,30],[-11,-38],[30,10],[13,-24],[27,-8],[-29,45],[37,22],[-19,20],[3,52],[46,5],[-7,-31],[49,-5],[4,-104],[-19,-26],[32,8],[14,106],[82,-7],[7,-29],[38,19],[26,-43],[26,-80],[-6,-55],[-46,-25],[-114,10],[-37,37],[-101,61],[-4,-20],[18,-56],[-25,-42],[-2,-34],[-41,-41],[-25,-8],[-31,14],[-48,-25],[-61,-55],[-66,4],[-42,-22],[10,-44],[-27,-93],[-76,-78],[-70,50],[-19,26],[10,86],[147,132],[45,61],[-64,121],[-14,43],[-276,94],[-28,23]],[[8959,9000],[4,13],[2,11]],[[8965,9024],[-70,31],[-66,70],[-10,59],[-82,-21],[-47,9],[-33,-38],[-38,-5],[-58,-30],[11,-16],[-105,-36],[-16,18],[-38,-2],[-13,21],[-45,-10],[-20,13],[-81,-17],[-40,-74],[-37,-19],[-59,0]],[[8118,8977],[58,1],[-5,-19],[-53,-50],[-35,-4],[-47,-45],[33,-41],[-15,-29],[-36,-23],[13,-10],[-25,-76],[14,-26],[-33,-41],[-25,-104],[18,-45],[-7,-49],[20,-47],[-56,-95],[-55,9],[-31,-12]],[[7851,8271],[-50,-29],[-42,-39],[-19,-90],[5,-29],[-19,-17],[-58,-11],[-5,-39],[-18,6],[-27,57],[-66,34],[-117,27],[-56,28],[3,27],[-33,-8],[-34,37],[-42,6],[-37,-13],[-39,-86],[-88,-10],[-103,-49],[-45,47],[-93,-2],[-100,43],[-62,-21],[-12,84],[-57,69],[-6,29],[-73,89]],[[6558,8411],[-51,53],[-83,101],[-132,27]],[[6292,8592],[-69,-39],[-25,-20]],[[6198,8533],[-16,-32],[25,-53],[21,-14],[-19,-51],[-130,63],[-62,-45],[-186,-11]],[[5831,8390],[93,-91],[11,-94],[-49,-103],[-58,-58],[-43,-24]],[[5785,8020],[109,-52],[-94,-77],[-21,-25],[-354,123],[-138,-8],[-82,57],[-105,-35]],[[4509,7929],[-20,2],[-18,52],[29,26],[24,-12],[-12,64],[21,22],[69,30],[68,21],[60,-57],[-13,50],[34,9]],[[4751,8