{"type":"Topology","objects":{"default":{"type":"GeometryCollection","geometries":[{"type":"MultiPolygon","arcs":[[[0,1,-2,2]],[[3,4,5,6,7,-8,7,-8,7,8,9,-10,9,10,11,12,-13,13,14,15,16,17,18,19]]],"id":"relation/404139","properties":{"name":"Vaksdal","region":"Vestland","hc-group":"admin2","hc-key":"no-vl-4628","hc-a2":"VA","hc-middle-lon":5.95,"hc-middle-lat":60.675}},{"type":"Polygon","arcs":[[20,14,-15,-14,12,21,22,23,24,-25,24,25,26]],"id":"relation/404140","properties":{"name":"Modalen","region":"Vestland","hc-group":"admin2","hc-key":"no-vl-4629","hc-a2":"MO","hc-middle-lon":5.93,"hc-middle-lat":60.879}},{"type":"MultiPolygon","arcs":[[[27,28,29,-3,1,30,31,32]],[[16,-17,33]],[[-19,18,34]]],"id":"relation/404141","properties":{"name":"Osterøy","region":"Vestland","hc-group":"admin2","hc-key":"no-vl-4630","hc-a2":"OS","hc-middle-lon":5.524,"hc-middle-lat":60.571}},{"type":"Polygon","arcs":[[35,36,37,38,39,40,-41,40,-41,40,41,-42,41,-26,-25,24,-25,-24,42,43]],"id":"relation/404143","properties":{"name":"Masfjorden","region":"Vestland","hc-group":"admin2","hc-key":"no-vl-4634","hc-a2":"MA","hc-middle-lon":5.496,"hc-middle-lat":60.845}},{"type":"Polygon","arcs":[[44,45]],"id":"relation/404145","properties":{"name":"Austrheim","region":"Vestland","hc-group":"admin2","hc-key":"no-vl-4632","hc-a2":"AU","hc-middle-lon":4.986,"hc-middle-lat":60.776}},{"type":"Polygon","arcs":[[46]],"id":"relation/404146","properties":{"name":"Fedje","region":"Vestland","hc-group":"admin2","hc-key":"no-vl-4633","hc-a2":"FE","hc-middle-lon":4.716,"hc-middle-lat":60.77}},{"type":"MultiPolygon","arcs":[[[47,48,49,50,-51,51,52,53,-54,54]],[[55,-56,56]],[[57,-58,58]]],"id":"relation/404149","properties":{"name":"Ulvik","region":"Vestland","hc-group":"admin2","hc-key":"no-vl-4620","hc-a2":"UL","hc-middle-lon":7.242,"hc-middle-lat":60.605}},{"type":"Polygon","arcs":[[59,60,61,62,-51,-50,63,-58,64,65]],"id":"relation/404151","properties":{"name":"Eidfjord","region":"Vestland","hc-group":"admin2","hc-key":"no-vl-4619","hc-a2":"EI","hc-middle-lon":7.258,"hc-middle-lat":60.346}},{"type":"MultiPolygon","arcs":[[[66,-67,67]],[[68,69,-6,70,71]],[[72,-73,73]],[[74,-75,75]]],"id":"relation/404155","properties":{"name":"Kvam herad","region":"Vestland","hc-group":"admin2","hc-key":"no-vl-4622","hc-a2":"KV","hc-middle-lon":6.191,"hc-middle-lat":60.321}},{"type":"MultiPolygon","arcs":[[[76]],[[77,-78,78]],[[79,-80,80]],[[81,-82,82]]],"id":"relation/404157","properties":{"name":"Askøy","region":"Vestland","hc-group":"admin2","hc-key":"no-vl-4627","hc-a2":"AS","hc-middle-lon":5.12,"hc-middle-lat":60.471}},{"type":"MultiPolygon","arcs":[[[83,84,85,86,87,88,-89,88,89,90,-4,91,-80,92,-82,93,-78]],[[28,-29]]],"id":"relation/404159","properties":{"name":"Bergen","region":"Vestland","hc-group":"admin2","hc-key":"no-vl-4601","hc-a2":"BE","hc-middle-lon":5.427,"hc-middle-lat":60.367}},{"type":"MultiPolygon","arcs":[[[94,-95,95]],[[96,97,98,99,-71,-5,-91]],[[100,-101,101]]],"id":"relation/404160","properties":{"name":"Samnanger","region":"Vestland","hc-group":"admin2","hc-key":"no-vl-4623","hc-a2":"SA","hc-middle-lon":5.781,"hc-middle-lat":60.407}},{"type":"MultiPolygon","arcs":[[[102,103]],[[-103,104]],[[105,105,105]]],"id":"relation/404164","properties":{"name":"Austevoll","region":"Vestland","hc-group":"admin2","hc-key":"no-vl-4625","hc-a2":"AU","hc-middle-lon":5.169,"hc-middle-lat":60.056}},{"type":"MultiPolygon","arcs":[[[106,107,108,109,110]],[[111,-112,112,-113]],[[113,-114,114]]],"id":"relation/404165","properties":{"name":"Tysnes","region":"Vestland","hc-group":"admin2","hc-key":"no-vl-4616","hc-a2":"TY","hc-middle-lon":5.556,"hc-middle-lat":59.99}},{"type":"MultiPolygon","arcs":[[[115,116,117,118,119,-120,119,120,121]],[[106,-107,122]],[[108,-109,123]]],"id":"relation/404166","properties":{"name":"Fitjar","region":"Vestland","hc-group":"admin2","hc-key":"no-vl-4615","hc-a2":"FI","hc-middle-lon":5.374,"hc-middle-lat":59.893}},{"type":"MultiPolygon","arcs":[[[124,125,126,127,128,129,-114,130]],[[111,131,132,-133,133]],[[134,-135,135]],[[136,-137,137]],[[138,-139]]],"id":"relation/404167","properties":{"name":"Kvinnherad","region":"Vestland","hc-group":"admin2","hc-key":"no-vl-4617","hc-a2":"KV","hc-middle-lon":6.066,"hc-middle-lat":59.983}},{"type":"MultiPolygon","arcs":[[[139,140,141,142,143,144,145,-128,146,-137,147,-135,148]],[[-126,125,149]]],"id":"relation/404168","properties":{"name":"Etne","region":"Vestland","hc-group":"admin2","hc-key":"no-vl-4611","hc-a2":"ET","hc-middle-lon":6.146,"hc-middle-lat":59.799}},{"type":"MultiPolygon","arcs":[[[150,151,-121,-120,119,-120,-119]],[[152,152,152]],[[109,-110,153]],[[154]],[[155,155,155]]],"id":"relation/404169","properties":{"name":"Stord","region":"Vestland","hc-group":"admin2","hc-key":"no-vl-4614","hc-a2":"ST","hc-middle-lon":5.486,"hc-middle-lat":59.828}},{"type":"MultiPolygon","arcs":[[[156]],[[157,-158,158]],[[115,-116,159]],[[160,-151,-118]],[[161,-162,162]]],"id":"relation/404170","properties":{"name":"Bømlo","region":"Vestland","hc-group":"admin2","hc-key":"no-vl-4613","hc-a2":"BØ","hc-middle-lon":5.262,"hc-middle-lat":59.695}},{"type":"Polygon","arcs":[[163,164,165,166,167,-162,168,-158]],"id":"relation/404171","properties":{"name":"Sveio","region":"Vestland","hc-group":"admin2","hc-key":"no-vl-4612","hc-a2":"SV","hc-middle-lon":5.369,"hc-middle-lat":59.605}},{"type":"MultiPolygon","arcs":[[[169,-170,169,170,171,172,173,174],[170,-171,175]]],"id":"relation/404590","properties":{"name":"Horten","region":"Vestfold","hc-group":"admin2","hc-key":"no-vf-3901","hc-a2":"HO","hc-middle-lon":10.436,"hc-middle-lat":59.4}},{"type":"Polygon","arcs":[[176,177,178,179,180,181,182,-183,183,184,185,-186,185,-186,185,186,187],[-180,179,188]],"id":"relation/404591","properties":{"name":"Larvik","region":"Vestfold","hc-group":"admin2","hc-key":"no-vf-3909","hc-a2":"LA","hc-middle-lon":9.994,"hc-middle-lat":59.215}},{"type":"MultiPolygon","arcs":[[[-180,-179,189,190,-191,190,191,-181]],[[179,-180,192]]],"id":"relation/404592","properties":{"name":"Sandefjord","region":"Vestfold","hc-group":"admin2","hc-key":"no-vf-3907","hc-a2":"SA","hc-middle-lon":10.179,"hc-middle-lat":59.214}},{"type":"MultiPolygon","arcs":[[[193,193,193]],[[194,-195,195]]],"id":"relation/404594","properties":{"name":"Færder","region":"Vestfold","hc-group":"admin2","hc-key":"no-vf-3911","hc-a2":"FÆ","hc-middle-lon":10.474,"hc-middle-lat":59.167}},{"type":"MultiPolygon","arcs":[[[196,-197,197,198,-199,198,199,200,201,202,203,204]],[[205,-206,206]],[[207,208,209]]],"id":"relation/404672","properties":{"name":"Fjaler","region":"Vestland","hc-group":"admin2","hc-key":"no-vl-4646","hc-a2":"FJ","hc-middle-lon":5.344,"hc-middle-lat":61.281}},{"type":"MultiPolygon","arcs":[[[205,-210,210,211]],[[-204,203,212]],[[213,-214,214]],[[215,-216,216]],[[217,-218,218]]],"id":"relation/404673","properties":{"name":"Askvoll","region":"Vestland","hc-group":"admin2","hc-key":"no-vl-4645","hc-a2":"AS","hc-middle-lon":5.121,"hc-middle-lat":61.386}},{"type":"Polygon","arcs":[[219,220,221,-200,-199,198,-199,-198,196,222]],"id":"relation/404674","properties":{"name":"Hyllestad","region":"Vestland","hc-group":"admin2","hc-key":"no-vl-4637","hc-a2":"HY","hc-middle-lon":5.22,"hc-middle-lat":61.181}},{"type":"MultiPolygon","arcs":[[[223]],[[224]],[[225]],[[226,-220,227]]],"id":"relation/404731","properties":{"name":"Solund","region":"Vestland","hc-group":"admin2","hc-key":"no-vl-4636","hc-a2":"SO","hc-middle-lon":4.877,"hc-middle-lat":61.096}},{"type":"Polygon","arcs":[[228,229,230,-231,230,231,232,233,-234,234,235,236,237]],"id":"relation/405157","properties":{"name":"Vinje","region":"Telemark","hc-group":"admin2","hc-key":"no-te-4036","hc-a2":"VI","hc-middle-lon":7.71,"hc-middle-lat":59.807}},{"type":"Polygon","arcs":[[-236,238,239,-240,239,240,241,242,243,244,-245,244,245,246,247,248,249]],"id":"relation/405158","properties":{"name":"Tinn","region":"Telemark","hc-group":"admin2","hc-key":"no-te-4026","hc-a2":"TI","hc-middle-lon":8.523,"hc-middle-lat":59.975}},{"type":"Polygon","arcs":[[250,251,252,-253,252,253,254,255,-246,-245,244,-245,-244,-243,256,257]],"id":"relation/405159","properties":{"name":"Notodden","region":"Telemark","hc-group":"admin2","hc-key":"no-te-4005","hc-a2":"NO","hc-middle-lon":9.147,"hc-middle-lat":59.687}},{"type":"Polygon","arcs":[[-241,258,257,-258,-257,242,-243,-242]],"id":"relation/405160","properties":{"name":"Hjartdal","region":"Telemark","hc-group":"admin2","hc-key":"no-te-4024","hc-a2":"HJ","hc-middle-lon":8.697,"hc-middle-lat":59.692}},{"type":"Polygon","arcs":[[233,-234,233,259,260,261,-251,-258,-259,240,-241,-240,239,-240,-239,-235]],"id":"relation/405161","properties":{"name":"Seljord","region":"Telemark","hc-group":"admin2","hc-key":"no-te-4022","hc-a2":"SE","hc-middle-lon":8.562,"hc-middle-lat":59.573}},{"type":"Polygon","arcs":[[262,263,264,265,-261,266]],"id":"relation/405163","properties":{"name":"Kviteseid","region":"Telemark","hc-group":"admin2","hc-key":"no-te-4028","hc-a2":"KV","hc-middle-lon":8.512,"hc-middle-lat":59.409}},{"type":"MultiPolygon","arcs":[[[267,268,269,-266]]],"id":"relation/405164","properties":{"name":"Nome","region":"Telemark","hc-group":"admin2","hc-key":"no-te-4018","hc-a2":"NO","hc-middle-lon":9.132,"hc-middle-lat":59.264}},{"type":"Polygon","arcs":[[270,271,272,273,274,275,276,277,-278,277,278,279,280,-269]],"id":"relation/405166","properties":{"name":"Skien","region":"Telemark","hc-group":"admin2","hc-key":"no-te-4003","hc-a2":"SK","hc-middle-lon":9.504,"hc-middle-lat":59.266}},{"type":"Polygon","arcs":[[281,282,283,284,-271,-268,-265]],"id":"relation/405167","properties":{"name":"Drangedal","region":"Telemark","hc-group":"admin2","hc-key":"no-te-4016","hc-a2":"DR","hc-middle-lon":8.989,"hc-middle-lat":59.091}},{"type":"Polygon","arcs":[[285,286,287,288,289,290,-263,291,292,-293,292,293]],"id":"relation/405168","properties":{"name":"Fyresdal","region":"Telemark","hc-group":"admin2","hc-key":"no-te-4032","hc-a2":"FY","hc-middle-lon":8.051,"hc-middle-lat":59.145}},{"type":"Polygon","arcs":[[294,295,-294,-293,292,-293,-292,-267,-260,-234,-233,296]],"id":"relation/405169","properties":{"name":"Tokke","region":"Telemark","hc-group":"admin2","hc-key":"no-te-4034","hc-a2":"TO","hc-middle-lon":7.928,"hc-middle-lat":59.464}},{"type":"Polygon","arcs":[[-278,277,-278,-277,297,-188,298,-279]],"id":"relation/405170","properties":{"name":"Siljan","region":"Telemark","hc-group":"admin2","hc-key":"no-te-4010","hc-a2":"SI","hc-middle-lon":9.729,"hc-middle-lat":59.31}},{"type":"Polygon","arcs":[[274,299,300,301,-177,-298,-276,-275]],"id":"relation/405171","properties":{"name":"Porsgrunn","region":"Telemark","hc-group":"admin2","hc-key":"no-te-4001","hc-a2":"PO","hc-middle-lon":9.752,"hc-middle-lat":59.11}},{"type":"MultiPolygon","arcs":[[[302,303,304,272,-273,-272,-285]],[[300,-301,305]]],"id":"relation/405172","properties":{"name":"Bamble","region":"Telemark","hc-group":"admin2","hc-key":"no-te-4012","hc-a2":"BA","hc-middle-lon":9.514,"hc-middle-lat":59.023}},{"type":"MultiPolygon","arcs":[[[306,307,308,-303,-284]],[[303,-304,309]]],"id":"relation/405173","properties":{"name":"Kragerø","region":"Telemark","hc-group":"admin2","hc-key":"no-te-4014","hc-a2":"KR","hc-middle-lon":9.353,"hc-middle-lat":58.886}},{"type":"Polygon","arcs":[[310,311,312,-313,313,314,-282,-264,-291]],"id":"relation/405174","properties":{"name":"Nissedal","region":"Telemark","hc-group":"admin2","hc-key":"no-te-4030","hc-a2":"NI","hc-middle-lon":8.56,"hc-middle-lat":59.049}},{"type":"MultiPolygon","arcs":[[[315]]],"id":"relation/405219","properties":{"name":"Frøya","region":"Trøndelag","hc-group":"admin2","hc-key":"no-td-5014","hc-a2":"FR","hc-middle-lon":8.832,"hc-middle-lat":63.921}},{"type":"Polygon","arcs":[[316]],"id":"relation/405267","properties":{"name":"Smøla","region":"Møre og Romsdal","hc-group":"admin2","hc-key":"no-mr-1573","hc-a2":"SM","hc-middle-lon":7.98,"hc-middle-lat":63.394}},{"type":"Polygon","arcs":[[317,318,319,320]],"id":"relation/405317","properties":{"name":"Osen","region":"Trøndelag","hc-group":"admin2","hc-key":"no-td-5020","hc-a2":"OS","hc-middle-lon":10.656,"hc-middle-lat":64.297}},{"type":"MultiPolygon","arcs":[[[321]],[[322,323]],[[-323,324,35,-36,-44,325,326]]],"id":"relation/405322","properties":{"name":"Gulen","region":"Vestland","hc-group":"admin2","hc-key":"no-vl-4635","hc-a2":"GU","hc-middle-lon":5.201,"hc-middle-lat":60.947}},{"type":"MultiPolygon","arcs":[[[327,328]],[[329,330,331]]],"id":"relation/405652","properties":{"name":"Randaberg","region":"Rogaland","hc-group":"admin2","hc-key":"no-ro-1127","hc-a2":"RA","hc-middle-lon":5.593,"hc-middle-lat":59.005}},{"type":"Polygon","arcs":[[332,333,334,335,-330,336]],"id":"relation/405653","properties":{"name":"Sola","region":"Rogaland","hc-group":"admin2","hc-key":"no-ro-1124","hc-a2":"SO","hc-middle-lon":5.617,"hc-middle-lat":58.892}},{"type":"Polygon","arcs":[[337,338,339,-340,339,340,341,-334,-333,342]],"id":"relation/405655","properties":{"name":"Klepp","region":"Rogaland","hc-group":"admin2","hc-key":"no-ro-1120","hc-a2":"KL","hc-middle-lon":5.608,"hc-middle-lat":58.763}},{"type":"MultiPolygon","arcs":[[[343,344,345,346,347,348,349,350,351,352]],[[353,354,355]]],"id":"relation/405657","properties":{"name":"Strand","region":"Rogaland","hc-group":"admin2","hc-key":"no-ro-1130","hc-a2":"ST","hc-middle-lon":6.052,"hc-middle-lat":59.02}},{"type":"Polygon","arcs":[[356,357,358,-359,359,360,361,-341,-340,339,-340,-339]],"id":"relation/405786","properties":{"name":"Time","region":"Rogaland","hc-group":"admin2","hc-key":"no-ro-1121","hc-a2":"TI","hc-middle-lon":5.766,"hc-middle-lat":58.707}},{"type":"Polygon","arcs":[[362,363,364,-357,-338]],"id":"relation/405787","properties":{"name":"Hå","region":"Rogaland","hc-group":"admin2","hc-key":"no-ro-1119","hc-a2":"HÅ","hc-middle-lon":5.732,"hc-middle-lat":58.593}},{"type":"Polygon","arcs":[[365,366,367,368,369]],"id":"relation/405788","properties":{"name":"Sokndal","region":"Rogaland","hc-group":"admin2","hc-key":"no-ro-1111","hc-a2":"SO","hc-middle-lon":6.311,"hc-middle-lat":58.377}},{"type":"Polygon","arcs":[[-369,-368,367,370,371,372]],"id":"relation/405824","properties":{"name":"Lund","region":"Rogaland","hc-group":"admin2","hc-key":"no-ro-1112","hc-a2":"LU","hc-middle-lon":6.447,"hc-middle-lat":58.464}},{"type":"Polygon","arcs":[[373,-370,-373,374,375,-364]],"id":"relation/405825","properties":{"name":"Eigersund","region":"Rogaland","hc-group":"admin2","hc-key":"no-ro-1101","hc-a2":"EI","hc-middle-lon":6.172,"hc-middle-lat":58.502}},{"type":"Polygon","arcs":[[-365,-376,376,377,-359,-358]],"id":"relation/405826","properties":{"name":"Bjerkreim","region":"Rogaland","hc-group":"admin2","hc-key":"no-ro-1114","hc-a2":"BJ","hc-middle-lon":6.244,"hc-middle-lat":58.654}},{"type":"MultiPolygon","arcs":[[[358,-378,378,379,380,381,-361,360,-361,-360]],[[382,-383,383]]],"id":"relation/405827","properties":{"name":"Gjesdal","region":"Rogaland","hc-group":"admin2","hc-key":"no-ro-1122","hc-a2":"GJ","hc-middle-lon":6.232,"hc-middle-lat":58.831}},{"type":"MultiPolygon","arcs":[[[-348,384,385,386,387,388,389]],[[-351,350,390]],[[391,391,391]],[[392,393,394,395,396]]],"id":"relation/405829","properties":{"name":"Hjelmeland","region":"Rogaland","hc-group":"admin2","hc-key":"no-ro-1133","hc-a2":"HJ","hc-middle-lon":6.437,"hc-middle-lat":59.206}},{"type":"MultiPolygon","arcs":[[[397,398,399,400]],[[-396,401,-387,402,-229,403,404,-405,404,405,406,407]],[[408,409,-144,410]],[[-389,388,411]]],"id":"relation/405830","properties":{"name":"Suldal","region":"Rogaland","hc-group":"admin2","hc-key":"no-ro-1134","hc-a2":"SU","hc-middle-lon":6.549,"hc-middle-lat":59.542}},{"type":"MultiPolygon","arcs":[[[412]],[[413,414]],[[415,416]]],"id":"relation/405832","properties":{"name":"Karmøy","region":"Rogaland","hc-group":"admin2","hc-key":"no-ro-1149","hc-a2":"KA","hc-middle-lon":5.278,"hc-middle-lat":59.279}},{"type":"Polygon","arcs":[[417]],"id":"relation/405833","properties":{"name":"Bokn","region":"Rogaland","hc-group":"admin2","hc-key":"no-ro-1145","hc-a2":"BO","hc-middle-lon":5.421,"hc-middle-lat":59.2}},{"type":"Polygon","arcs":[[418,-415,419,420,-164]],"id":"relation/405834","properties":{"name":"Haugesund","region":"Rogaland","hc-group":"admin2","hc-key":"no-ro-1106","hc-a2":"HA","hc-middle-lon":5.29,"hc-middle-lat":59.449}},{"type":"MultiPolygon","arcs":[[[-416,421,422,423,424,-165,-421]],[[-398,397]]],"id":"relation/405835","properties":{"name":"Tysvær","region":"Rogaland","hc-group":"admin2","hc-key":"no-ro-1146","hc-a2":"TY","hc-middle-lon":5.631,"hc-middle-lat":59.389}},{"type":"Polygon","arcs":[[-410,425,-407,426,-145]],"id":"relation/405837","properties":{"name":"Sauda","region":"Rogaland","hc-group":"admin2","hc-key":"no-ro-1135","hc-a2":"SA","hc-middle-lon":6.436,"hc-middle-lat":59.704}},{"type":"MultiPolygon","arcs":[[[-425,427,-400,428,-411,-143,429,-166]],[[-423,422,430]],[[-140,139]]],"id":"relation/405845","properties":{"name":"Vindafjord","region":"Rogaland","hc-group":"admin2","hc-key":"no-ro-1160","hc-a2":"VI","hc-middle-lon":5.822,"hc-middle-lat":59.55}},{"type":"Polygon","arcs":[[431,432,-433,433,434,435,436,437,438,439,440]],"id":"relation/405951","properties":{"name":"Indre Fosen","region":"Trøndelag","hc-group":"admin2","hc-key":"no-td-5054","hc-a2":"IN","hc-middle-lon":10.317,"hc-middle-lat":63.68}},{"type":"MultiPolygon","arcs":[[[441,442,443,444,445,-446,446,447,-448,447,448,-371,-368,-367]],[[449]],[[450,-451,451]]],"id":"relation/405973","properties":{"name":"Flekkefjord","region":"Agder","hc-group":"admin2","hc-key":"no-ag-4207","hc-a2":"FL","hc-middle-lon":6.653,"hc-middle-lat":58.381}},{"type":"Polygon","arcs":[[-375,-372,-449,-448,447,-448,-447,445,452,453,-454,453,454,455,456,457,-458,458,459,-460,459,460,461,462,-463,462,463,464,465,466,-379,-377]],"id":"relation/405974","properties":{"name":"Sirdal","region":"Agder","hc-group":"admin2","hc-key":"no-ag-4228","hc-a2":"SI","hc-middle-lon":6.821,"hc-middle-lat":58.845}},{"type":"MultiPolygon","arcs":[[[442,-443,467]],[[468,469,470,-471,470,471,472,473,-474,473,474,475,476,-456,-455,-454,453,-454,-453,-446,-445,477]]],"id":"relation/405975","properties":{"name":"Kvinesdal","region":"Agder","hc-group":"admin2","hc-key":"no-ag-4227","hc-a2":"KV","hc-middle-lon":6.949,"hc-middle-lat":58.518}},{"type":"Polygon","arcs":[[478,479,-480,479,480,481,482,-483,482,483,484,485,-476]],"id":"relation/405976","properties":{"name":"Åseral","region":"Agder","hc-group":"admin2","hc-key":"no-ag-4224","hc-a2":"ÅS","hc-middle-lon":7.404,"hc-middle-lat":58.684}},{"type":"Polygon","arcs":[[486,-487,486,487,488,-489,488,489,490,491,-492,492,493,-494,493,494,495,496,497,498]],"id":"relation/405980","properties":{"name":"Vennesla","region":"Agder","hc-group":"admin2","hc-key":"no-ag-4223","hc-a2":"VE","hc-middle-lon":7.851,"hc-middle-lat":58.34}},{"type":"MultiPolygon","arcs":[[[499,-469,-451,500]],[[501,502]],[[503,504,-505,504,505,-506,506]],[[-506,505,507]]],"id":"relation/405986","properties":{"name":"Farsund","region":"Agder","hc-group":"admin2","hc-key":"no-ag-4206","hc-a2":"FA","hc-middle-lon":6.766,"hc-middle-lat":58.138}},{"type":"Polygon","arcs":[[-474,473,-474,-473,508,509,-510,509,510,-481,-480,479,-480,-479,-475]],"id":"relation/405987","properties":{"name":"Hægebostad","region":"Agder","hc-group":"admin2","hc-key":"no-ag-4226","hc-a2":"HÆ","hc-middle-lon":7.223,"hc-middle-lat":58.477}},{"type":"MultiPolygon","arcs":[[[511,512,-513,512,513,514,515,-308,516,517,-518,518]],[[519,520,521]]],"id":"relation/406025","properties":{"name":"Risør","region":"Agder","hc-group":"admin2","hc-key":"no-ag-4201","hc-a2":"RI","hc-middle-lon":9.165,"hc-middle-lat":58.742}},{"type":"Polygon","arcs":[[522,523,524,525,-520,526,-514,-513,512,-513,-512,527,528,529,530]],"id":"relation/406026","properties":{"name":"Tvedestrand","region":"Agder","hc-group":"admin2","hc-key":"no-ag-4213","hc-a2":"TV","hc-middle-lon":8.956,"hc-middle-lat":58.626}},{"type":"Polygon","arcs":[[531,-466,-465,532,-295,-297,-232,-231,230,-231,-230,-403,-386]],"id":"relation/406027","properties":{"name":"Bykle","region":"Agder","hc-group":"admin2","hc-key":"no-ag-4222","hc-a2":"BY","hc-middle-lon":7.226,"hc-middle-lat":59.428}},{"type":"Polygon","arcs":[[-464,-463,462,-463,-462,533,534,-535,534,-535,534,535,536,-537,536,537,-287,-286,-296,-295,294,-533]],"id":"relation/406028","properties":{"name":"Valle","region":"Agder","hc-group":"admin2","hc-key":"no-ag-4221","hc-a2":"VA","hc-middle-lon":7.409,"hc-middle-lat":59.169}},{"type":"Polygon","arcs":[[455,-477,-486,538,539,-540,539,540,541,542,-289,-288,-287,286,-538,-537,536,-537,-536,-535,534,-535,534,-535,-534,-461,-460,459,-460,-459,457,-458,-457,-456]],"id":"relation/406029","properties":{"name":"Bygland","region":"Agder","hc-group":"admin2","hc-key":"no-ag-4220","hc-a2":"BY","hc-middle-lon":7.525,"hc-middle-lat":58.872}},{"type":"Polygon","arcs":[[543,544,-545,544,545,546,-547,546,547,548,-549,548,549,-530,-529,550,-311,-290,-289,288,-543]],"id":"relation/406030","properties":{"name":"Åmli","region":"Agder","hc-group":"admin2","hc-key":"no-ag-4217","hc-a2":"ÅM","hc-middle-lon":8.361,"hc-middle-lat":58.799}},{"type":"Polygon","arcs":[[551,552,-496,553,554,555,-541,-540,539,-540,-539,-485]],"id":"relation/406031","properties":{"name":"Evje og Hornnes","region":"Agder","hc-group":"admin2","hc-key":"no-ag-4219","hc-a2":"EV","hc-middle-lon":7.813,"hc-middle-lat":58.587}},{"type":"Polygon","arcs":[[-495,-494,493,-494,-493,491,-492,-491,556,-554]],"id":"relation/406032","properties":{"name":"Iveland","region":"Agder","hc-group":"admin2","hc-key":"no-ag-4218","hc-a2":"IV","hc-middle-lon":7.946,"hc-middle-lat":58.433}},{"type":"Polygon","arcs":[[-490,557,558,-559,559,560,561,562,-555,-557]],"id":"relation/406033","properties":{"name":"Birkenes","region":"Agder","hc-group":"admin2","hc-key":"no-ag-4216","hc-a2":"BI","hc-middle-lon":8.188,"hc-middle-lat":58.439}},{"type":"MultiPolygon","arcs":[[[563,-564,563,564,565,566,567,568,569,-570,570,560,-561,-560,558,571]]],"id":"relation/406034","properties":{"name":"Lillesand","region":"Agder","hc-group":"admin2","hc-key":"no-ag-4215","hc-a2":"LI","hc-middle-lon":8.302,"hc-middle-lat":58.228}},{"type":"Polygon","arcs":[[-561,-571,569,572,573,574,-575,575,576,-577,576,-577,577,578,579,-562]],"id":"relation/406035","properties":{"name":"Grimstad","region":"Agder","hc-group":"admin2","hc-key":"no-ag-4202","hc-a2":"GR","hc-middle-lon":8.515,"hc-middle-lat":58.374}},{"type":"MultiPolygon","arcs":[[[-579,-578,576,-577,576,-577,-576,574,-575,-574,580,523,-524,-523,581,578]],[[582,582,582]]],"id":"relation/406036","properties":{"name":"Arendal","region":"Agder","hc-group":"admin2","hc-key":"no-ag-4203","hc-a2":"AR","hc-middle-lon":8.738,"hc-middle-lat":58.499}},{"type":"Polygon","arcs":[[-528,-519,517,583,584,-313,-312,-551]],"id":"relation/406037","properties":{"name":"Vegårshei","region":"Agder","hc-group":"admin2","hc-key":"no-ag-4212","hc-a2":"VE","hc-middle-lon":8.819,"hc-middle-lat":58.755}},{"type":"Polygon","arcs":[[-314,312,-585,-584,-518,-517,-307,-283,-315]],"id":"relation/406038","properties":{"name":"Gjerstad","region":"Agder","hc-group":"admin2","hc-key":"no-ag-4211","hc-a2":"GJ","hc-middle-lon":8.973,"hc-middle-lat":58.878}},{"type":"Polygon","arcs":[[585,586,587,588,589,590,-591,590,591,592,593,594,-595,594,595,-586]],"id":"relation/406073","properties":{"name":"Marker","region":"Østfold","hc-group":"admin2","hc-key":"no-of-3122","hc-a2":"MA","hc-middle-lon":11.657,"hc-middle-lat":59.487}},{"type":"Polygon","arcs":[[596,-592,-591,590,-591,-590,-589,588,597,598]],"id":"relation/406074","properties":{"name":"Aremark","region":"Østfold","hc-group":"admin2","hc-key":"no-of-3124","hc-a2":"AR","hc-middle-lon":11.692,"hc-middle-lat":59.186}},{"type":"MultiPolygon","arcs":[[[599,600,-599,601,602,-603,603,-600]]],"id":"relation/406075","properties":{"name":"Halden","region":"Østfold","hc-group":"admin2","hc-key":"no-of-3101","hc-a2":"HA","hc-middle-lon":11.457,"hc-middle-lat":59.069}},{"type":"MultiPolygon","arcs":[[[604]],[[605]],[[606]]],"id":"relation/406076","properties":{"name":"Hvaler","region":"Østfold","hc-group":"admin2","hc-key":"no-of-3110","hc-a2":"HV","hc-middle-lon":10.976,"hc-middle-lat":59.066}},{"type":"Polygon","arcs":[[607,608,-609,609,610,611,-612,612,613,-614,613,614,615,-616,615,616,617,-618,618]],"id":"relation/406077","properties":{"name":"Fredrikstad","region":"Østfold","hc-group":"admin2","hc-key":"no-of-3107","hc-a2":"FR","hc-middle-lon":10.932,"hc-middle-lat":59.226}},{"type":"Polygon","arcs":[[-610,608,619,599,-604,602,620,621,-622,621,622,623,624,625]],"id":"relation/406078","properties":{"name":"Sarpsborg","region":"Østfold","hc-group":"admin2","hc-key":"no-of-3105","hc-a2":"SA","hc-middle-lon":11.148,"hc-middle-lat":59.265}},{"type":"Polygon","arcs":[[-623,-622,621,-622,-621,-603,-602,-598,-589,-588,626,627]],"id":"relation/406079","properties":{"name":"Rakkestad","region":"Østfold","hc-group":"admin2","hc-key":"no-of-3120","hc-a2":"RA","hc-middle-lon":11.393,"hc-middle-lat":59.36}},{"type":"Polygon","arcs":[[628,-624,-628,629,630,-631,630,631]],"id":"relation/406083","properties":{"name":"Skiptvet","region":"Østfold","hc-group":"admin2","hc-key":"no-of-3116","hc-a2":"SK","hc-middle-lon":11.149,"hc-middle-lat":59.471}},{"type":"Polygon","arcs":[[632,-625,-629,633,634,635,636]],"id":"relation/406086","properties":{"name":"Våler","region":"Østfold","hc-group":"admin2","hc-key":"no-of-3114","hc-a2":"VÅ","hc-middle-lon":10.952,"hc-middle-lat":59.465}},{"type":"MultiPolygon","arcs":[[[637,-638,638]],[[639,-618,617,-618,-617,-616,615,-616,-615,-614,613,-614,-613,611,-612,-611,-626,-633,640]]],"id":"relation/406089","properties":{"name":"Råde","region":"Østfold","hc-group":"admin2","hc-key":"no-of-3112","hc-a2":"RÅ","hc-middle-lon":10.845,"hc-middle-lat":59.347}},{"type":"Polygon","arcs":[[641,642,643,644,645,646,647,648]],"id":"relation/406116","properties":{"name":"Hurdal","region":"Akershus","hc-group":"admin2","hc-key":"no-ak-3242","hc-a2":"HU","hc-middle-lon":10.905,"hc-middle-lat":60.427}},{"type":"Polygon","arcs":[[-645,-644,649,650,651,-652,651,652,-653,652,653,654,655,-656,655,656,657,658,659,660,-661,660,-645,644]],"id":"relation/406117","properties":{"name":"Eidsvoll","region":"Akershus","hc-group":"admin2","hc-key":"no-ak-3240","hc-a2":"EI","hc-middle-lon":11.247,"hc-middle-lat":60.415}},{"type":"Polygon","arcs":[[661,662,663,-664,663,664,665,666,667,668,-669,669,670,-654,-653,652,-653,-652,651,-652,-651,671]],"id":"relation/406118","properties":{"name":"Ullensaker","region":"Akershus","hc-group":"admin2","hc-key":"no-ak-3209","hc-a2":"UL","hc-middle-lon":11.189,"hc-middle-lat":60.154}},{"type":"Polygon","arcs":[[-671,672,673,-674,673,674,675,676,677,678,679,680,-681,680,681,682,-683,682,683,684,-685,684,685,686,-687,686,-687,686,-687,686,687,688,689,-657,-656,655,-656,-655]],"id":"relation/406119","properties":{"name":"Nes","region":"Akershus","hc-group":"admin2","hc-key":"no-ak-3228","hc-a2":"NE","hc-middle-lon":11.538,"hc-middle-lat":60.171}},{"type":"Polygon","arcs":[[690,691,-662,-672,-650,-643,-642,641,692,693]],"id":"relation/406121","properties":{"name":"Nannestad","region":"Akershus","hc-group":"admin2","hc-key":"no-ak-3238","hc-a2":"NA","hc-middle-lon":10.95,"hc-middle-lat":60.227}},{"type":"Polygon","arcs":[[694,695,-696,695,696,697,698,-699,698,699,700,701,-691,702]],"id":"relation/406122","properties":{"name":"Nittedal","region":"Akershus","hc-group":"admin2","hc-key":"no-ak-3232","hc-a2":"NI","hc-middle-lon":10.835,"hc-middle-lat":60.081}},{"type":"Polygon","arcs":[[-701,700,-701,703,704,-705,704,705,-665,-664,663,-664,-663,-662,661,-692,-702]],"id":"relation/406123","properties":{"name":"Gjerdrum","region":"Akershus","hc-group":"admin2","hc-key":"no-ak-3230","hc-a2":"GJ","hc-middle-lon":11.014,"hc-middle-lat":60.079}},{"type":"Polygon","arcs":[[706,707,708,-709,709,710,711,-712,711,712,713,714]],"id":"relation/406126","properties":{"name":"Lørenskog","region":"Akershus","hc-group":"admin2","hc-key":"no-ak-3222","hc-a2":"LØ","hc-middle-lon":10.969,"hc-middle-lat":59.897}},{"type":"Polygon","arcs":[[715,716,717,-710,708,-709,-708]],"id":"relation/406127","properties":{"name":"Rælingen","region":"Akershus","hc-group":"admin2","hc-key":"no-ak-3224","hc-a2":"RÆ","hc-middle-lon":11.092,"hc-middle-lat":59.891}},{"type":"Polygon","arcs":[[718,719,720,721,722,-716,-707]],"id":"relation/406129","properties":{"name":"Enebakk","region":"Akershus","hc-group":"admin2","hc-key":"no-ak-3220","hc-a2":"EN","hc-middle-lon":11.088,"hc-middle-lat":59.769}},{"type":"Polygon","arcs":[[723,724,725,726,-727,727,-636,-635,728,729,-730,729,730,-731,731,732,-733,733]],"id":"relation/406133","properties":{"name":"Vestby","region":"Akershus","hc-group":"admin2","hc-key":"no-ak-3216","hc-a2":"VE","hc-middle-lon":10.749,"hc-middle-lat":59.56}},{"type":"Polygon","arcs":[[-734,732,734,735,736,737]],"id":"relation/406134","properties":{"name":"Frogn","region":"Akershus","hc-group":"admin2","hc-key":"no-ak-3214","hc-a2":"FR","hc-middle-lon":10.655,"hc-middle-lat":59.693}},{"type":"Polygon","arcs":[[738,-737]],"id":"relation/406135","properties":{"name":"Nesodden","region":"Akershus","hc-group":"admin2","hc-key":"no-ak-3212","hc-a2":"NE","hc-middle-lon":10.636,"hc-middle-lat":59.79}},{"type":"Polygon","arcs":[[739,740,741,-742,741,742,743,-744,743,744,745,746,747,748,749,-750,750,751,-752,751,752,753,-754,753,754,755]],"id":"relation/406136","properties":{"name":"Bærum","region":"Akershus","hc-group":"admin2","hc-key":"no-ak-3201","hc-a2":"BÆ","hc-middle-lon":10.502,"hc-middle-lat":59.953}},{"type":"Polygon","arcs":[[756,757,-758,757,758,759,-760,759,760,-761,760,761,762,763,764,765]],"id":"relation/406462","properties":{"name":"Rennebu","region":"Trøndelag","hc-group":"admin2","hc-key":"no-td-5022","hc-a2":"RE","hc-middle-lon":9.873,"hc-middle-lat":62.766}},{"type":"Polygon","arcs":[[766,767,768,769,770,-762,-761,760,-761,-760,759,-760,-759,-758,757,-758,-757,771,772]],"id":"relation/406463","properties":{"name":"Oppdal","region":"Trøndelag","hc-group":"admin2","hc-key":"no-td-5021","hc-a2":"OP","hc-middle-lon":9.509,"hc-middle-lat":62.536}},{"type":"Polygon","arcs":[[-764,773,774,775,776,777,778,779]],"id":"relation/406476","properties":{"name":"Midtre Gauldal","region":"Trøndelag","hc-group":"admin2","hc-key":"no-td-5027","hc-a2":"MI","hc-middle-lon":10.494,"hc-middle-lat":62.895}},{"type":"Polygon","arcs":[[780,781,782,783,-776]],"id":"relation/406477","properties":{"name":"Holtålen","region":"Trøndelag","hc-group":"admin2","hc-key":"no-td-5026","hc-a2":"HO","hc-middle-lon":11.3,"hc-middle-lat":62.863}},{"type":"Polygon","arcs":[[784,785,786,787,-788,787,788,789,-790,789,790,791,792,-782]],"id":"relation/406493","properties":{"name":"Røros","region":"Trøndelag","hc-group":"admin2","hc-key":"no-td-5025","hc-a2":"RØ","hc-middle-lon":11.69,"hc-middle-lat":62.57}},{"type":"Polygon","arcs":[[-783,-793,793,794,795]],"id":"relation/406502","properties":{"name":"Tydal","region":"Trøndelag","hc-group":"admin2","hc-key":"no-td-5033","hc-a2":"TY","hc-middle-lon":11.745,"hc-middle-lat":62.971}},{"type":"MultiPolygon","arcs":[[[796,797]],[[798]]],"id":"relation/406510","properties":{"name":"Sør-Varanger","region":"Finnmark","hc-group":"admin2","hc-key":"no-fi-5605","hc-a2":"SØ","hc-middle-lon":29.642,"hc-middle-lat":69.514}},{"type":"Polygon","arcs":[[799,-777,-784,-796,800,801,802,803,804]],"id":"relation/406520","properties":{"name":"Selbu","region":"Trøndelag","hc-group":"admin2","hc-key":"no-td-5032","hc-a2":"SE","hc-middle-lon":11.126,"hc-middle-lat":63.176}},{"type":"MultiPolygon","arcs":[[[805,-806,805,806,778,-779,-778,-800,807,808,809,-810,810,811,-812,811,-812,811,-812,811,-812,811,812,813]],[[814,814,814]]],"id":"relation/406537","properties":{"name":"Melhus","region":"Trøndelag","hc-group":"admin2","hc-key":"no-td-5028","hc-a2":"ME","hc-middle-lon":10.297,"hc-middle-lat":63.18}},{"type":"Polygon","arcs":[[-813,-812,811,-812,811,-812,811,-812,811,-812,-811,809,815,816]],"id":"relation/406540","properties":{"name":"Skaun","region":"Trøndelag","hc-group":"admin2","hc-key":"no-td-5029","hc-a2":"SK","hc-middle-lon":10.061,"hc-middle-lat":63.265}},{"type":"MultiPolygon","arcs":[[[-804,-803,802,817,818,819,820,821,822,-823,822,823]],[[-819,818,824]],[[825,825,825]]],"id":"relation/406554","properties":{"name":"Malvik","region":"Trøndelag","hc-group":"admin2","hc-key":"no-td-5031","hc-a2":"MA","hc-middle-lon":10.774,"hc-middle-lat":63.373}},{"type":"MultiPolygon","arcs":[[[826,827,-828,828,829,830,831,832,833]],[[834]],[[835]],[[836,837]],[[838,839,840,841,-839]]],"id":"relation/406643","properties":{"name":"Loppa","region":"Finnmark","hc-group":"admin2","hc-key":"no-fi-5614","hc-a2":"LO","hc-middle-lon":21.916,"hc-middle-lat":70.215}},{"type":"MultiPolygon","arcs":[[[842,843,-844,843,844,845,846,-847,846,847,848]],[[838,-842,849,850,851]]],"id":"relation/406644","properties":{"name":"Hasvik","region":"Finnmark","hc-group":"admin2","hc-key":"no-fi-5616","hc-a2":"HA","hc-middle-lon":22.425,"hc-middle-lat":70.517}},{"type":"MultiPolygon","arcs":[[[852]],[[853,854,855,856]],[[857]],[[858]],[[859,860]]],"id":"relation/406646","properties":{"name":"Måsøy","region":"Finnmark","hc-group":"admin2","hc-key":"no-fi-5618","hc-a2":"MÅ","hc-middle-lon":24.688,"hc-middle-lat":70.863}},{"type":"MultiPolygon","arcs":[[[861]],[[862,863,864,865,-860,-856]],[[866,867,868]]],"id":"relation/406647","properties":{"name":"Nordkapp","region":"Finnmark","hc-group":"admin2","hc-key":"no-fi-5620","hc-a2":"NO","hc-middle-lon":25.98,"hc-middle-lat":70.911}},{"type":"MultiPolygon","arcs":[[[869,870,871,-867,872,863,-864,-863,-855,873,874]],[[875]]],"id":"relation/406648","properties":{"name":"Porsanger","region":"Finnmark","hc-group":"admin2","hc-key":"no-fi-5622","hc-a2":"PO","hc-middle-lon":25.029,"hc-middle-lat":70.243}},{"type":"Polygon","arcs":[[876,877,878]],"id":"relation/406649","properties":{"name":"Gamvik","region":"Finnmark","hc-group":"admin2","hc-key":"no-fi-5626","hc-a2":"GA","hc-middle-lon":27.95,"hc-middle-lat":70.763}},{"type":"Polygon","arcs":[[879,880,881]],"id":"relation/406650","properties":{"name":"Berlevåg","region":"Finnmark","hc-group":"admin2","hc-key":"no-fi-5630","hc-a2":"BE","hc-middle-lon":29.143,"hc-middle-lat":70.68}},{"type":"Polygon","arcs":[[882,883,884,-881]],"id":"relation/406651","properties":{"name":"Båtsfjord","region":"Finnmark","hc-group":"admin2","hc-key":"no-fi-5632","hc-a2":"BÅ","hc-middle-lon":29.976,"hc-middle-lat":70.515}},{"type":"MultiPolygon","arcs":[[[885,886,-884]]],"id":"relation/406652","properties":{"name":"Vardø","region":"Finnmark","hc-group":"admin2","hc-key":"no-fi-5634","hc-a2":"VA","hc-middle-lon":30.596,"hc-middle-lat":70.333}},{"type":"Polygon","arcs":[[887,888,889,890,-886,-883,891,892]],"id":"relation/406653","properties":{"name":"Vadsø","region":"Finnmark","hc-group":"admin2","hc-key":"no-fi-5607","hc-a2":"VA","hc-middle-lon":29.721,"hc-middle-lat":70.274}},{"type":"Polygon","arcs":[[893,-798,894,-890,-889,-888,887,895]],"id":"relation/406654","properties":{"name":"Nesseby","region":"Finnmark","hc-group":"admin2","hc-key":"no-fi-5636","hc-a2":"NE","hc-middle-lon":28.816,"hc-middle-lat":70.128}},{"type":"Polygon","arcs":[[896,897,898,-896,-888,-893,-892,-880,899,-877,900,-871]],"id":"relation/406655","properties":{"name":"Tana","region":"Finnmark","hc-group":"admin2","hc-key":"no-fi-5628","hc-a2":"TA","hc-middle-lon":27.496,"hc-middle-lat":70.267}},{"type":"Polygon","arcs":[[901,902,-903,902,903,904,905,897,-898,-897,-870,906]],"id":"relation/406656","properties":{"name":"Karasjok","region":"Finnmark","hc-group":"admin2","hc-key":"no-fi-5610","hc-a2":"KA","hc-middle-lon":25.227,"hc-middle-lat":69.392}},{"type":"Polygon","arcs":[[907,904,-905,-904,-903,902,-903,-902,908,909,910]],"id":"relation/406657","properties":{"name":"Kautokeino","region":"Finnmark","hc-group":"admin2","hc-key":"no-fi-5612","hc-a2":"KA","hc-middle-lon":23.693,"hc-middle-lat":69.134}},{"type":"Polygon","arcs":[[-901,-879,911,-868,-872]],"id":"relation/406658","properties":{"name":"Lebesby","region":"Finnmark","hc-group":"admin2","hc-key":"no-fi-5624","hc-a2":"LE","hc-middle-lon":26.825,"hc-middle-lat":70.55}},{"type":"MultiPolygon","arcs":[[[-909,-907,-875,912,913,-837,-832,914]],[[915,850,-851,-850,-841]],[[916,917,918,-919,918,919]]],"id":"relation/406659","properties":{"name":"Alta","region":"Finnmark","hc-group":"admin2","hc-key":"no-fi-5601","hc-a2":"AL","hc-middle-lon":23.202,"hc-middle-lat":70.046}},{"type":"MultiPolygon","arcs":[[[920,921]],[[-921,922]],[[923]],[[924,925]],[[926,-927,927]],[[928,-929,929]]],"id":"relation/406833","properties":{"name":"Aure","region":"Møre og Romsdal","hc-group":"admin2","hc-key":"no-mr-1576","hc-a2":"AU","hc-middle-lon":8.419,"hc-middle-lat":63.279}},{"type":"Polygon","arcs":[[930,-931,930,931,-772,-766,932,933,934,-935,934,935,936]],"id":"relation/406835","properties":{"name":"Rindal","region":"Trøndelag","hc-group":"admin2","hc-key":"no-td-5061","hc-a2":"RI","hc-middle-lon":9.271,"hc-middle-lat":63.003}},{"type":"MultiPolygon","arcs":[[[937,938,939,-940,940,-773,-932,-931,930,-931,-937,941,-938]],[[942,-943,943]]],"id":"relation/406836","properties":{"name":"Surnadal","region":"Møre og Romsdal","hc-group":"admin2","hc-key":"no-mr-1566","hc-a2":"SU","hc-middle-lon":8.813,"hc-middle-lat":62.923}},{"type":"Polygon","arcs":[[944]],"id":"relation/406837","properties":{"name":"Kristiansund","region":"Møre og Romsdal","hc-group":"admin2","hc-key":"no-mr-1505","hc-a2":"KR","hc-middle-lon":7.8,"hc-middle-lat":63.06}},{"type":"Polygon","arcs":[[945,946]],"id":"relation/406838","properties":{"name":"Tingvoll","region":"Møre og Romsdal","hc-group":"admin2","hc-key":"no-mr-1560","hc-a2":"TI","hc-middle-lon":8.159,"hc-middle-lat":62.947}},{"type":"Polygon","arcs":[[947,-767,-941,939,948,-943,949,-946,950,951]],"id":"relation/406839","properties":{"name":"Sunndal","region":"Møre og Romsdal","hc-group":"admin2","hc-key":"no-mr-1563","hc-a2":"SU","hc-middle-lon":8.725,"hc-middle-lat":62.625}},{"type":"MultiPolygon","arcs":[[[952,-953,953]],[[954]],[[955,-956,956]],[[957,957,957]]],"id":"relation/406840","properties":{"name":"Averøy","region":"Møre og Romsdal","hc-group":"admin2","hc-key":"no-mr-1554","hc-a2":"AV","hc-middle-lon":7.521,"hc-middle-lat":63.031}},{"type":"Polygon","arcs":[[958,959,-960,959,-960,959,960,961,-956,962,963]],"id":"relation/406841","properties":{"name":"Gjemnes","region":"Møre og Romsdal","hc-group":"admin2","hc-key":"no-mr-1557","hc-a2":"GJ","hc-middle-lon":7.758,"hc-middle-lat":62.9}},{"type":"Polygon","arcs":[[964,965,966,-967,966,967,968,-969,968,969,970,971,972,973,974,975,976]],"id":"relation/406844","properties":{"name":"Rauma","region":"Møre og Romsdal","hc-group":"admin2","hc-key":"no-mr-1539","hc-a2":"RA","hc-middle-lon":7.715,"hc-middle-lat":62.445}},{"type":"MultiPolygon","arcs":[[[977]],[[978,979,-980,980,981]]],"id":"relation/406847","properties":{"name":"Aukra","region":"Møre og Romsdal","hc-group":"admin2","hc-key":"no-mr-1547","hc-a2":"AU","hc-middle-lon":6.909,"hc-middle-lat":62.804}},{"type":"Polygon","arcs":[[982,983,984,985,-986,985,986,987,-988,987,988,989,-965,-977,990]],"id":"relation/406850","properties":{"name":"Vestnes","region":"Møre og Romsdal","hc-group":"admin2","hc-key":"no-mr-1535","hc-a2":"VE","hc-middle-lon":7.043,"hc-middle-lat":62.55}},{"type":"MultiPolygon","arcs":[[[991,992,993,-994,994,995,996,997,998,999,1000]],[[1001,1002]]],"id":"relation/406852","properties":{"name":"Stranda","region":"Møre og Romsdal","hc-group":"admin2","hc-key":"no-mr-1525","hc-a2":"ST","hc-middle-lon":7.038,"hc-middle-lat":62.168}},{"type":"Polygon","arcs":[[1003,-1004,1004,983,-984,-983,1005]],"id":"relation/406856","properties":{"name":"Haram","region":"Møre og Romsdal","hc-group":"admin2","hc-key":"no-mr-1580","hc-a2":"HA","hc-middle-lon":6.544,"hc-middle-lat":62.579}},{"type":"MultiPolygon","arcs":[[[1006,998,-999,-998,1007,1008]],[[1009,-1010,1010]]],"id":"relation/406857","properties":{"name":"Sykkylven","region":"Møre og Romsdal","hc-group":"admin2","hc-key":"no-mr-1528","hc-a2":"SY","hc-middle-lon":6.64,"hc-middle-lat":62.337}},{"type":"MultiPolygon","arcs":[[[1011]],[[1012]]],"id":"relation/406859","properties":{"name":"Giske","region":"Møre og Romsdal","hc-group":"admin2","hc-key":"no-mr-1532","hc-a2":"GI","hc-middle-lon":6.034,"hc-middle-lat":62.526}},{"type":"MultiPolygon","arcs":[[[1013,-1014,1014,1015,1016,1017,1018]],[[1019,1020,-1000,-999,-1007]]],"id":"relation/406860","properties":{"name":"Ørsta","region":"Møre og Romsdal","hc-group":"admin2","hc-key":"no-mr-1520","hc-a2":"ØR","hc-middle-lon":6.366,"hc-middle-lat":62.236}},{"type":"MultiPolygon","arcs":[[[1021,1022,1023,-1024,1023,1024,1025,1026,1027,1028,1029,1030]],[[1031,-1032,1032]]],"id":"relation/406862","properties":{"name":"Vanylven","region":"Møre og Romsdal","hc-group":"admin2","hc-key":"no-mr-1511","hc-a2":"VA","hc-middle-lon":5.627,"hc-middle-lat":62.082}},{"type":"MultiPolygon","arcs":[[[1033]],[[1034,-1035,1035]],[[1036,-1037,1037]]],"id":"relation/406863","properties":{"name":"Sula","region":"Møre og Romsdal","hc-group":"admin2","hc-key":"no-mr-1531","hc-a2":"SU","hc-middle-lon":6.197,"hc-middle-lat":62.427}},{"type":"MultiPolygon","arcs":[[[1038,1039]],[[1040,1040,1040]],[[-1018,1017,1041]]],"id":"relation/406864","properties":{"name":"Hareid","region":"Møre og Romsdal","hc-group":"admin2","hc-key":"no-mr-1517","hc-a2":"HA","hc-middle-lon":5.996,"hc-middle-lat":62.35}},{"type":"Polygon","arcs":[[1042,1043,1044,-1040,1045]],"id":"relation/406865","properties":{"name":"Ulstein","region":"Møre og Romsdal","hc-group":"admin2","hc-key":"no-mr-1516","hc-a2":"UL","hc-middle-lon":5.881,"hc-middle-lat":62.338}},{"type":"MultiPolygon","arcs":[[[1046]],[[1047,1048]],[[1049]],[[-1043,1042,1050]]],"id":"relation/406866","properties":{"name":"Herøy","region":"Møre og Romsdal","hc-group":"admin2","hc-key":"no-mr-1515","hc-a2":"HE","hc-middle-lon":5.683,"hc-middle-lat":62.289}},{"type":"MultiPolygon","arcs":[[[1051]],[[-1030,1029,1052]],[[1031,1053,1054,-1048,1055]]],"id":"relation/406867","properties":{"name":"Sande","region":"Møre og Romsdal","hc-group":"admin2","hc-key":"no-mr-1514","hc-a2":"SA","hc-middle-lon":5.587,"hc-middle-lat":62.225}},{"type":"Polygon","arcs":[[1056]],"id":"relation/407178","properties":{"name":"Leka","region":"Trøndelag","hc-group":"admin2","hc-key":"no-td-5052","hc-a2":"LE","hc-middle-lon":11.648,"hc-middle-lat":65.081}},{"type":"Polygon","arcs":[[1057,1058,1059,1060,1061,1062,1063,-1064,1064,1065,1066]],"id":"relation/407200","properties":{"name":"Høylandet","region":"Trøndelag","hc-group":"admin2","hc-key":"no-td-5046","hc-a2":"HØ","hc-middle-lon":12.378,"hc-middle-lat":64.756}},{"type":"Polygon","arcs":[[1067,1068,1069,1070,-1061]],"id":"relation/407201","properties":{"name":"Namsskogan","region":"Trøndelag","hc-group":"admin2","hc-key":"no-td-5044","hc-a2":"NA","hc-middle-lon":13.072,"hc-middle-lat":64.81}},{"type":"Polygon","arcs":[[1071,1072,1073,1074,-1069]],"id":"relation/407202","properties":{"name":"Røyrvik","region":"Trøndelag","hc-group":"admin2","hc-key":"no-td-5043","hc-a2":"RØ","hc-middle-lon":13.683,"hc-middle-lat":64.821}},{"type":"Polygon","arcs":[[1075,-1076,1075,1076,1077,1078,1079,-1080,1080,1081,1082,1058,-1059,-1058,1083]],"id":"relation/407211","properties":{"name":"Overhalla","region":"Trøndelag","hc-group":"admin2","hc-key":"no-td-5047","hc-a2":"OV","hc-middle-lon":11.915,"hc-middle-lat":64.481}},{"type":"Polygon","arcs":[[-1082,1081,1084,1085,-1086,1085,1086,1087,-1068,-1060,-1059,-1083]],"id":"relation/407216","properties":{"name":"Grong","region":"Trøndelag","hc-group":"admin2","hc-key":"no-td-5045","hc-a2":"GR","hc-middle-lon":12.581,"hc-middle-lat":64.529}},{"type":"Polygon","arcs":[[1088,1089,-1072,-1088]],"id":"relation/407217","properties":{"name":"Lierne","region":"Trøndelag","hc-group":"admin2","hc-key":"no-td-5042","hc-a2":"LI","hc-middle-lon":13.613,"hc-middle-lat":64.415}},{"type":"MultiPolygon","arcs":[[[-319,1090,1091]]],"id":"relation/407245","properties":{"name":"Flatanger","region":"Trøndelag","hc-group":"admin2","hc-key":"no-td-5049","hc-a2":"FL","hc-middle-lon":10.802,"hc-middle-lat":64.441}},{"type":"Polygon","arcs":[[1092,1093,1094,-1089,-1087,-1086,1085,-1086,-1085,-1082,-1081,1079]],"id":"relation/407273","properties":{"name":"Snåsa","region":"Trøndelag","hc-group":"admin2","hc-key":"no-td-5041","hc-a2":"SN","hc-middle-lon":12.601,"hc-middle-lat":64.195}},{"type":"Polygon","arcs":[[1095,1096,1097,-1094,1098,1099,1100,1101]],"id":"relation/407278","properties":{"name":"Verdal","region":"Trøndelag","hc-group":"admin2","hc-key":"no-td-5038","hc-a2":"VE","hc-middle-lon":12.046,"hc-middle-lat":63.784}},{"type":"Polygon","arcs":[[1102,1103]],"id":"relation/407287","properties":{"name":"Frosta","region":"Trøndelag","hc-group":"admin2","hc-key":"no-td-5036","hc-a2":"FR","hc-middle-lon":10.802,"hc-middle-lat":63.612}},{"type":"MultiPolygon","arcs":[[[1104,1105,-1106,1105,1106,1107,-1108,1108,1109,-1110,1110,-1096,1111,-1103,1112]],[[1113]]],"id":"relation/407290","properties":{"name":"Levanger","region":"Trøndelag","hc-group":"admin2","hc-key":"no-td-5037","hc-a2":"LE","hc-middle-lon":11.293,"hc-middle-lat":63.688}},{"type":"Polygon","arcs":[[-820,-819,-818,-803,-802,1114,-1111,1109,-1110,-1109,1107,-1108,-1107,-1106,1105,-1106,-1105,1115],[-819,818,824],[825,825,825]],"id":"relation/407291","properties":{"name":"Stjørdal","region":"Trøndelag","hc-group":"admin2","hc-key":"no-td-5035","hc-a2":"ST","hc-middle-lon":11.244,"hc-middle-lat":63.463}},{"type":"Polygon","arcs":[[-801,-795,1116,-1097,-1115]],"id":"relation/407292","properties":{"name":"Meråker","region":"Trøndelag","hc-group":"admin2","hc-key":"no-td-5034","hc-a2":"ME","hc-middle-lon":11.834,"hc-middle-lat":63.407}},{"type":"Polygon","arcs":[[-556,-563,-580,-579,-582,-531,-530,529,-550,-549,548,-549,-548,-547,546,-547,-546,-545,544,-545,-544,-542]],"id":"relation/407595","properties":{"name":"Froland","region":"Agder","hc-group":"admin2","hc-key":"no-ag-4214","hc-a2":"FR","hc-middle-lon":8.358,"hc-middle-lat":58.588}},{"type":"MultiPolygon","arcs":[[[1117,1118,-911,1119,1120,-1121,1120,1121,1122]],[[1123,1124]]],"id":"relation/407747","properties":{"name":"Nordreisa","region":"Troms","hc-group":"admin2","hc-key":"no-tr-5544","hc-a2":"NO","hc-middle-lon":21.508,"hc-middle-lat":69.528}},{"type":"MultiPolygon","arcs":[[[1125,1126,1127,-1122,-1121,1120,-1121,-1120,-910,-915,-831,-830,-829,827,-828,-827,1128]],[[1129]],[[1130]]],"id":"relation/407748","properties":{"name":"Kvænangen","region":"Troms","hc-group":"admin2","hc-key":"no-tr-5546","hc-a2":"KV","hc-middle-lon":22.051,"hc-middle-lat":69.852}},{"type":"MultiPolygon","arcs":[[[1131]],[[-1124,1132]],[[1133]],[[1134]],[[1135]]],"id":"relation/407749","properties":{"name":"Skjervøy","region":"Troms","hc-group":"admin2","hc-key":"no-tr-5542","hc-a2":"SK","hc-middle-lon":20.745,"hc-middle-lat":70.027}},{"type":"MultiPolygon","arcs":[[[1136,1137,-1118,1138]],[[1139,-1140,1140]]],"id":"relation/407750","properties":{"name":"Kåfjord","region":"Troms","hc-group":"admin2","hc-key":"no-tr-5540","hc-a2":"KÅ","hc-middle-lon":20.812,"hc-middle-lat":69.496}},{"type":"Polygon","arcs":[[1141,1142,1143,1144,-1137,1145,1146,1147]],"id":"relation/407751","properties":{"name":"Storfjord","region":"Troms","hc-group":"admin2","hc-key":"no-tr-5538","hc-a2":"ST","hc-middle-lon":20.376,"hc-middle-lat":69.248}},{"type":"MultiPolygon","arcs":[[[1148,-1147,1149,1139,1150]],[[1151,1152]]],"id":"relation/407752","properties":{"name":"Lyngen","region":"Troms","hc-group":"admin2","hc-key":"no-tr-5536","hc-a2":"LY","hc-middle-lon":20.124,"hc-middle-lat":69.686}},{"type":"MultiPolygon","arcs":[[[1153,1154]],[[1155]],[[1156,1157,1158]],[[1159]],[[1160]],[[1161]],[[1162]],[[1163]],[[1164]]],"id":"relation/407753","properties":{"name":"Karlsøy","region":"Troms","hc-group":"admin2","hc-key":"no-tr-5534","hc-a2":"KA","hc-middle-lon":19.483,"hc-middle-lat":70.063}},{"type":"MultiPolygon","arcs":[[[1165]],[[1166]],[[1167]],[[1168]],[[1169,1170]],[[1171]],[[-1154,1172]],[[-1157,1173]],[[1174,-1148,-1149,1175,-1152,1176]]],"id":"relation/407754","properties":{"name":"Tromsø","region":"Troms","hc-group":"admin2","hc-key":"no-tr-5501","hc-a2":"TR","hc-middle-lon":19.017,"hc-middle-lat":69.672}},{"type":"Polygon","arcs":[[1177,1178,-1179,1178,1179,1142,-1143,-1142,-1175,1180,-1170,1181]],"id":"relation/407755","properties":{"name":"Balsfjord","region":"Troms","hc-group":"admin2","hc-key":"no-tr-5532","hc-a2":"BA","hc-middle-lon":19.223,"hc-middle-lat":69.276}},{"type":"Polygon","arcs":[[1182,-1183,1183,1184,-1144,-1143,-1180,-1179,1178,-1179,-1178,1185,1186,1187,1188,-1189,1188,1189]],"id":"relation/407756","properties":{"name":"Målselv","region":"Troms","hc-group":"admin2","hc-key":"no-tr-5524","hc-a2":"MÅ","hc-middle-lon":19.257,"hc-middle-lat":68.962}},{"type":"Polygon","arcs":[[1190,1191,1192,1193,-1184,1182,1194,1195,1196,-1197,1196,1197]],"id":"relation/407757","properties":{"name":"Bardu","region":"Troms","hc-group":"admin2","hc-key":"no-tr-5520","hc-a2":"BA","hc-middle-lon":19.106,"hc-middle-lat":68.703}},{"type":"Polygon","arcs":[[1198,-1195,-1183,-1190,-1189,1188,-1189,-1188,1199,1200,1201]],"id":"relation/407761","properties":{"name":"Sørreisa","region":"Troms","hc-group":"admin2","hc-key":"no-tr-5526","hc-a2":"SØ","hc-middle-lon":18.178,"hc-middle-lat":69.101}},{"type":"MultiPolygon","arcs":[[[1202]],[[1203,1204,-1202,1205]]],"id":"relation/407762","properties":{"name":"Dyrøy","region":"Troms","hc-group":"admin2","hc-key":"no-tr-5528","hc-a2":"DY","hc-middle-lon":17.698,"hc-middle-lat":69.017}},{"type":"Polygon","arcs":[[1206,1207,1208,1209,1190,-1191,-1198,-1197,1196,-1197,-1196,-1199,-1205,-1204]],"id":"relation/407763","properties":{"name":"Salangen","region":"Troms","hc-group":"admin2","hc-key":"no-tr-5522","hc-a2":"SA","hc-middle-lon":17.828,"hc-middle-lat":68.875}},{"type":"Polygon","arcs":[[1210,-1192,-1191,-1210,1211,1212]],"id":"relation/407764","properties":{"name":"Lavangen","region":"Troms","hc-group":"admin2","hc-key":"no-tr-5518","hc-a2":"LA","hc-middle-lon":17.738,"hc-middle-lat":68.717}},{"type":"Polygon","arcs":[[1213,-1213,1214,1215]],"id":"relation/407765","properties":{"name":"Gratangen","region":"Troms","hc-group":"admin2","hc-key":"no-tr-5516","hc-a2":"GR","hc-middle-lon":17.511,"hc-middle-lat":68.706}},{"type":"MultiPolygon","arcs":[[[1216,1217,1218,1219]],[[1220]],[[1221]]],"id":"relation/407767","properties":{"name":"Harstad","region":"Troms","hc-group":"admin2","hc-key":"no-tr-5503","hc-a2":"HA","hc-middle-lon":16.496,"hc-middle-lat":68.773}},{"type":"Polygon","arcs":[[1222,1223,1224,-1220,1225,1226,-1227,1226,1227]],"id":"relation/407768","properties":{"name":"Kvæfjord","region":"Troms","hc-group":"admin2","hc-key":"no-tr-5510","hc-a2":"KV","hc-middle-lon":16.008,"hc-middle-lat":68.65}},{"type":"MultiPolygon","arcs":[[[1228]],[[1229]],[[1206,-1207,1230]]],"id":"relation/407772","properties":{"name":"Ibestad","region":"Troms","hc-group":"admin2","hc-key":"no-tr-5514","hc-a2":"IB","hc-middle-lon":17.129,"hc-middle-lat":68.825}},{"type":"MultiPolygon","arcs":[[[1231]],[[1232,1233]]],"id":"relation/408160","properties":{"name":"Andøy","region":"Nordland","hc-group":"admin2","hc-key":"no-no-1871","hc-a2":"AN","hc-middle-lon":15.784,"hc-middle-lat":69.037}},{"type":"Polygon","arcs":[[-1074,1234,1235,1236,1237]],"id":"relation/408200","properties":{"name":"Hattfjelldal","region":"Nordland","hc-group":"admin2","hc-key":"no-no-1826","hc-a2":"HA","hc-middle-lon":14.125,"hc-middle-lat":65.5}},{"type":"MultiPolygon","arcs":[[[1238,1239,1240]],[[-1236,1241,1242,1243,-1244,1243,1244,1245,-1246,1245,1246,1247,1248]]],"id":"relation/408201","properties":{"name":"Hemnes","region":"Nordland","hc-group":"admin2","hc-key":"no-no-1832","hc-a2":"HE","hc-middle-lon":13.968,"hc-middle-lat":66.004}},{"type":"Polygon","arcs":[[1249,1250,1251,-1247,-1246,1245,-1246,-1245,-1244,1243,-1244,-1243,1252,1253,1254,1255,-1256,1256,1257,1258]],"id":"relation/408202","properties":{"name":"Rana","region":"Nordland","hc-group":"admin2","hc-key":"no-no-1833","hc-a2":"RA","hc-middle-lon":14.361,"hc-middle-lat":66.44}},{"type":"Polygon","arcs":[[-1254,1259,1260,1261,1262,1263,1264,1265,-1266,1265,1266,1267]],"id":"relation/408203","properties":{"name":"Saltdal","region":"Nordland","hc-group":"admin2","hc-key":"no-no-1840","hc-a2":"SA","hc-middle-lon":15.638,"hc-middle-lat":66.882}},{"type":"MultiPolygon","arcs":[[[1268,-1269,1269]],[[1270,1271,1272,1273,1274,1275,1276,-1261,1277,1278,1279,1280,1281,1282,1283]],[[-1263,1284]]],"id":"relation/408204","properties":{"name":"Fauske - Fuossko","region":"Nordland","hc-group":"admin2","hc-key":"no-no-1841","hc-a2":"FA","hc-middle-lon":15.687,"hc-middle-lat":67.235}},{"type":"MultiPolygon","arcs":[[[-1283,1285,1286,1287]],[[1288,-1280,-1279,1289,1290,-1291,1291,1292,-1293,1292,1293,1294,1295,1296,1297,1298]],[[1281,-1282,1299]],[[1300,1300,1300]]],"id":"relation/408205","properties":{"name":"Sørfold","region":"Nordland","hc-group":"admin2","hc-key":"no-no-1845","hc-a2":"SØ","hc-middle-lon":15.736,"hc-middle-lat":67.519}},{"type":"MultiPolygon","arcs":[[[1301,-1296,-1295,1302,1303]],[[1304]],[[1305]],[[1306]],[[-1298,1307]]],"id":"relation/408208","properties":{"name":"Steigen","region":"Nordland","hc-group":"admin2","hc-key":"no-no-1848","hc-a2":"ST","hc-middle-lon":15.244,"hc-middle-lat":67.837}},{"type":"Polygon","arcs":[[1308,-1070,-1075,-1238,1309,1310]],"id":"relation/408209","properties":{"name":"Grane","region":"Nordland","hc-group":"admin2","hc-key":"no-no-1825","hc-a2":"GR","hc-middle-lon":13.405,"hc-middle-lat":65.442}},{"type":"MultiPolygon","arcs":[[[1311]],[[1312,-1313,1312,1313,1314,1315]],[[-1062,-1071,-1309,1316,1317,1318,1319]],[[1320,1321,1322]],[[1323,1324]]],"id":"relation/408210","properties":{"name":"Bindal","region":"Nordland","hc-group":"admin2","hc-key":"no-no-1811","hc-a2":"BI","hc-middle-lon":12.568,"hc-middle-lat":65.123}},{"type":"MultiPolygon","arcs":[[[1325]],[[1326,1327,-1328,1327,1328,1329,1330]],[[-1322,1331,1332]],[[1333,-1334,1334]]],"id":"relation/408211","properties":{"name":"Sømna","region":"Nordland","hc-group":"admin2","hc-key":"no-no-1812","hc-a2":"SØ","hc-middle-lon":12.214,"hc-middle-lat":65.32}},{"type":"MultiPolygon","arcs":[[[1335]],[[-1330,1329,-1330,-1329,-1328,1327,-1328,-1327,1336,1337]],[[1338,1339,-1334,1340,-1332,-1321,1341,-1324,1342,1317,-1318,-1317,-1311,1343,1344,1345,-1346,1345,1346]],[[1334,1334,1334]]],"id":"relation/408212","properties":{"name":"Brønnøy","region":"Nordland","hc-group":"admin2","hc-key":"no-no-1813","hc-a2":"BR","hc-middle-lon":12.605,"hc-middle-lat":65.418}},{"type":"Polygon","arcs":[[1347,-1344,-1310,-1237,-1249,1348,-1239,1349,1350,1351]],"id":"relation/408213","properties":{"name":"Vefsn","region":"Nordland","hc-group":"admin2","hc-key":"no-no-1824","hc-a2":"VE","hc-middle-lon":13.189,"hc-middle-lat":65.822}},{"type":"MultiPolygon","arcs":[[[1352,1353]],[[-1347,-1346,1345,-1346,-1345,-1348,1354,1355,1356]]],"id":"relation/408214","properties":{"name":"Vevelstad","region":"Nordland","hc-group":"admin2","hc-key":"no-no-1816","hc-a2":"VE","hc-middle-lon":12.674,"hc-middle-lat":65.653}},{"type":"MultiPolygon","arcs":[[[1357]],[[1358]]],"id":"relation/408215","properties":{"name":"Vega","region":"Nordland","hc-group":"admin2","hc-key":"no-no-1815","hc-a2":"VE","hc-middle-lon":11.97,"hc-middle-lat":65.65}},{"type":"MultiPolygon","arcs":[[[1359]],[[1360,-1361,1361,1362]],[[1363]],[[1364,1364,1364]]],"id":"relation/408216","properties":{"name":"Alstahaug","region":"Nordland","hc-group":"admin2","hc-key":"no-no-1820","hc-a2":"AL","hc-middle-lon":12.505,"hc-middle-lat":65.881}},{"type":"MultiPolygon","arcs":[[[-1350,-1241,1365]],[[1360,1366,-1362]]],"id":"relation/408218","properties":{"name":"Leirfjord","region":"Nordland","hc-group":"admin2","hc-key":"no-no-1822","hc-a2":"LE","hc-middle-lon":13.08,"hc-middle-lat":66.096}},{"type":"MultiPolygon","arcs":[[[1367]],[[1368]]],"id":"relation/408219","properties":{"name":"Dønna","region":"Nordland","hc-group":"admin2","hc-key":"no-no-1827","hc-a2":"DØ","hc-middle-lon":12.471,"hc-middle-lat":66.118}},{"type":"MultiPolygon","arcs":[[[1369]],[[1370]],[[-1251,1371]]],"id":"relation/408220","properties":{"name":"Nesna","region":"Nordland","hc-group":"admin2","hc-key":"no-no-1828","hc-a2":"NE","hc-middle-lon":13.011,"hc-middle-lat":66.243}},{"type":"MultiPolygon","arcs":[[[1372]],[[1373]],[[1374,-1375,1375]],[[1376,-1377,1377]],[[1378,1379,1380]],[[1381]],[[1382,-1259,1383,1384]]],"id":"relation/408221","properties":{"name":"Lurøy","region":"Nordland","hc-group":"admin2","hc-key":"no-no-1834","hc-a2":"LU","hc-middle-lon":12.785,"hc-middle-lat":66.442}},{"type":"MultiPolygon","arcs":[[[-1375,-1377,1385]],[[1380,-1381,-1380,1386]],[[-1385,1384,1387]],[[-1384,-1258,1388,1389,1390]],[[1391]]],"id":"relation/408223","properties":{"name":"Rødøy","region":"Nordland","hc-group":"admin2","hc-key":"no-no-1836","hc-a2":"RØ","hc-middle-lon":13.231,"hc-middle-lat":66.561}},{"type":"Polygon","arcs":[[1392,1393]],"id":"relation/408478","properties":{"name":"Moskenes","region":"Nordland","hc-group":"admin2","hc-key":"no-no-1874","hc-a2":"MO","hc-middle-lon":12.959,"hc-middle-lat":67.928}},{"type":"MultiPolygon","arcs":[[[-1393,1394]],[[1395]]],"id":"relation/408479","properties":{"name":"Flakstad","region":"Nordland","hc-group":"admin2","hc-key":"no-no-1859","hc-a2":"FL","hc-middle-lon":13.216,"hc-middle-lat":68.067}},{"type":"MultiPolygon","arcs":[[[1396]],[[1397,-1398]]],"id":"relation/408480","properties":{"name":"Vestvågøy","region":"Nordland","hc-group":"admin2","hc-key":"no-no-1860","hc-a2":"VE","hc-middle-lon":13.818,"hc-middle-lat":68.191}},{"type":"MultiPolygon","arcs":[[[1397,1398]],[[1399,1400,1401,-1402,1402,1403]],[[1404,1404,1404]],[[1405]],[[1406]],[[1407,1408,1409]]],"id":"relation/408481","properties":{"name":"Vågan","region":"Nordland","hc-group":"admin2","hc-key":"no-no-1865","hc-a2":"VÅ","hc-middle-lon":14.636,"hc-middle-lat":68.276}},{"type":"MultiPolygon","arcs":[[[1410,1411,-1412,1412,1413]],[[1414,1414,1414]]],"id":"relation/408482","properties":{"name":"Bø","region":"Nordland","hc-group":"admin2","hc-key":"no-no-1867","hc-a2":"BØ","hc-middle-lon":14.616,"hc-middle-lat":68.72}},{"type":"MultiPolygon","arcs":[[[-1413,1411,1415,1416,1417,1418,1419]],[[1420]]],"id":"relation/408483","properties":{"name":"Øksnes","region":"Nordland","hc-group":"admin2","hc-key":"no-no-1868","hc-a2":"ØK","hc-middle-lon":15.026,"hc-middle-lat":68.87}},{"type":"MultiPolygon","arcs":[[[-1416,-1412,-1411,1421]],[[1422,1423,1424,1425,-1418,-1417]],[[1426,1427,-1228,-1227,1226,-1227,1428,-1233,1429]]],"id":"relation/408484","properties":{"name":"Sortland","region":"Nordland","hc-group":"admin2","hc-key":"no-no-1870","hc-a2":"SO","hc-middle-lon":15.399,"hc-middle-lat":68.748}},{"type":"MultiPolygon","arcs":[[[1430]]],"id":"relation/409033","properties":{"name":"Værøy","region":"Nordland","hc-group":"admin2","hc-key":"no-no-1857","hc-a2":"VÆ","hc-middle-lon":12.671,"hc-middle-lat":67.693}},{"type":"MultiPolygon","arcs":[[[1431,-1403,1401,1432]],[[1433]],[[-1400,1434]],[[-1424,1435]],[[-1409,1436,-1427,1437]]],"id":"relation/409034","properties":{"name":"Hadsel","region":"Nordland","hc-group":"admin2","hc-key":"no-no-1866","hc-a2":"HA","hc-middle-lon":14.992,"hc-middle-lat":68.499}},{"type":"Polygon","arcs":[[1438,1439,1440,1441,1442]],"id":"relation/409036","properties":{"name":"Evenes","region":"Nordland","hc-group":"admin2","hc-key":"no-no-1853","hc-a2":"EV","hc-middle-lon":16.946,"hc-middle-lat":68.504}},{"type":"MultiPolygon","arcs":[[[1443]],[[1444,1268,1445,-1284,-1288,1446]],[[1447,1448,-1449,1448,1449,1450,1451]],[[1452,-1267,-1266,1265,-1266,-1265,1453,1454,1455]],[[1271,-1272,1456]],[[1457,1457,1457]],[[1273,-1274,1458]],[[-1276,1275,1459]]],"id":"relation/409037","properties":{"name":"Bodø","region":"Nordland","hc-group":"admin2","hc-key":"no-no-1804","hc-a2":"BO","hc-middle-lon":14.617,"hc-middle-lat":67.249}},{"type":"MultiPolygon","arcs":[[[1460,1461,1462]],[[1463]],[[1464]],[[1465,1466,1467,-1468,1467,1468,1469,1470,1471]],[[1472]],[[1473,1448,-1449,-1448,1474]]],"id":"relation/409038","properties":{"name":"Gildeskål","region":"Nordland","hc-group":"admin2","hc-key":"no-no-1838","hc-a2":"GI","hc-middle-lon":14.026,"hc-middle-lat":66.972}},{"type":"Polygon","arcs":[[-1468,1467,-1468,-1467,-1466,1475,-1256,-1255,-1268,-1453,1476,-1450,-1449,-1474,1477,-1469]],"id":"relation/409039","properties":{"name":"Beiarn","region":"Nordland","hc-group":"admin2","hc-key":"no-no-1839","hc-a2":"BE","hc-middle-lon":14.665,"hc-middle-lat":66.892}},{"type":"MultiPolygon","arcs":[[[1478]],[[-1390,1479]],[[-1389,-1257,1255,-1476,1465,-1466,-1472,1480,-1461,1481]]],"id":"relation/409040","properties":{"name":"Meløy","region":"Nordland","hc-group":"admin2","hc-key":"no-no-1837","hc-a2":"ME","hc-middle-lon":13.803,"hc-middle-lat":66.779}},{"type":"MultiPolygon","arcs":[[[-1408,1482,1483,-1484,1484,-1224,-1223,-1428,-1437]],[[1485,1485,1485]]],"id":"relation/409041","properties":{"name":"Lødingen","region":"Nordland","hc-group":"admin2","hc-key":"no-no-1851","hc-a2":"LØ","hc-middle-lon":15.638,"hc-middle-lat":68.457}},{"type":"MultiPolygon","arcs":[[[1486,1487,1488,-201,-222]],[[-43,-23,1489,1490,-326]]],"id":"relation/409073","properties":{"name":"Høyanger","region":"Vestland","hc-group":"admin2","hc-key":"no-vl-4638","hc-a2":"HØ","hc-middle-lon":5.91,"hc-middle-lat":61.124}},{"type":"MultiPolygon","arcs":[[[-13,-12,1491,1492,1493,1494,-1490,-22]],[[1495,1496,1497]]],"id":"relation/409074","properties":{"name":"Vik","region":"Vestland","hc-group":"admin2","hc-key":"no-vl-4639","hc-a2":"VI","hc-middle-lon":6.583,"hc-middle-lat":61.028}},{"type":"Polygon","arcs":[[-54,-53,1498,1499,-1497,1500,1493,-1494,-1493,1501]],"id":"relation/409075","properties":{"name":"Aurland","region":"Vestland","hc-group":"admin2","hc-key":"no-vl-4641","hc-a2":"AU","hc-middle-lon":7.236,"hc-middle-lat":60.871}},{"type":"Polygon","arcs":[[-1498,-1500,1502,1503,1504,1505,1506,1507,1508,1509,1510]],"id":"relation/409076","properties":{"name":"Lærdal","region":"Vestland","hc-group":"admin2","hc-key":"no-vl-4642","hc-a2":"LÆ","hc-middle-lon":7.641,"hc-middle-lat":61.038}},{"type":"Polygon","arcs":[[1511,-1507,1512,1513,-1514,1513,-1514,1513,1514,1515,-1516,1515,1516,1517]],"id":"relation/409077","properties":{"name":"Årdal","region":"Vestland","hc-group":"admin2","hc-key":"no-vl-4643","hc-a2":"ÅR","hc-middle-lon":7.816,"hc-middle-lat":61.286}},{"type":"MultiPolygon","arcs":[[[1518,1519,-1518,1520,1521,1522,1523,1524]],[[1525,-1526,1526]],[[1527,1527,1527]]],"id":"relation/409078","properties":{"name":"Luster","region":"Vestland","hc-group":"admin2","hc-key":"no-vl-4644","hc-a2":"LU","hc-middle-lon":7.564,"hc-middle-lat":61.52}},{"type":"Polygon","arcs":[[1528,1529,1530,-1524,1531,-992,1532,1533]],"id":"relation/409079","properties":{"name":"Stryn","region":"Vestland","hc-group":"admin2","hc-key":"no-vl-4651","hc-a2":"ST","hc-middle-lon":6.835,"hc-middle-lat":61.822}},{"type":"MultiPolygon","arcs":[[[1534,1535,-1530,1536,1537]],[[1538,-1539,1539]]],"id":"relation/409082","properties":{"name":"Gloppen","region":"Vestland","hc-group":"admin2","hc-key":"no-vl-4650","hc-a2":"GL","hc-middle-lon":6.197,"hc-middle-lat":61.721}},{"type":"MultiPolygon","arcs":[[[1540]],[[1541]],[[1542,-1538,1543]]],"id":"relation/409083","properties":{"name":"Bremanger","region":"Vestland","hc-group":"admin2","hc-key":"no-vl-4648","hc-a2":"BR","hc-middle-lon":5.335,"hc-middle-lat":61.787}},{"type":"Polygon","arcs":[[-733,-732,730,1544,1545,-1546,1545,1546,1547,-1548,1547,1548,1549,-735]],"id":"relation/409940","properties":{"name":"Ås","region":"Akershus","hc-group":"admin2","hc-key":"no-ak-3218","hc-a2":"ÅS","hc-middle-lon":10.783,"hc-middle-lat":59.679}},{"type":"Polygon","arcs":[[1550,1551,-1552,1552,1553,1554,1555,1556,-1557,1557]],"id":"relation/410880","properties":{"name":"Løten","region":"Innlandet","hc-group":"admin2","hc-key":"no-in-3412","hc-a2":"LØ","hc-middle-lon":11.431,"hc-middle-lat":60.865}},{"type":"Polygon","arcs":[[-1555,-1554,1558,1559,-1560,1560,1561,-1562,1561,-1562,1561,-1562,1561,1562,-1563,1562,1563,1564,-1565,1565,1554]],"id":"relation/410881","properties":{"name":"Elverum","region":"Innlandet","hc-group":"admin2","hc-key":"no-in-3420","hc-a2":"EL","hc-middle-lon":11.73,"hc-middle-lat":60.972}},{"type":"Polygon","arcs":[[1566,1567,-1568,1567,-1558,1556,1568,1569,1570,-1571,1570,1571,1572,-1573,1572,1573]],"id":"relation/410882","properties":{"name":"Hamar","region":"Innlandet","hc-group":"admin2","hc-key":"no-in-3403","hc-a2":"HA","hc-middle-lon":11.13,"hc-middle-lat":61.002}},{"type":"Polygon","arcs":[[1574,1575,-659,1576,1577,-1578,1578,-1552,-1551,-1568,1567,-1568,-1567]],"id":"relation/410883","properties":{"name":"Stange","region":"Innlandet","hc-group":"admin2","hc-key":"no-in-3413","hc-a2":"ST","hc-middle-lon":11.341,"hc-middle-lat":60.626}},{"type":"Polygon","arcs":[[-1579,1579,1580,-1581,1580,1581,1582,-1583,1582,1583,1584,1585,-1560,-1559,-1553,1551]],"id":"relation/410884","properties":{"name":"Våler","region":"Innlandet","hc-group":"admin2","hc-key":"no-in-3419","hc-a2":"VÅ","hc-middle-lon":11.976,"hc-middle-lat":60.813}},{"type":"Polygon","arcs":[[1586,-1569,-1557,-1556,-1555,-1566,1564,1587,1588,-1589,1589,1590]],"id":"relation/410885","properties":{"name":"Åmot","region":"Innlandet","hc-group":"admin2","hc-key":"no-in-3422","hc-a2":"ÅM","hc-middle-lon":11.437,"hc-middle-lat":61.261}},{"type":"Polygon","arcs":[[1591,1592,-1575,-1574,-1573,1572,-1573,-1572,-1571,1570,-1571,-1570,-1587,1593,1594,1595]],"id":"relation/411313","properties":{"name":"Ringsaker","region":"Innlandet","hc-group":"admin2","hc-key":"no-in-3411","hc-a2":"RI","hc-middle-lon":10.78,"hc-middle-lat":60.986}},{"type":"Polygon","arcs":[[1596,1597,1598,-1599,1598,1599,1600,1601,1602,-740,-756,1603,1604,-1597]],"id":"relation/411383","properties":{"name":"Lier","region":"Buskerud","hc-group":"admin2","hc-key":"no-bu-3312","hc-a2":"LI","hc-middle-lon":10.22,"hc-middle-lat":59.849}},{"type":"Polygon","arcs":[[1605,-1604,-755,-754,753,-754,-753,-752,751,-752,-751,749,1606,1607,-1608,1607,1608]],"id":"relation/411384","properties":{"name":"Hole","region":"Buskerud","hc-group":"admin2","hc-key":"no-bu-3310","hc-a2":"HO","hc-middle-lon":10.302,"hc-middle-lat":60.041}},{"type":"Polygon","arcs":[[1609,-280,-299,-187,-186,185,-186,185,-186,-185,1610,1611,1612,-1613,1612,1613,1614,1615,-1616,1615,1616,-255]],"id":"relation/412349","properties":{"name":"Kongsberg","region":"Buskerud","hc-group":"admin2","hc-key":"no-bu-3303","hc-a2":"KO","hc-middle-lon":9.697,"hc-middle-lat":59.594}},{"type":"Polygon","arcs":[[-1614,-1613,1612,-1613,-1612,1617,1618,-1619,1618,1619,1620,1621,-1622,1621,1622,1623,-1624,1624,1625,1626,1627,1628,-1629,1628,-1629,1629]],"id":"relation/412350","properties":{"name":"Øvre Eiker","region":"Buskerud","hc-group":"admin2","hc-key":"no-bu-3314","hc-a2":"ØV","hc-middle-lon":9.854,"hc-middle-lat":59.744}},{"type":"Polygon","arcs":[[-256,-1617,-1616,1615,-1616,-1615,-1630,1628,-1629,1628,-1629,-1628,1630,1631,1632,-1633,1633,1634,-1635,1634,1635,-247]],"id":"relation/412351","properties":{"name":"Flesberg","region":"Buskerud","hc-group":"admin2","hc-key":"no-bu-3334","hc-a2":"FL","hc-middle-lon":9.45,"hc-middle-lat":59.857}},{"type":"Polygon","arcs":[[-249,-248,-1636,-1635,1634,-1635,-1634,1632,1636,1637,-1638,1637,1638,1639,1640,248]],"id":"relation/412352","properties":{"name":"Rollag","region":"Buskerud","hc-group":"admin2","hc-key":"no-bu-3336","hc-a2":"RO","hc-middle-lon":9.218,"hc-middle-lat":60.016}},{"type":"Polygon","arcs":[[-237,-250,-249,-1641,-1640,1639,1641,1642,1643,1644,1645,-1646,1646,61,-62,-61]],"id":"relation/412353","properties":{"name":"Nore og Uvdal","region":"Buskerud","hc-group":"admin2","hc-key":"no-bu-3338","hc-a2":"NO","hc-middle-lon":8.353,"hc-middle-lat":60.291}},{"type":"Polygon","arcs":[[50,-63,-62,-1647,1645,1647,1648,-1649,1648,1649,1650,-1651,1650,1651,-1503,-1499,-52]],"id":"relation/412354","properties":{"name":"Hol","region":"Buskerud","hc-group":"admin2","hc-key":"no-bu-3330","hc-a2":"HO","hc-middle-lon":8.03,"hc-middle-lat":60.604}},{"type":"Polygon","arcs":[[-1652,-1651,1650,-1651,-1650,-1649,1648,-1649,-1648,-1646,-1645,1652,1653,1654,-1504]],"id":"relation/412355","properties":{"name":"Ål","region":"Buskerud","hc-group":"admin2","hc-key":"no-bu-3328","hc-a2":"ÅL","hc-middle-lon":8.309,"hc-middle-lat":60.697}},{"type":"Polygon","arcs":[[-1655,1655,1656,1657,-1658,1657,1658,1659,1660,-1505]],"id":"relation/412356","properties":{"name":"Hemsedal","region":"Buskerud","hc-group":"admin2","hc-key":"no-bu-3326","hc-a2":"HE","hc-middle-lon":8.48,"hc-middle-lat":60.928}},{"type":"Polygon","arcs":[[-1654,1661,1662,1663,-1656]],"id":"relation/412357","properties":{"name":"Gol","region":"Buskerud","hc-group":"admin2","hc-key":"no-bu-3324","hc-a2":"GO","hc-middle-lon":9.026,"hc-middle-lat":60.752}},{"type":"Polygon","arcs":[[-1644,1664,1665,-1666,1665,1666,1667,1668,-1669,1668,1669,-1662,-1653]],"id":"relation/412358","properties":{"name":"Nesbyen","region":"Buskerud","hc-group":"admin2","hc-key":"no-bu-3322","hc-a2":"NE","hc-middle-lon":9.058,"hc-middle-lat":60.547}},{"type":"Polygon","arcs":[[-1643,1670,1671,1672,1673,-1667,-1666,1665,-1666,-1665]],"id":"relation/412359","properties":{"name":"Flå","region":"Buskerud","hc-group":"admin2","hc-key":"no-bu-3320","hc-a2":"FL","hc-middle-lon":9.471,"hc-middle-lat":60.434}},{"type":"Polygon","arcs":[[1674,-1675,1674,1675,1676,-1609,-1608,1607,-1608,-1607,-750,-749,1677,1678,1679,-1680,1679,1680,1681,1682,1683,1684,1685,1686,-1687,1686,-1687,1686,-1673,1687]],"id":"relation/412360","properties":{"name":"Ringerike","region":"Buskerud","hc-group":"admin2","hc-key":"no-bu-3305","hc-a2":"RI","hc-middle-lon":10.154,"hc-middle-lat":60.328}},{"type":"Polygon","arcs":[[1688,-1676,-1675,1674,-1675,-1688,-1672,1689]],"id":"relation/412361","properties":{"name":"Krødsherad","region":"Buskerud","hc-group":"admin2","hc-key":"no-bu-3318","hc-a2":"KR","hc-middle-lon":9.671,"hc-middle-lat":60.192}},{"type":"Polygon","arcs":[[-1640,-1639,-1638,1637,-1638,-1637,-1633,-1632,-1631,-1627,-1626,1625,1690,-1690,-1671,-1642]],"id":"relation/412362","properties":{"name":"Sigdal","region":"Buskerud","hc-group":"admin2","hc-key":"no-bu-3332","hc-a2":"SI","hc-middle-lon":9.497,"hc-middle-lat":60.13}},{"type":"Polygon","arcs":[[-1626,-1625,1623,1596,-1605,-1606,-1677,-1689,-1691]],"id":"relation/412363","properties":{"name":"Modum","region":"Buskerud","hc-group":"admin2","hc-key":"no-bu-3316","hc-a2":"MO","hc-middle-lon":10.003,"hc-middle-lat":60.011}},{"type":"Polygon","arcs":[[-1532,-1523,1691,1692,-971,1693,-994,-993]],"id":"relation/412406","properties":{"name":"Skjåk","region":"Innlandet","hc-group":"admin2","hc-key":"no-in-3433","hc-a2":"SK","hc-middle-lon":7.967,"hc-middle-lat":61.934}},{"type":"Polygon","arcs":[[-1693,1694,1695,1696,-768,-948,1697,-972]],"id":"relation/412407","properties":{"name":"Lesja","region":"Innlandet","hc-group":"admin2","hc-key":"no-in-3432","hc-a2":"LE","hc-middle-lon":8.652,"hc-middle-lat":62.189}},{"type":"Polygon","arcs":[[1698,1699,1700,-769,-1697]],"id":"relation/412408","properties":{"name":"Dovre","region":"Innlandet","hc-group":"admin2","hc-key":"no-in-3431","hc-a2":"DO","hc-middle-lon":9.469,"hc-middle-lat":62.115}},{"type":"Polygon","arcs":[[1701,1702,1703,-1704,1703,1704,1705,-1706,1705,1706,-1695,-1692,-1522]],"id":"relation/412409","properties":{"name":"Lom","region":"Innlandet","hc-group":"admin2","hc-key":"no-in-3434","hc-a2":"LO","hc-middle-lon":8.444,"hc-middle-lat":61.715}},{"type":"Polygon","arcs":[[1707,1708,1709,-1710,1709,1710,1711,1712,1713,-1714,1713,1714,1715,-1716,1715,1716,-1699,-1696,-1707,-1706,1705,-1706,-1705,-1704,1703,-1704,-1703]],"id":"relation/412410","properties":{"name":"Vågå","region":"Innlandet","hc-group":"admin2","hc-key":"no-in-3435","hc-a2":"VÅ","hc-middle-lon":8.959,"hc-middle-lat":61.703}},{"type":"Polygon","arcs":[[1717,1718,1719,1720,-1700,-1717,-1716,1715,-1716,-1715,-1714,1713,-1714,-1713]],"id":"relation/412411","properties":{"name":"Sel","region":"Innlandet","hc-group":"admin2","hc-key":"no-in-3437","hc-a2":"SE","hc-middle-lon":9.564,"hc-middle-lat":61.758}},{"type":"Polygon","arcs":[[1721,1722,-1723,1722,1723,1724,-1725,1724,1725,-1718,-1712]],"id":"relation/412412","properties":{"name":"Nord-Fron","region":"Innlandet","hc-group":"admin2","hc-key":"no-in-3436","hc-a2":"NO","hc-middle-lon":9.457,"hc-middle-lat":61.603}},{"type":"Polygon","arcs":[[1722,1726,1727,1728,-1729,1728,1729,1730,1731,1732,1733,1734,-1735,1735,-1719,-1726,-1725,1724,-1725,-1724,-1723]],"id":"relation/412413","properties":{"name":"Sør-Fron","region":"Innlandet","hc-group":"admin2","hc-key":"no-in-3438","hc-a2":"SØ","hc-middle-lon":9.676,"hc-middle-lat":61.602}},{"type":"Polygon","arcs":[[1736,1737,1738,-1731]],"id":"relation/412414","properties":{"name":"Ringebu","region":"Innlandet","hc-group":"admin2","hc-key":"no-in-3439","hc-a2":"RI","hc-middle-lon":10.322,"hc-middle-lat":61.557}},{"type":"Polygon","arcs":[[1739,1740,-1741,1740,1741,1742,1743,-1744,1743,-1744,1743,1744,-1595,1745,-1738]],"id":"relation/412415","properties":{"name":"Øyer","region":"Innlandet","hc-group":"admin2","hc-key":"no-in-3440","hc-a2":"ØY","hc-middle-lon":10.514,"hc-middle-lat":61.328}},{"type":"Polygon","arcs":[[1746,-1747,1746,1747,1748,-1749,1748,1749,1750,-1596,-1745,-1744,1743,-1744,1743,-1744,-1743,1751,1752]],"id":"relation/412416","properties":{"name":"Lillehammer","region":"Innlandet","hc-group":"admin2","hc-key":"no-in-3405","hc-a2":"LI","hc-middle-lon":10.391,"hc-middle-lat":61.133}},{"type":"Polygon","arcs":[[1753,1754,1755,1756,-1757,1756,1757,-1752,-1742,-1741,1740,-1741,-1740,-1737,-1730,-1729,1728,-1729,-1728]],"id":"relation/412417","properties":{"name":"Gausdal","region":"Innlandet","hc-group":"admin2","hc-key":"no-in-3441","hc-a2":"GA","hc-middle-lon":9.835,"hc-middle-lat":61.264}},{"type":"Polygon","arcs":[[1758,-1759,1758,1759,1760,1761,1762,-1763,1762,1763,1764,-1592,-1751,1765]],"id":"relation/412418","properties":{"name":"Gjøvik","region":"Innlandet","hc-group":"admin2","hc-key":"no-in-3407","hc-a2":"GJ","hc-middle-lon":10.456,"hc-middle-lat":60.872}},{"type":"Polygon","arcs":[[-646,-645,644,-661,660,-661,-660,-1576,-1593,-1765,1766,-1767,1766,1767,1768,-1769,1768,1769,1770,-1771,1770,1771]],"id":"relation/412419","properties":{"name":"Østre Toten","region":"Innlandet","hc-group":"admin2","hc-key":"no-in-3442","hc-a2":"ØS","hc-middle-lon":10.912,"hc-middle-lat":60.623}},{"type":"Polygon","arcs":[[1772,-1773,1772,1773,1774,1775,-1776,1775,1776,1777,1778,1779,-1780,1780,-647,-1772,-1771,1770,-1771,-1770,-1769,1768,-1769,-1768,-1767,1766,-1767,-1764,-1763,1762,-1763,-1762,1781]],"id":"relation/412420","properties":{"name":"Vestre Toten","region":"Innlandet","hc-group":"admin2","hc-key":"no-in-3443","hc-a2":"VE","hc-middle-lon":10.623,"hc-middle-lat":60.627}},{"type":"Polygon","arcs":[[-1684,-1683,1782,1783,1784,-693,-642,-649,-648,-1781,1779,-1780,-1779,-1778,-1777,-1776,1775,-1776,-1775,1785]],"id":"relation/412421","properties":{"name":"Gran","region":"Innlandet","hc-group":"admin2","hc-key":"no-in-3446","hc-a2":"GR","hc-middle-lon":10.529,"hc-middle-lat":60.438}},{"type":"Polygon","arcs":[[1786,-1685,-1786,-1774,-1773,1772,-1773,-1782,-1761,1787,1788,1789,-1790,1789,1790,1791]],"id":"relation/412422","properties":{"name":"Søndre Land","region":"Innlandet","hc-group":"admin2","hc-key":"no-in-3447","hc-a2":"SØ","hc-middle-lon":10.264,"hc-middle-lat":60.703}},{"type":"Polygon","arcs":[[1792,1793,1794,-1792,-1791,-1790,1789,-1790,-1789,-1788,-1760,-1759,1758,-1759,-1766,-1750,-1749,1748,-1749,-1748,-1747,1746,-1747,-1753,-1758,-1757,1756,-1757,-1756]],"id":"relation/412423","properties":{"name":"Nordre Land","region":"Innlandet","hc-group":"admin2","hc-key":"no-in-3448","hc-a2":"NO","hc-middle-lon":9.943,"hc-middle-lat":60.946}},{"type":"Polygon","arcs":[[-1663,-1670,-1669,1668,-1669,-1668,-1674,-1687,1686,-1687,1686,-1687,-1686,-1787,-1795,1795,1796,-1797,1797]],"id":"relation/412424","properties":{"name":"Sør-Aurdal","region":"Innlandet","hc-group":"admin2","hc-key":"no-in-3449","hc-a2":"SØ","hc-middle-lon":9.647,"hc-middle-lat":60.666}},{"type":"Polygon","arcs":[[-1659,-1658,1657,-1658,-1657,-1664,-1798,1796,1798,1799,-1800,1799,1800,-1793,-1755,1801,1802,1803,-1804,1803,1804]],"id":"relation/412425","properties":{"name":"Nord-Aurdal","region":"Innlandet","hc-group":"admin2","hc-key":"no-in-3451","hc-a2":"NO","hc-middle-lon":9.29,"hc-middle-lat":61.004}},{"type":"Polygon","arcs":[[-1660,-1805,-1804,1803,-1804,-1803,1805,1806,-1807,1806,1807,1808,-1809,1808,1809,1810,-1811,1811]],"id":"relation/412426","properties":{"name":"Vestre Slidre","region":"Innlandet","hc-group":"admin2","hc-key":"no-in-3452","hc-a2":"VE","hc-middle-lon":8.916,"hc-middle-lat":61.053}},{"type":"Polygon","arcs":[[-1506,-1661,-1812,1810,1812,-1708,-1702,-1521,-1517,-1516,1515,-1516,-1515,-1514,1513,-1514,1513,-1514,-1513]],"id":"relation/412427","properties":{"name":"Vang","region":"Innlandet","hc-group":"admin2","hc-key":"no-in-3454","hc-a2":"VA","hc-middle-lon":8.448,"hc-middle-lat":61.192}},{"type":"Polygon","arcs":[[-1800,1799,-1800,-1799,-1797,-1796,-1794,-1801]],"id":"relation/412428","properties":{"name":"Etnedal","region":"Innlandet","hc-group":"admin2","hc-key":"no-in-3450","hc-a2":"ET","hc-middle-lon":9.597,"hc-middle-lat":60.963}},{"type":"Polygon","arcs":[[-1683,-1682,1813,1814,-1815,1814,1815,-1784,-1783,1682]],"id":"relation/412429","properties":{"name":"Jevnaker","region":"Akershus","hc-group":"admin2","hc-key":"no-ak-3236","hc-a2":"JE","hc-middle-lon":10.386,"hc-middle-lat":60.282}},{"type":"Polygon","arcs":[[-1815,1814,-1815,-1814,-1681,-1680,1679,-1680,-1679,1816,-703,-694,-1785,-1784,1783,-1816]],"id":"relation/412430","properties":{"name":"Lunner","region":"Akershus","hc-group":"admin2","hc-key":"no-ak-3234","hc-a2":"LU","hc-middle-lon":10.66,"hc-middle-lat":60.236}},{"type":"Polygon","arcs":[[-1813,-1811,-1810,-1809,1808,-1809,-1808,-1807,1806,-1807,-1806,-1802,-1754,-1727,-1723,-1722,-1711,-1710,1709,-1710,-1709]],"id":"relation/412431","properties":{"name":"Øystre Slidre","region":"Innlandet","hc-group":"admin2","hc-key":"no-in-3453","hc-a2":"ØY","hc-middle-lon":9.093,"hc-middle-lat":61.251}},{"type":"Polygon","arcs":[[1817,-1818,1817,1818,1819,1820,1821,-1822,1822,-679,-678,-677,1823]],"id":"relation/412533","properties":{"name":"Eidskog","region":"Innlandet","hc-group":"admin2","hc-key":"no-in-3416","hc-a2":"EI","hc-middle-lon":12.076,"hc-middle-lat":59.992}},{"type":"Polygon","arcs":[[1824,1825,1826,-1827,1826,1827,-1828,1827,1828,1829,-1830,1829,1830,-1822,-1821,1831,1832,1833,-1834,1833,1834,-1825]],"id":"relation/412534","properties":{"name":"Kongsvinger","region":"Innlandet","hc-group":"admin2","hc-key":"no-in-3401","hc-a2":"KO","hc-middle-lon":12.186,"hc-middle-lat":60.19}},{"type":"Polygon","arcs":[[-689,-688,-687,686,-687,686,-687,686,-687,-686,-685,684,-685,-684,-683,682,-683,-682,-681,680,-681,-680,-679,678,-1823,1821,-1831,-1830,1829,-1830,-1829,-1828,1827,-1828,-1827,1826,-1827,-1826,-1825,1835,688]],"id":"relation/412535","properties":{"name":"Sør-Odal","region":"Innlandet","hc-group":"admin2","hc-key":"no-in-3415","hc-a2":"SØ","hc-middle-lon":11.729,"hc-middle-lat":60.213}},{"type":"Polygon","arcs":[[-658,-690,-689,-1836,1836,1837,-1578,-1577]],"id":"relation/412536","properties":{"name":"Nord-Odal","region":"Innlandet","hc-group":"admin2","hc-key":"no-in-3414","hc-a2":"NO","hc-middle-lon":11.59,"hc-middle-lat":60.44}},{"type":"Polygon","arcs":[[1824,-1835,-1834,1833,-1834,-1833,1832,1838,1839,-1837]],"id":"relation/412537","properties":{"name":"Grue","region":"Innlandet","hc-group":"admin2","hc-key":"no-in-3417","hc-a2":"GR","hc-middle-lon":12.201,"hc-middle-lat":60.414}},{"type":"Polygon","arcs":[[1577,-1838,-1840,1840,-1584,-1583,1582,-1583,-1582,-1581,1580,-1581,-1580]],"id":"relation/412538","properties":{"name":"Åsnes","region":"Innlandet","hc-group":"admin2","hc-key":"no-in-3418","hc-a2":"ÅS","hc-middle-lon":12.12,"hc-middle-lat":60.681}},{"type":"Polygon","arcs":[[-1565,-1564,-1563,1562,-1563,-1562,1561,-1562,1561,-1562,1561,-1562,-1561,1559,-1586,1841,1842,1843,-1589,-1588]],"id":"relation/412539","properties":{"name":"Trysil","region":"Innlandet","hc-group":"admin2","hc-key":"no-in-3421","hc-a2":"TR","hc-middle-lon":12.304,"hc-middle-lat":61.356}},{"type":"Polygon","arcs":[[-1739,-1746,-1594,-1591,1844,1845,1846,1732,-1733,-1732]],"id":"relation/412540","properties":{"name":"Stor-Elvdal","region":"Innlandet","hc-group":"admin2","hc-key":"no-in-3423","hc-a2":"ST","hc-middle-lon":10.714,"hc-middle-lat":61.581}},{"type":"Polygon","arcs":[[-1845,-1590,1588,-1844,1847,1848,1849,1850,1851,-1852,1851,1852]],"id":"relation/412541","properties":{"name":"Rendalen","region":"Innlandet","hc-group":"admin2","hc-key":"no-in-3424","hc-a2":"RE","hc-middle-lon":11.146,"hc-middle-lat":61.806}},{"type":"Polygon","arcs":[[-1848,-1843,1853,-791,-790,789,-790,-789,-788,787,-788,-787,-786,785,1854,1855]],"id":"relation/412542","properties":{"name":"Engerdal","region":"Innlandet","hc-group":"admin2","hc-key":"no-in-3425","hc-a2":"EN","hc-middle-lon":11.904,"hc-middle-lat":61.975}},{"type":"Polygon","arcs":[[1856,-1855,-786,-785,-781,-775,1857]],"id":"relation/412543","properties":{"name":"Os","region":"Innlandet","hc-group":"admin2","hc-key":"no-in-3430","hc-a2":"OS","hc-middle-lon":11.29,"hc-middle-lat":62.415}},{"type":"Polygon","arcs":[[1858,-1859,1858,1859,-1849,-1856,-1857,1860]],"id":"relation/412544","properties":{"name":"Tolga","region":"Innlandet","hc-group":"admin2","hc-key":"no-in-3426","hc-a2":"TO","hc-middle-lon":11.085,"hc-middle-lat":62.372}},{"type":"Polygon","arcs":[[-771,1861,1862,1863,-1864,1863,1864,-1850,-1860,-1859,1858,-1859,-1861,-1858,-774,-763]],"id":"relation/412545","properties":{"name":"Tynset","region":"Innlandet","hc-group":"admin2","hc-key":"no-in-3427","hc-a2":"TY","hc-middle-lon":10.612,"hc-middle-lat":62.36}},{"type":"Polygon","arcs":[[-1846,-1853,-1852,1851,-1852,-1851,-1865,-1864,1863,-1864,-1863,1865,1866,-1867,1866,1867]],"id":"relation/412546","properties":{"name":"Alvdal","region":"Innlandet","hc-group":"admin2","hc-key":"no-in-3428","hc-a2":"AL","hc-middle-lon":10.527,"hc-middle-lat":62.096}},{"type":"Polygon","arcs":[[-1721,-1720,-1736,1734,-1735,-1734,-1733,-1847,-1868,-1867,1866,-1867,-1866,-1862,-770,-1701]],"id":"relation/412547","properties":{"name":"Folldal","region":"Innlandet","hc-group":"admin2","hc-key":"no-in-3429","hc-a2":"FO","hc-middle-lon":9.988,"hc-middle-lat":62.156}},{"type":"MultiPolygon","arcs":[[[-433,-432,1868,1869,1870,1871]],[[-1101,-1100,1099,1872,1873,-1874,1873,1874,1875]]],"id":"relation/2167163","properties":{"name":"Inderøy","region":"Trøndelag","hc-group":"admin2","hc-key":"no-td-5053","hc-a2":"IN","hc-middle-lon":11.081,"hc-middle-lat":63.849}},{"type":"Polygon","arcs":[[-748,1876,1877,-719,-715,-714,1878,-697,-696,695,-696,-695,-1817,-1678]],"id":"relation/2775550","properties":{"name":"Oslo","region":"Oslo","hc-group":"admin2","hc-key":"no-os-0301","hc-a2":"OS","hc-middle-lon":10.72,"hc-middle-lat":59.972}},{"type":"MultiPolygon","arcs":[[[1879,1880,-848,-847,846,-847,-846,-845,-844,843,-844,-843]],[[-920,-919,918,-919,-918,1881]],[[-913,-874,-854,1882]],[[1883]]],"id":"relation/10143340","properties":{"name":"Hammerfest","region":"Finnmark","hc-group":"admin2","hc-key":"no-fi-5603","hc-a2":"HA","hc-middle-lon":23.855,"hc-middle-lat":70.481}},{"type":"MultiPolygon","arcs":[[[1483,1884,1885,1217,-1218,-1217,-1225,-1224,1223,-1485]],[[1886]],[[-1443,1887,-1216,1888]]],"id":"relation/10143346","properties":{"name":"Tjeldsund","region":"Troms","hc-group":"admin2","hc-key":"no-tr-5512","hc-a2":"TJ","hc-middle-lon":16.773,"hc-middle-lat":68.545}},{"type":"MultiPolygon","arcs":[[[1889]],[[-1200,-1187,1890]]],"id":"relation/10143357","properties":{"name":"Senja","region":"Troms","hc-group":"admin2","hc-key":"no-tr-5530","hc-a2":"SE","hc-middle-lon":17.641,"hc-middle-lat":69.305}},{"type":"MultiPolygon","arcs":[[[1891]],[[1892,1893,1894,-1895,1895,1896,-1193,-1211,-1214,-1888,-1442,1897]],[[1898,1899,1900,1901]],[[1439,-1440,1902]]],"id":"relation/10143373","properties":{"name":"Narvik","region":"Nordland","hc-group":"admin2","hc-key":"no-no-1806","hc-a2":"NA","hc-middle-lon":17.097,"hc-middle-lat":68.288}},{"type":"MultiPolygon","arcs":[[[-1303,1294,-1295,-1294,-1293,1292,-1293,-1292,1290,1903,-1896,1894,1904,-1901,1905]],[[1906]],[[1907]],[[1908,1909,1910]],[[1911,-1893,1912,1909]],[[1898,-1899,1913]]],"id":"relation/10143387","properties":{"name":"Hamarøy","region":"Nordland","hc-group":"admin2","hc-key":"no-no-1875","hc-a2":"HA","hc-middle-lon":16.106,"hc-middle-lat":67.892}},{"type":"MultiPolygon","arcs":[[[1914]],[[1915]],[[1916]],[[1917,-1065,-1063,-1320,1918,-1314,-1313,1312,-1313,-1316,1919]]],"id":"relation/10143398","properties":{"name":"Nærøysund","region":"Trøndelag","hc-group":"admin2","hc-key":"no-td-5060","hc-a2":"NÆ","hc-middle-lon":11.64,"hc-middle-lat":64.901}},{"type":"MultiPolygon","arcs":[[[1920,1921,1922,-1923,1922,-1923,1922,1923,-1078,1924,-1091,-318]],[[1925,1926]],[[1927]],[[1928,1929]],[[1930,-1077,-1076,1075,-1076,-1084,-1067,-1066,-1065,1063,-1064,1064,-1918,1931]]],"id":"relation/10143402","properties":{"name":"Namsos","region":"Trøndelag","hc-group":"admin2","hc-key":"no-td-5007","hc-a2":"NA","hc-middle-lon":11.479,"hc-middle-lat":64.466}},{"type":"MultiPolygon","arcs":[[[1932]],[[1933,1934]],[[1935,-438,-437,1936,-1921,-321,1937,-1934,1938]]],"id":"relation/10143415","properties":{"name":"Åfjord","region":"Trøndelag","hc-group":"admin2","hc-key":"no-td-5058","hc-a2":"ÅF","hc-middle-lon":10.362,"hc-middle-lat":64.023}},{"type":"MultiPolygon","arcs":[[[-437,-436,1939,-1875,-1874,1873,-1874,-1873,-1100,-1099,-1093,-1080,-1079,-1924,-1923,1922,-1923,1922,-1923,-1922,-1937,436]],[[-434,432,-1872,1871,1940]],[[-1870,1869,1941]]],"id":"relation/10143420","properties":{"name":"Steinkjer","region":"Trøndelag","hc-group":"admin2","hc-key":"no-td-5006","hc-a2":"ST","hc-middle-lon":11.415,"hc-middle-lat":64.05}},{"type":"MultiPolygon","arcs":[[[439,-440,-439,-1936,1942]]],"id":"relation/10143423","properties":{"name":"Ørland","region":"Trøndelag","hc-group":"admin2","hc-key":"no-td-5057","hc-a2":"ØR","hc-middle-lon":9.792,"hc-middle-lat":63.77}},{"type":"MultiPolygon","arcs":[[[1943,1944,1945]],[[-1945,1946]],[[1947,1948,1949]],[[-1949,1948,1950]],[[1951,1952]],[[1953,1953,1953]],[[1954,-1955,1955]],[[1956,-1957,1957]]],"id":"relation/10143441","properties":{"name":"Hitra","region":"Trøndelag","hc-group":"admin2","hc-key":"no-td-5056","hc-a2":"HI","hc-middle-lon":8.833,"hc-middle-lat":63.557}},{"type":"MultiPolygon","arcs":[[[937,-942,-936,-935,934,-935,-934,1958,1959,1960,1961,-925,1962,-929,-927,1963]],[[1964,-1965,1965]]],"id":"relation/10143451","properties":{"name":"Heim","region":"Trøndelag","hc-group":"admin2","hc-key":"no-td-5055","hc-a2":"HE","hc-middle-lon":8.81,"hc-middle-lat":63.245}},{"type":"MultiPolygon","arcs":[[[-1965,1966,1959,-1960,-1959,-933,-765,-780,-779,-807,-806,805,-806,-814,-817,1967,-1952,1968,1956,1969,-1955,1970,1971]],[[1972,1972,1972]]],"id":"relation/10143469","properties":{"name":"Orkland","region":"Trøndelag","hc-group":"admin2","hc-key":"no-td-5059","hc-a2":"OR","hc-middle-lon":9.591,"hc-middle-lat":63.267}},{"type":"Polygon","arcs":[[1973,-808,-805,-824,-823,822,-823,-822,1974,1975]],"id":"relation/10143487","properties":{"name":"Trondheim","region":"Trøndelag","hc-group":"admin2","hc-key":"no-td-5001","hc-a2":"TR","hc-middle-lon":10.383,"hc-middle-lat":63.313}},{"type":"MultiPolygon","arcs":[[[1976]],[[-973,-1698,-952,1977,-961,-960,959,-960,959,-960,-959,1978,-980,-979,1979]],[[-975,974,1980]]],"id":"relation/10148086","properties":{"name":"Molde","region":"Møre og Romsdal","hc-group":"admin2","hc-key":"no-mr-1506","hc-a2":"MO","hc-middle-lon":7.689,"hc-middle-lat":62.602}},{"type":"Polygon","arcs":[[-981,979,-1979,-964,1981,-953,1982]],"id":"relation/10148272","properties":{"name":"Hustadvika","region":"Møre og Romsdal","hc-group":"admin2","hc-key":"no-mr-1579","hc-a2":"HU","hc-middle-lon":7.248,"hc-middle-lat":62.883}},{"type":"MultiPolygon","arcs":[[[-997,1983,-1008]],[[1984,-1003,1985,-995,993,-1694,-970,-969,968,-969,-968,-967,966,-967,-966,-965,964,-990,1986]]],"id":"relation/10148303","properties":{"name":"Fjord","region":"Møre og Romsdal","hc-group":"admin2","hc-key":"no-mr-1578","hc-a2":"FJ","hc-middle-lon":7.328,"hc-middle-lat":62.275}},{"type":"MultiPolygon","arcs":[[[1987,-1533,-1001,-1021,1988,1015,-1016,-1015,1013,1989,-1025,-1024,1023,-1024,-1023]],[[1990,-1027]],[[-1026,1025,1991]]],"id":"relation/10148316","properties":{"name":"Volda","region":"Møre og Romsdal","hc-group":"admin2","hc-key":"no-mr-1577","hc-a2":"VO","hc-middle-lon":6.261,"hc-middle-lat":62.076}},{"type":"Polygon","arcs":[[1992,-1993,1993,1994,1538,1995,-1534,-1988,-1022,1996]],"id":"relation/10148356","properties":{"name":"Stad","region":"Vestland","hc-group":"admin2","hc-key":"no-vl-4649","hc-a2":"ST","hc-middle-lon":5.774,"hc-middle-lat":62.032}},{"type":"MultiPolygon","arcs":[[[1997]],[[1998]],[[1999,-2000,2000,-1535,-1543,2001]],[[2002,2003]],[[2004,-1994,1992,2005,-2003]]],"id":"relation/10150594","properties":{"name":"Kinn","region":"Vestland","hc-group":"admin2","hc-key":"no-vl-4602","hc-a2":"KI","hc-middle-lon":5.261,"hc-middle-lat":61.763}},{"type":"Polygon","arcs":[[2006,213,2007,215,2008,217,2009,-211,-209,2010,-202,-1489,2011,-1525,-1531,-1536,-2001,1999]],"id":"relation/10150607","properties":{"name":"Sunnfjord","region":"Vestland","hc-group":"admin2","hc-key":"no-vl-4647","hc-a2":"SU","hc-middle-lon":6.057,"hc-middle-lat":61.468}},{"type":"MultiPolygon","arcs":[[[2012,-1526,2013,-1519,-2012,-1488]],[[2014,2014,2014]],[[-1510,1509,2015]],[[-1508,1507,2016]]],"id":"relation/10150612","properties":{"name":"Sogndal","region":"Vestland","hc-group":"admin2","hc-key":"no-vl-4640","hc-a2":"SO","hc-middle-lon":6.841,"hc-middle-lat":61.332}},{"type":"MultiPolygon","arcs":[[[-8,7,-8,7,-8,-7,-70,2017,2018,2019,47,-48,-55,53,-1502,-1492,-11,-10,9,-10,-9]],[[2020,2020,2020]],[[2021,-66,-56,2022]]],"id":"relation/10150615","properties":{"name":"Voss","region":"Vestland","hc-group":"admin2","hc-key":"no-vl-4621","hc-a2":"VO","hc-middle-lon":6.415,"hc-middle-lat":60.695}},{"type":"MultiPolygon","arcs":[[[2023,-27,-42,41,-42,-41,40,-41,40,-41,-40,2024,-45]],[[2025,2025,2025]],[[2025,2025,2025]],[[37,-38,2026]],[[-32,31,2027]]],"id":"relation/10150624","properties":{"name":"Alver","region":"Vestland","hc-group":"admin2","hc-key":"no-vl-4631","hc-a2":"AL","hc-middle-lon":5.351,"hc-middle-lat":60.7}},{"type":"MultiPolygon","arcs":[[[2028]],[[2029]],[[2030]],[[-84,83,2031]],[[-86,85,2032]]],"id":"relation/10150629","properties":{"name":"Øygarden","region":"Vestland","hc-group":"admin2","hc-key":"no-vl-4626","hc-a2":"ØY","hc-middle-lon":4.991,"hc-middle-lat":60.428}},{"type":"MultiPolygon","arcs":[[[2033,2034,2035]],[[-2035,2036,94,2037,97,-98,-97,-90,-89,88,-89,-88,2038]],[[-113,-134,132,66,2039,-72,-100,-101,2040]]],"id":"relation/10150641","properties":{"name":"Bjørnafjorden","region":"Vestland","hc-group":"admin2","hc-key":"no-vl-4624","hc-a2":"BJ","hc-middle-lon":5.622,"hc-middle-lat":60.194}},{"type":"MultiPolygon","arcs":[[[-139,2041,-129,-146,-427,-406,-405,404,-405,-404,-238,-60,-2022,2042,-75,2043,-73,2044]],[[2018,-2019,2045]]],"id":"relation/10150643","properties":{"name":"Ullensvang","region":"Vestland","hc-group":"admin2","hc-key":"no-vl-4618","hc-a2":"UL","hc-middle-lon":6.782,"hc-middle-lat":60.077}},{"type":"MultiPolygon","arcs":[[[-336,2046,-328,-331]],[[2047]],[[2048,2049]],[[2050]],[[-353,352,2051]],[[2052]],[[2053,2053,2053]],[[2054,2055,-394]]],"id":"relation/10150658","properties":{"name":"Stavanger","region":"Rogaland","hc-group":"admin2","hc-key":"no-ro-1103","hc-a2":"ST","hc-middle-lon":5.842,"hc-middle-lat":59.096}},{"type":"MultiPolygon","arcs":[[[333,-342,-362,-361,360,-382,2056,-2049,2057,-335,-334]],[[344,-345,2058]],[[353,2059,382,2060,-380,-467,-466,465,-532,-385,-347,2061,-355,-354]]],"id":"relation/10150660","properties":{"name":"Sandnes","region":"Rogaland","hc-group":"admin2","hc-key":"no-ro-1108","hc-a2":"SA","hc-middle-lon":6.274,"hc-middle-lat":58.985}},{"type":"MultiPolygon","arcs":[[[2062,-502,-506,505,-506,-505,504,-505,-504,2063,2064,2065,-2066,2065,2066,-552,-484,-483,482,-483,-482,-511,-510,509,-510,-509,-472,-471,470,-471,-470,-500]],[[2067,2068]]],"id":"relation/10152428","properties":{"name":"Lyngdal","region":"Agder","hc-group":"admin2","hc-key":"no-ag-4225","hc-a2":"LY","hc-middle-lon":7.2,"hc-middle-lat":58.255}},{"type":"MultiPolygon","arcs":[[[2069,-2070,2069,2070,2071,-2072,2071,2072,2073,-566,-565,-564,563,-564,-572,-559,-558,-489,488,-489,-488,-487,486,-487,-499,-498,497,2074,2075,-2076,2075,2076]],[[2077,567,-568,-567,-566]]],"id":"relation/10152440","properties":{"name":"Kristiansand","region":"Agder","hc-group":"admin2","hc-key":"no-ag-4204","hc-a2":"KR","hc-middle-lon":7.869,"hc-middle-lat":58.207}},{"type":"Polygon","arcs":[[2078,-2073,-2072,2071,-2072,-2071,-2070,2069,-2070,-2077,-2076,2075,-2076,-2075,-498,-497,-553,-2067,-2066,2065,-2066,-2065,2079,-2068]],"id":"relation/10152441","properties":{"name":"Lindesnes","region":"Agder","hc-group":"admin2","hc-key":"no-ag-4205","hc-a2":"LI","hc-middle-lon":7.377,"hc-middle-lat":58.233}},{"type":"Polygon","arcs":[[-270,-281,-1610,-254,-253,252,-253,-252,-262]],"id":"relation/10152443","properties":{"name":"Midt-Telemark","region":"Telemark","hc-group":"admin2","hc-key":"no-te-4020","hc-a2":"MI","hc-middle-lon":9.146,"hc-middle-lat":59.429}},{"type":"MultiPolygon","arcs":[[[-192,-191,190,-191,2080,2081,194,2082,-172,-171,-170,169,-170,-175,2083,2084,-2085,2084,2085,2086,-2087,2086,2087,-183,-182]],[[170,-171,175]]],"id":"relation/10152542","properties":{"name":"Tønsberg","region":"Vestfold","hc-group":"admin2","hc-key":"no-vf-3905","hc-a2":"TØ","hc-middle-lon":10.278,"hc-middle-lat":59.362}},{"type":"Polygon","arcs":[[-1879,713,-714,-713,-712,711,-712,-711,-718,-717,-723,-722,721,2088,2089,2090,-2091,2090,-2091,2090,2091,-2092,2091,-675,-674,673,-674,-673,-670,668,-669,-668,-667,-666,-706,-705,704,-705,-704,700,-701,-700,-699,698,-699,-698]],"id":"relation/10155374","properties":{"name":"Lillestrøm","region":"Akershus","hc-group":"admin2","hc-key":"no-ak-3205","hc-a2":"LI","hc-middle-lon":11.187,"hc-middle-lat":59.915}},{"type":"Polygon","arcs":[[2092,585,-596,-595,594,-595,-594,2093,-1819,-1818,1817,-1818,-1824,676,-677,-676,-2092,2091,-2092,-2091,2090,-2091,2090,-2091,-2090]],"id":"relation/10155381","properties":{"name":"Aurskog-Høland","region":"Akershus","hc-group":"admin2","hc-key":"no-ak-3226","hc-a2":"AU","hc-middle-lon":11.61,"hc-middle-lat":59.809}},{"type":"Polygon","arcs":[[-1549,-1548,1547,-1548,-1547,-1546,2094,-2095,2094,2095,2096,-2097,2096,2097,-720,-1878,2098]],"id":"relation/10155388","properties":{"name":"Nordre Follo","region":"Akershus","hc-group":"admin2","hc-key":"no-ak-3207","hc-a2":"NO","hc-middle-lon":10.858,"hc-middle-lat":59.727}},{"type":"Polygon","arcs":[[634,-635,-634,-632,-631,630,-631,-630,-627,-587,-586,-2093,-2089,-722,-721,-2098,-2097,2096,-2097,-2096,-2095,2094,-2095,1545,-1546,1545,-1546,-1545,-731,-730,729,-730,-729]],"id":"relation/10155447","properties":{"name":"Indre Østfold","region":"Østfold","hc-group":"admin2","hc-key":"no-of-3118","hc-a2":"IN","hc-middle-lon":11.161,"hc-middle-lat":59.61}},{"type":"MultiPolygon","arcs":[[[637,2099,-641,-637,-728,726,2100,2101]],[[2102,-726,-725]]],"id":"relation/10155463","properties":{"name":"Moss","region":"Østfold","hc-group":"admin2","hc-key":"no-of-3103","hc-a2":"MO","hc-middle-lon":10.707,"hc-middle-lat":59.413}},{"type":"MultiPolygon","arcs":[[[-1622,1621,-1622,-1621,2103,2104,-2105,2104,2105,2106,-2107,2106,2107,1600,-1601,-1600,-1599,1598,-1599,-1598,-1597,-1624,-1623]],[[2108,2108,2108]],[[2109,2109,2109]]],"id":"relation/10483726","properties":{"name":"Drammen","region":"Buskerud","hc-group":"admin2","hc-key":"no-bu-3301","hc-a2":"DR","hc-middle-lon":10.183,"hc-middle-lat":59.7}},{"type":"Polygon","arcs":[[-1611,-184,182,-183,182,-2088,-2087,2086,-2087,-2086,-2085,2084,-2085,-2084,-174,2110,-2107,2106,-2107,-2106,-2105,2104,-2105,-2104,-1620,-1619,1618,-1619,-1618]],"id":"relation/10483727","properties":{"name":"Holmestrand","region":"Vestfold","hc-group":"admin2","hc-key":"no-vf-3903","hc-a2":"HO","hc-middle-lon":10.15,"hc-middle-lat":59.559}},{"type":"Polygon","arcs":[[2111,2112,2113,745,-746,-745,-744,743,-744,-743,-742,741,-742,-741,-740,739,-1603]],"id":"relation/10483728","properties":{"name":"Asker","region":"Akershus","hc-group":"admin2","hc-key":"no-ak-3203","hc-a2":"AS","hc-middle-lon":10.463,"hc-middle-lat":59.71}},{"type":"MultiPolygon","arcs":[[[1034,2114,1036,2115,1009,-1987,-989,-988,987,-988,-987,-986,985,-986,-985,-984,-1005,1003,2116]],[[2117]]],"id":"relation/16873323","properties":{"name":"Ålesund","region":"Møre og Romsdal","hc-group":"admin2","hc-key":"no-mr-1508","hc-a2":"ÅL","hc-middle-lon":6.671,"hc-middle-lat":62.601}}]}},