{"type":"Topology","objects":{"default":{"type":"GeometryCollection","geometries":[{"type":"MultiPolygon","arcs":[[[0]],[[1]]],"id":"FO","properties":{"hc-group":"admin0","hc-key":"fo","hc-a2":"FO","name":"Faroe Islands","labelrank":"6","country-abbrev":"Faeroe Is.","subregion":"Northern Europe","region-wb":"Europe & Central Asia","iso-a3":"FRO","iso-a2":"FO","woe-id":"23424816","continent":"Europe","hc-middle-lon":-6.984,"hc-middle-lat":62.073}},{"type":"Polygon","arcs":[[2]],"id":"UM","properties":{"hc-group":"admin0","hc-key":"um","hc-a2":"UM","name":"United States Minor Outlying Islands","labelrank":"5","country-abbrev":"U.S. MOI","subregion":"Seven seas (open ocean)","region-wb":"East Asia & Pacific","iso-a3":"UMI","iso-a2":"UM","woe-id":"28289407","continent":"North America","hc-middle-lon":-161.881,"hc-middle-lat":5.864}},{"type":"MultiPolygon","arcs":[[[3,4,5],[6]],[[7]],[[8]],[[9]],[[10]],[[11]],[[12]],[[13]],[[14]],[[15]],[[16]],[[17]],[[18]],[[19]],[[20]],[[21]],[[22]],[[23]],[[24]],[[25]],[[26]],[[27]],[[28]],[[29]],[[30]],[[31]],[[32]],[[33]],[[34]],[[35]],[[36]],[[37]],[[38]],[[39]],[[40]],[[41]],[[42]],[[43]],[[44]],[[45]],[[46]],[[47]],[[48]],[[49]],[[50]],[[51]],[[52]],[[53]],[[54]],[[55]],[[56,57]],[[58,59,60,61,62,63,64,65,66,67,68,69,70,71,72,73,74,75,76,77,78,79,80,81]],[[82]],[[83]],[[84]],[[85,86]],[[87]],[[88,88,88]],[[89]],[[90,91,92]],[[93]]],"id":"US","properties":{"hc-group":"admin0","hc-key":"us","hc-a2":"US","name":"United States of America","labelrank":"2","country-abbrev":"U.S.A.","subregion":"Northern America","region-wb":"North America","iso-a3":"USA","iso-a2":"US","woe-id":"23424977","continent":"North America","hc-middle-lon":-100.241,"hc-middle-lat":38.911}},{"type":"MultiPolygon","arcs":[[[94]],[[95]],[[96]],[[97]],[[98]],[[99]],[[100]],[[101]],[[102]]],"id":"JP","properties":{"hc-group":"admin0","hc-key":"jp","hc-a2":"JP","name":"Japan","labelrank":"2","country-abbrev":"Japan","subregion":"Eastern Asia","region-wb":"East Asia & Pacific","iso-a3":"JPN","iso-a2":"JP","woe-id":"23424856","continent":"Asia","hc-middle-lon":137.51,"hc-middle-lat":36.333}},{"type":"Polygon","arcs":[[103]],"id":"SC","properties":{"hc-group":"admin0","hc-key":"sc","hc-a2":"SC","name":"Seychelles","labelrank":"6","country-abbrev":"Syc.","subregion":"Eastern Africa","region-wb":"Sub-Saharan Africa","iso-a3":"SYC","iso-a2":"SC","woe-id":"23424941","continent":"Seven seas (open ocean)","hc-middle-lon":55.331,"hc-middle-lat":-4.581}},{"type":"MultiPolygon","arcs":[[[104]],[[105]],[[106]],[[107]]],"id":"NZ","properties":{"hc-group":"admin0","hc-key":"nz","hc-a2":"NZ","name":"New Zealand","labelrank":"2","country-abbrev":"N.Z.","subregion":"Australia and New Zealand","region-wb":"East Asia & Pacific","iso-a3":"NZL","iso-a2":"NZ","woe-id":"23424916","continent":"Oceania","hc-middle-lon":167.729,"hc-middle-lat":-44.77}},{"type":"MultiPolygon","arcs":[[[108]],[[109]],[[110]],[[111,112,113,114,115,116,117,118,119,120,121]]],"id":"IN","properties":{"hc-group":"admin0","hc-key":"in","hc-a2":"IN","name":"India","labelrank":"2","country-abbrev":"India","subregion":"Southern Asia","region-wb":"South Asia","iso-a3":"IND","iso-a2":"IN","woe-id":"23424848","continent":"Asia","hc-middle-lon":77.988,"hc-middle-lat":23.576}},{"type":"MultiPolygon","arcs":[[[122]],[[123,124]]],"id":"KR","properties":{"hc-group":"admin0","hc-key":"kr","hc-a2":"KR","name":"South Korea","labelrank":"2","country-abbrev":"S.K.","subregion":"Eastern Asia","region-wb":"East Asia & Pacific","iso-a3":"KOR","iso-a2":"KR","woe-id":"23424868","continent":"Asia","hc-middle-lon":127.348,"hc-middle-lat":36.397}},{"type":"MultiPolygon","arcs":[[[125]],[[126]],[[127]],[[128]],[[129]],[[130]],[[131]],[[132,133]],[[134,135,136,137,138,139,140,141,142,143,144,145,146,147],[148]],[[149,150,151]]],"id":"FR","properties":{"hc-group":"admin0","hc-key":"fr","hc-a2":"FR","name":"France","labelrank":"2","country-abbrev":"Fr.","subregion":"Western Europe","region-wb":"Europe & Central Asia","iso-a3":"FRA","iso-a2":"FR","woe-id":"-90","continent":"Europe","hc-middle-lon":3.731,"hc-middle-lat":46.79}},{"type":"Polygon","arcs":[[152]],"id":"FM","properties":{"hc-group":"admin0","hc-key":"fm","hc-a2":"FM","name":"Federated States of Micronesia","labelrank":"6","country-abbrev":"F.S.M.","subregion":"Micronesia","region-wb":"East Asia & Pacific","iso-a3":"FSM","iso-a2":"FM","woe-id":"23424815","continent":"Oceania","hc-middle-lon":158.084,"hc-middle-lat":6.864}},{"type":"MultiPolygon","arcs":[[[153]],[[154]]],"id":"CU","properties":{"hc-group":"admin0","hc-key":"cu","hc-a2":"CU","name":"Cuba","labelrank":"3","country-abbrev":"Cuba","subregion":"Caribbean","region-wb":"Latin America & Caribbean","iso-a3":"CUB","iso-a2":"CU","woe-id":"23424793","continent":"North America","hc-middle-lon":-77.539,"hc-middle-lat":21.028}},{"type":"MultiPolygon","arcs":[[[155]],[[156]],[[-112,157,-121,158,159,160,161,162,163,164,165,166,167,168,169,170,171,172,173,174,175,-114,176]]],"id":"CN","properties":{"hc-group":"admin0","hc-key":"cn","hc-a2":"CN","name":"China","labelrank":"2","country-abbrev":"China","subregion":"Eastern Asia","region-wb":"East Asia & Pacific","iso-a3":"CHN","iso-a2":"CN","woe-id":"23424781","continent":"Asia","hc-middle-lon":99.17,"hc-middle-lat":35.327}},{"type":"MultiPolygon","arcs":[[[177]],[[178,179]]],"id":"PT","properties":{"hc-group":"admin0","hc-key":"pt","hc-a2":"PT","name":"Portugal","labelrank":"2","country-abbrev":"Port.","subregion":"Southern Europe","region-wb":"Europe & Central Asia","iso-a3":"PRT","iso-a2":"PT","woe-id":"23424925","continent":"Europe","hc-middle-lon":-7.993,"hc-middle-lat":39.495}},{"type":"Polygon","arcs":[[180]],"id":"SW","properties":{"hc-group":"admin0","hc-key":"sw","hc-a2":"SW","name":"Serranilla Bank","labelrank":"5","country-abbrev":"S.B.","subregion":"Caribbean","region-wb":"Latin America & Caribbean","iso-a3":"-99","iso-a2":"SW","woe-id":"-99","continent":"North America","hc-middle-lon":-78.545,"hc-middle-lat":15.846}},{"type":"Polygon","arcs":[[181]],"id":"SH","properties":{"hc-group":"admin0","hc-key":"sh","hc-a2":"SH","name":"Scarborough Reef","labelrank":"6","country-abbrev":"S.R.","subregion":"South-Eastern Asia","region-wb":"East Asia & Pacific","iso-a3":"-99","iso-a2":"SH","woe-id":"-99","continent":"Asia","hc-middle-lon":117.611,"hc-middle-lat":15.145}},{"type":"MultiPolygon","arcs":[[[182]],[[183]],[[184]],[[185,186,187,188,189,190,191,192,193,194,195,196,-151,197,198]]],"id":"BR","properties":{"hc-group":"admin0","hc-key":"br","hc-a2":"BR","name":"Brazil","labelrank":"2","country-abbrev":"Brazil","subregion":"South America","region-wb":"Latin America & Caribbean","iso-a3":"BRA","iso-a2":"BR","woe-id":"23424768","continent":"South America","hc-middle-lon":-52.772,"hc-middle-lat":-8.427}},{"type":"MultiPolygon","arcs":[[[199]],[[200]],[[201,202,203]]],"id":"EC","properties":{"hc-group":"admin0","hc-key":"ec","hc-a2":"EC","name":"Ecuador","labelrank":"3","country-abbrev":"Ecu.","subregion":"South America","region-wb":"Latin America & Caribbean","iso-a3":"ECU","iso-a2":"EC","woe-id":"23424801","continent":"South America","hc-middle-lon":-79.258,"hc-middle-lat":0.269}},{"type":"MultiPolygon","arcs":[[[204]],[[205]],[[206]],[[207]],[[208]],[[209]],[[210]],[[211]]],"id":"AU","properties":{"hc-group":"admin0","hc-key":"au","hc-a2":"AU","name":"Australia","labelrank":"2","country-abbrev":"Auz.","subregion":"Australia and New Zealand","region-wb":"East Asia & Pacific","iso-a3":"AUS","iso-a2":"AU","woe-id":"-90","continent":"Oceania","hc-middle-lon":135.162,"hc-middle-lat":-25.312}},{"type":"Polygon","arcs":[[212]],"id":"KI","properties":{"hc-group":"admin0","hc-key":"ki","hc-a2":"KI","name":"Kiribati","labelrank":"6","country-abbrev":"Kir.","subregion":"Micronesia","region-wb":"East Asia & Pacific","iso-a3":"KIR","iso-a2":"KI","woe-id":"23424867","continent":"Oceania","hc-middle-lon":-157.186,"hc-middle-lat":1.811}},{"type":"MultiPolygon","arcs":[[[213]],[[214]],[[215]],[[216]],[[217]],[[218]],[[219]],[[220]],[[221]],[[222]],[[223]],[[224]],[[225]],[[226]]],"id":"PH","properties":{"hc-group":"admin0","hc-key":"ph","hc-a2":"PH","name":"Philippines","labelrank":"2","country-abbrev":"Phil.","subregion":"South-Eastern Asia","region-wb":"East Asia & Pacific","iso-a3":"PHL","iso-a2":"PH","woe-id":"23424934","continent":"Asia","hc-middle-lon":120.974,"hc-middle-lat":16.838}},{"type":"MultiPolygon","arcs":[[[227]],[[228]],[[229]],[[230]],[[231]],[[232]],[[233]],[[234]],[[235,-60,236,-82,237,238,239,240,-62],[241]]],"id":"MX","properties":{"hc-group":"admin0","hc-key":"mx","hc-a2":"MX","name":"Mexico","labelrank":"2","country-abbrev":"Mex.","subregion":"Central America","region-wb":"Latin America & Caribbean","iso-a3":"MEX","iso-a2":"MX","woe-id":"23424900","continent":"North America","hc-middle-lon":-102.113,"hc-middle-lat":23.997}},{"type":"MultiPolygon","arcs":[[[242]],[[243]],[[244]],[[245]],[[-149]],[[246,-247,247]],[[248,249]],[[250,-180,251,-143,252,-141,253,254]]],"id":"ES","properties":{"hc-group":"admin0","hc-key":"es","hc-a2":"ES","name":"Spain","labelrank":"2","country-abbrev":"Sp.","subregion":"Southern Europe","region-wb":"Europe & Central Asia","iso-a3":"ESP","iso-a2":"ES","woe-id":"23424950","continent":"Europe","hc-middle-lon":-1.505,"hc-middle-lat":39.591}},{"type":"Polygon","arcs":[[255]],"id":"BU","properties":{"hc-group":"admin0","hc-key":"bu","hc-a2":"BU","name":"Bajo Nuevo Bank (Petrel Is.)","labelrank":"8","country-abbrev":null,"subregion":"Caribbean","region-wb":"Latin America & Caribbean","iso-a3":"-99","iso-a2":"BU","woe-id":"-99","continent":"North America","hc-middle-lon":-79.902,"hc-middle-lat":15.779}},{"type":"Polygon","arcs":[[256]],"id":"MV","properties":{"hc-group":"admin0","hc-key":"mv","hc-a2":"MV","name":"Maldives","labelrank":"5","country-abbrev":"Mald.","subregion":"Southern Asia","region-wb":"South Asia","iso-a3":"MDV","iso-a2":"MV","woe-id":"23424899","continent":"Seven seas (open ocean)","hc-middle-lon":73.328,"hc-middle-lat":5.45}},{"type":"Polygon","arcs":[[257]],"id":"SP","properties":{"hc-group":"admin0","hc-key":"sp","hc-a2":"SP","name":"Spratly Islands","labelrank":"6","country-abbrev":"Spratly Is.","subregion":"South-Eastern Asia","region-wb":"East Asia & Pacific","iso-a3":"SPI","iso-a2":"SP","woe-id":"23424921","continent":"Asia","hc-middle-lon":115.711,"hc-middle-lat":10.814}},{"type":"MultiPolygon","arcs":[[[258]],[[259]],[[260]],[[261]],[[262]],[[263]],[[264]],[[265]],[[266]],[[267]],[[268]],[[269]],[[270]],[[271]],[[272]],[[273]],[[274]],[[275]],[[276,277,278,279,280,281,282,283,284,285],[286,-287,287]],[[288,-255]],[[289,290]],[[291,292]],[[293]],[[294]],[[295,296]]],"id":"GB","properties":{"hc-group":"admin0","hc-key":"gb","hc-a2":"GB","name":"United Kingdom","labelrank":"2","country-abbrev":"U.K.","subregion":"Northern Europe","region-wb":"Europe & Central Asia","iso-a3":"GBR","iso-a2":"GB","woe-id":"-90","continent":"Europe","hc-middle-lon":-1.811,"hc-middle-lat":52.506}},{"type":"MultiPolygon","arcs":[[[297]],[[298]],[[299]],[[300]],[[301]],[[302]],[[303]],[[304]],[[305]],[[306]],[[307]],[[308]],[[309]],[[310,311,312,313,314,315,316,317,-318,318]]],"id":"GR","properties":{"hc-group":"admin0","hc-key":"gr","hc-a2":"GR","name":"Greece","labelrank":"3","country-abbrev":"Greece","subregion":"Southern Europe","region-wb":"Europe & Central Asia","iso-a3":"GRC","iso-a2":"GR","woe-id":"23424833","continent":"Europe","hc-middle-lon":22.519,"hc-middle-lat":38.745}},{"type":"Polygon","arcs":[[319]],"id":"AS","properties":{"hc-group":"admin0","hc-key":"as","hc-a2":"AS","name":"American Samoa","labelrank":"4","country-abbrev":"Am. Samoa","subregion":"Polynesia","region-wb":"East Asia & Pacific","iso-a3":"ASM","iso-a2":"AS","woe-id":"23424746","continent":"Oceania","hc-middle-lon":-170.52,"hc-middle-lat":-14.308}},{"type":"MultiPolygon","arcs":[[[320]],[[321]],[[322]],[[323]],[[324]],[[325]],[[326]],[[327]],[[328,329]]],"id":"DK","properties":{"hc-group":"admin0","hc-key":"dk","hc-a2":"DK","name":"Denmark","labelrank":"4","country-abbrev":"Den.","subregion":"Northern Europe","region-wb":"Europe & Central Asia","iso-a3":"DNK","iso-a2":"DK","woe-id":"23424796","continent":"Europe","hc-middle-lon":9.434,"hc-middle-lat":56.373}},{"type":"MultiPolygon","arcs":[[[330,331],[332],[333]],[[334]],[[335]],[[336]],[[337]],[[338]],[[339]],[[340]],[[341]],[[342]],[[343]],[[344]],[[345]],[[346]],[[347]],[[348]],[[349]],[[350]],[[351]],[[352]],[[353]],[[354]],[[355]],[[356]],[[357]],[[358]],[[359]],[[360]],[[361]],[[362]],[[363]],[[364]],[[365]],[[366]],[[367]],[[368]],[[369]],[[370]],[[371]],[[372]],[[373]],[[374]],[[375]],[[376]],[[377]],[[378]],[[379]],[[380]]],"id":"GL","properties":{"hc-group":"admin0","hc-key":"gl","hc-a2":"GL","name":"Greenland","labelrank":"3","country-abbrev":"Grlnd.","subregion":"Northern America","region-wb":"Europe & Central Asia","iso-a3":"GRL","iso-a2":"GL","woe-id":"23424828","continent":"North America","hc-middle-lon":-39.021,"hc-middle-lat":75.123}},{"type":"Polygon","arcs":[[381]],"id":"GU","properties":{"hc-group":"admin0","hc-key":"gu","hc-a2":"GU","name":"Guam","labelrank":"6","country-abbrev":"Guam","subregion":"Micronesia","region-wb":"East Asia & Pacific","iso-a3":"GUM","iso-a2":"GU","woe-id":"23424832","continent":"Oceania","hc-middle-lon":144.568,"hc-middle-lat":13.463}},{"type":"Polygon","arcs":[[382]],"id":"MP","properties":{"hc-group":"admin0","hc-key":"mp","hc-a2":"MP","name":"Northern Mariana Islands","labelrank":"6","country-abbrev":"N.M.I.","subregion":"Micronesia","region-wb":"East Asia & Pacific","iso-a3":"MNP","iso-a2":"MP","woe-id":"23424788","continent":"Oceania","hc-middle-lon":145.574,"hc-middle-lat":15.131}},{"type":"Polygon","arcs":[[383]],"id":"PR","properties":{"hc-group":"admin0","hc-key":"pr","hc-a2":"PR","name":"Puerto Rico","labelrank":"5","country-abbrev":"P.R.","subregion":"Caribbean","region-wb":"Latin America & Caribbean","iso-a3":"PRI","iso-a2":"PR","woe-id":"23424935","continent":"North America","hc-middle-lon":-66.197,"hc-middle-lat":18.188}},{"type":"Polygon","arcs":[[384]],"id":"VI","properties":{"hc-group":"admin0","hc-key":"vi","hc-a2":"VI","name":"United States Virgin Islands","labelrank":"6","country-abbrev":"V.I. (U.S.)","subregion":"Caribbean","region-wb":"Latin America & Caribbean","iso-a3":"VIR","iso-a2":"VI","woe-id":"23424985","continent":"North America","hc-middle-lon":-64.659,"hc-middle-lat":17.752}},{"type":"MultiPolygon","arcs":[[[385,386,387,-68,388,-66,389,-64,390,-58,391,392,393,-93,-5,394,395,396,397,-79,398,-77,399,-76,400,401],[402],[403],[404]],[[405,406],[407,408]],[[409]],[[410]],[[411]],[[412]],[[413]],[[414]],[[415]],[[416]],[[417]],[[418]],[[419]],[[420]],[[421]],[[422]],[[423]],[[424]],[[425]],[[426]],[[427]],[[428]],[[429]],[[430]],[[431]],[[432]],[[433]],[[434]],[[435]],[[436]],[[437]],[[438]],[[439]],[[440]],[[441]],[[442]],[[443]],[[444]],[[445]],[[446]],[[447]],[[448]],[[449]],[[450]],[[451]],[[452]],[[453]],[[454]],[[455]],[[456]],[[457]],[[458]],[[459]],[[460]],[[461]],[[462]],[[463]],[[464]],[[465]],[[466]],[[467]],[[468]],[[469]],[[470]],[[471]],[[472]],[[473]],[[474]],[[475]],[[476]],[[477]],[[478]],[[479]],[[480]],[[481]],[[482]],[[483]],[[484]],[[485]],[[486]],[[487]],[[488]],[[489]],[[490]],[[491]],[[492]],[[493]],[[494]],[[495]],[[496]],[[497]],[[498]],[[499]],[[500]],[[501]],[[502]],[[503]],[[504]],[[505]],[[506]],[[507]],[[508]],[[509]],[[510]],[[511]],[[512]],[[513]],[[514]],[[515]],[[516]],[[517]],[[518]],[[519]],[[520]],[[521]],[[522]],[[523]],[[524]],[[525]],[[526]],[[527]],[[528]],[[529]],[[530]],[[531]],[[532]],[[533]],[[534]],[[535]],[[536]],[[537]],[[538]],[[539]],[[540]],[[541]],[[542]],[[543]],[[544]],[[545]],[[546]],[[547]],[[548]],[[549]],[[550]],[[551]],[[552]],[[553]],[[554]],[[555]],[[556]],[[557]],[[558]],[[559]],[[560]],[[561]],[[562]],[[563]],[[564]],[[565]],[[566]],[[567]],[[568]],[[-74,569]],[[570]],[[571]],[[572]],[[573]],[[574]],[[575]],[[576]],[[577]],[[578]],[[579]],[[580]],[[581]],[[582]],[[583]],[[584]],[[585]],[[586]],[[587]],[[588]],[[589]],[[590]]],"id":"CA","properties":{"hc-group":"admin0","hc-key":"ca","hc-a2":"CA","name":"Canada","labelrank":"2","country-abbrev":"Can.","subregion":"Northern America","region-wb":"North America","iso-a3":"CAN","iso-a2":"CA","woe-id":"23424775","continent":"North America","hc-middle-lon":-116.116,"hc-middle-lat":60.714}},{"type":"Polygon","arcs":[[591]],"id":"ST","properties":{"hc-group":"admin0","hc-key":"st","hc-a2":"ST","name":"Sao Tome and Principe","labelrank":"6","country-abbrev":"S.T.P.","subregion":"Middle Africa","region-wb":"Sub-Saharan Africa","iso-a3":"STP","iso-a2":"ST","woe-id":"23424966","continent":"Africa","hc-middle-lon":6.606,"hc-middle-lat":0.235}},{"type":"MultiPolygon","arcs":[[[592]],[[593,594,595,596,597,598,599,600,601,602,603,604,605,606,607,608,609,610,611]]],"id":"TZ","properties":{"hc-group":"admin0","hc-key":"tz","hc-a2":"TZ","name":"United Republic of Tanzania","labelrank":"3","country-abbrev":"Tanz.","subregion":"Eastern Africa","region-wb":"Sub-Saharan Africa","iso-a3":"TZA","iso-a2":"TZ","woe-id":"23424973","continent":"Africa","hc-middle-lon":36.609,"hc-middle-lat":-7.543}},{"type":"MultiPolygon","arcs":[[[612,613]],[[614,615]],[[616,617,618,619,620,-188]]],"id":"AR","properties":{"hc-group":"admin0","hc-key":"ar","hc-a2":"AR","name":"Argentina","labelrank":"2","country-abbrev":"Arg.","subregion":"South America","region-wb":"Latin America & Caribbean","iso-a3":"ARG","iso-a2":"AR","woe-id":"23424747","continent":"South America","hc-middle-lon":-64.544,"hc-middle-lat":-31.663}},{"type":"MultiPolygon","arcs":[[[621]],[[622]]],"id":"CV","properties":{"hc-group":"admin0","hc-key":"cv","hc-a2":"CV","name":"Cape Verde","labelrank":"4","country-abbrev":"C.Vd.","subregion":"Western Africa","region-wb":"Sub-Saharan Africa","iso-a3":"CPV","iso-a2":"CV","woe-id":"23424794","continent":"Africa","hc-middle-lon":-25.106,"hc-middle-lat":16.926}},{"type":"Polygon","arcs":[[623]],"id":"DM","properties":{"hc-group":"admin0","hc-key":"dm","hc-a2":"DM","name":"Dominica","labelrank":"6","country-abbrev":"D'inca","subregion":"Caribbean","region-wb":"Latin America & Caribbean","iso-a3":"DMA","iso-a2":"DM","woe-id":"23424798","continent":"North America","hc-middle-lon":-61.285,"hc-middle-lat":15.391}},{"type":"MultiPolygon","arcs":[[[624]],[[625,-134]],[[626,627]],[[628,629,630],[631]]],"id":"NL","properties":{"hc-group":"admin0","hc-key":"nl","hc-a2":"NL","name":"Netherlands","labelrank":"5","country-abbrev":"Neth.","subregion":"Western Europe","region-wb":"Europe & Central Asia","iso-a3":"NLD","iso-a2":"NL","woe-id":"-90","continent":"Europe","hc-middle-lon":6.482,"hc-middle-lat":53.503}},{"type":"MultiPolygon","arcs":[[[632]],[[633,634,635]]],"id":"YE","properties":{"hc-group":"admin0","hc-key":"ye","hc-a2":"YE","name":"Yemen","labelrank":"3","country-abbrev":"Yem.","subregion":"Western Asia","region-wb":"Middle East & North Africa","iso-a3":"YEM","iso-a2":"YE","woe-id":"23425002","continent":"Asia","hc-middle-lon":46.668,"hc-middle-lat":14.267}},{"type":"Polygon","arcs":[[636]],"id":"JM","properties":{"hc-group":"admin0","hc-key":"jm","hc-a2":"JM","name":"Jamaica","labelrank":"4","country-abbrev":"Jam.","subregion":"Caribbean","region-wb":"Latin America & Caribbean","iso-a3":"JAM","iso-a2":"JM","woe-id":"23424858","continent":"North America","hc-middle-lon":-77.188,"hc-middle-lat":18.077}},{"type":"Polygon","arcs":[[637]],"id":"WS","properties":{"hc-group":"admin0","hc-key":"ws","hc-a2":"WS","name":"Samoa","labelrank":"4","country-abbrev":"Samoa","subregion":"Polynesia","region-wb":"East Asia & Pacific","iso-a3":"WSM","iso-a2":"WS","woe-id":"23424992","continent":"Oceania","hc-middle-lon":-171.938,"hc-middle-lat":-13.797}},{"type":"MultiPolygon","arcs":[[[638]],[[639,640]],[[-634,641,642,643]]],"id":"OM","properties":{"hc-group":"admin0","hc-key":"om","hc-a2":"OM","name":"Oman","labelrank":"4","country-abbrev":"Oman","subregion":"Western Asia","region-wb":"Middle East & North Africa","iso-a3":"OMN","iso-a2":"OM","woe-id":"23424898","continent":"Asia","hc-middle-lon":58.798,"hc-middle-lat":22.017}},{"type":"Polygon","arcs":[[644]],"id":"VC","properties":{"hc-group":"admin0","hc-key":"vc","hc-a2":"VC","name":"Saint Vincent and the Grenadines","labelrank":"6","country-abbrev":"St.V.G.","subregion":"Caribbean","region-wb":"Latin America & Caribbean","iso-a3":"VCT","iso-a2":"VC","woe-id":"23424981","continent":"North America","hc-middle-lon":-61.142,"hc-middle-lat":13.204}},{"type":"MultiPolygon","arcs":[[[645]],[[646,-316,647]],[[648,649,650,651,652,653,654]]],"id":"TR","properties":{"hc-group":"admin0","hc-key":"tr","hc-a2":"TR","name":"Turkey","labelrank":"2","country-abbrev":"Tur.","subregion":"Western Asia","region-wb":"Europe & Central Asia","iso-a3":"TUR","iso-a2":"TR","woe-id":"23424969","continent":"Asia","hc-middle-lon":32.145,"hc-middle-lat":39.091}},{"type":"MultiPolygon","arcs":[[[655]],[[656,657,658,-116]]],"id":"BD","properties":{"hc-group":"admin0","hc-key":"bd","hc-a2":"BD","name":"Bangladesh","labelrank":"3","country-abbrev":"Bang.","subregion":"Southern Asia","region-wb":"South Asia","iso-a3":"BGD","iso-a2":"BD","woe-id":"23424759","continent":"Asia","hc-middle-lon":91.848,"hc-middle-lat":23.206}},{"type":"MultiPolygon","arcs":[[[659]],[[660]],[[661]],[[662]],[[663]],[[664]]],"id":"SB","properties":{"hc-group":"admin0","hc-key":"sb","hc-a2":"SB","name":"Solomon Islands","labelrank":"3","country-abbrev":"S. Is.","subregion":"Melanesia","region-wb":"East Asia & Pacific","iso-a3":"SLB","iso-a2":"SB","woe-id":"23424766","continent":"Oceania","hc-middle-lon":159.999,"hc-middle-lat":-9.573}},{"type":"Polygon","arcs":[[665]],"id":"LC","properties":{"hc-group":"admin0","hc-key":"lc","hc-a2":"LC","name":"Saint Lucia","labelrank":"6","country-abbrev":"S.L.","subregion":"Caribbean","region-wb":"Latin America & Caribbean","iso-a3":"LCA","iso-a2":"LC","woe-id":"23424951","continent":"North America","hc-middle-lon":-60.9,"hc-middle-lat":13.92}},{"type":"Polygon","arcs":[[666]],"id":"NR","properties":{"hc-group":"admin0","hc-key":"nr","hc-a2":"NR","name":"Nauru","labelrank":"6","country-abbrev":"Nauru","subregion":"Micronesia","region-wb":"East Asia & Pacific","iso-a3":"NRU","iso-a2":"NR","woe-id":"23424912","continent":"Oceania","hc-middle-lon":166.753,"hc-middle-lat":-0.516}},{"type":"MultiPolygon","arcs":[[[667]],[[668]],[[669]],[[670]],[[671]],[[672]],[[673]],[[674]],[[675]],[[676]],[[677]],[[678]],[[679]],[[680]],[[681]],[[682]],[[683]],[[684]],[[685]],[[686]],[[687]],[[688]],[[689]],[[690]],[[691]],[[692]],[[693]],[[694]],[[695]],[[696]],[[697]],[[698]],[[699]],[[700]],[[701]],[[702]],[[703]],[[704,705,706,707]],[[708]],[[709]],[[710]],[[711]],[[712,713]]],"id":"NO","properties":{"hc-group":"admin0","hc-key":"no","hc-a2":"NO","name":"Norway","labelrank":"3","country-abbrev":"Nor.","subregion":"Northern Europe","region-wb":"Europe & Central Asia","iso-a3":"NOR","iso-a2":"NO","woe-id":"-90","continent":"Europe","hc-middle-lon":7.13,"hc-middle-lat":61.29}},{"type":"Polygon","arcs":[[714]],"id":"KN","properties":{"hc-group":"admin0","hc-key":"kn","hc-a2":"KN","name":"Saint Kitts and Nevis","labelrank":"6","country-abbrev":"St.K.N.","subregion":"Caribbean","region-wb":"Latin America & Caribbean","iso-a3":"KNA","iso-a2":"KN","woe-id":"23424940","continent":"North America","hc-middle-lon":-62.649,"hc-middle-lat":17.293}},{"type":"Polygon","arcs":[[715]],"id":"BH","properties":{"hc-group":"admin0","hc-key":"bh","hc-a2":"BH","name":"Bahrain","labelrank":"4","country-abbrev":"Bahr.","subregion":"Western Asia","region-wb":"Middle East & North Africa","iso-a3":"BHR","iso-a2":"BH","woe-id":"23424753","continent":"Asia","hc-middle-lon":50.481,"hc-middle-lat":25.995}},{"type":"Polygon","arcs":[[716]],"id":"TO","properties":{"hc-group":"admin0","hc-key":"to","hc-a2":"TO","name":"Tonga","labelrank":"4","country-abbrev":"Tongo","subregion":"Polynesia","region-wb":"East Asia & Pacific","iso-a3":"TON","iso-a2":"TO","woe-id":"23424964","continent":"Oceania","hc-middle-lon":-174.911,"hc-middle-lat":-21.176}},{"type":"MultiPolygon","arcs":[[[717]],[[718]],[[719]],[[720]],[[721]],[[722]],[[723]],[[724]],[[725]],[[726]],[[727,-706,728,729]]],"id":"FI","properties":{"hc-group":"admin0","hc-key":"fi","hc-a2":"FI","name":"Finland","labelrank":"3","country-abbrev":"Fin.","subregion":"Northern Europe","region-wb":"Europe & Central Asia","iso-a3":"FIN","iso-a2":"FI","woe-id":"23424812","continent":"Europe","hc-middle-lon":27.579,"hc-middle-lat":64.614}},{"type":"MultiPolygon","arcs":[[[730]],[[731]],[[732]],[[733]],[[734]],[[735]],[[736]],[[737]],[[738]],[[739]],[[740]],[[741]],[[742]],[[743]],[[744]],[[745]],[[746]],[[747]],[[748]],[[749]],[[750]],[[751]],[[752]],[[753]],[[754]],[[755]],[[756]],[[757]],[[758]],[[759]],[[760]],[[761]],[[762]],[[763]],[[764]],[[765,766,767,768]],[[769,770]],[[771,772]],[[773]],[[774]],[[775]],[[776]],[[777]],[[778]],[[779,780]],[[781]]],"id":"ID","properties":{"hc-group":"admin0","hc-key":"id","hc-a2":"ID","name":"Indonesia","labelrank":"2","country-abbrev":"Indo.","subregion":"South-Eastern Asia","region-wb":"East Asia & Pacific","iso-a3":"IDN","iso-a2":"ID","woe-id":"23424846","continent":"Asia","hc-middle-lon":112.378,"hc-middle-lat":-0.738}},{"type":"Polygon","arcs":[[782]],"id":"MU","properties":{"hc-group":"admin0","hc-key":"mu","hc-a2":"MU","name":"Mauritius","labelrank":"5","country-abbrev":"Mus.","subregion":"Eastern Africa","region-wb":"Sub-Saharan Africa","iso-a3":"MUS","iso-a2":"MU","woe-id":"23424894","continent":"Seven seas (open ocean)","hc-middle-lon":57.497,"hc-middle-lat":-20.284}},{"type":"MultiPolygon","arcs":[[[783]],[[784]],[[785]],[[786]],[[787]],[[788]],[[-728,789,-707]]],"id":"SE","properties":{"hc-group":"admin0","hc-key":"se","hc-a2":"SE","name":"Sweden","labelrank":"3","country-abbrev":"Swe.","subregion":"Northern Europe","region-wb":"Europe & Central Asia","iso-a3":"SWE","iso-a2":"SE","woe-id":"23424954","continent":"Europe","hc-middle-lon":18.936,"hc-middle-lat":65.333}},{"type":"Polygon","arcs":[[790]],"id":"TT","properties":{"hc-group":"admin0","hc-key":"tt","hc-a2":"TT","name":"Trinidad and Tobago","labelrank":"5","country-abbrev":"Tr.T.","subregion":"Caribbean","region-wb":"Latin America & Caribbean","iso-a3":"TTO","iso-a2":"TT","woe-id":"23424958","continent":"North America","hc-middle-lon":-61.277,"hc-middle-lat":10.45}},{"type":"MultiPolygon","arcs":[[[791]],[[792,-771]],[[793,794,795,-781,796,797]],[[798,799,800,801]]],"id":"MY","properties":{"hc-group":"admin0","hc-key":"my","hc-a2":"MY","name":"Malaysia","labelrank":"3","country-abbrev":"Malay.","subregion":"South-Eastern Asia","region-wb":"East Asia & Pacific","iso-a3":"MYS","iso-a2":"MY","woe-id":"23424901","continent":"Asia","hc-middle-lon":117.033,"hc-middle-lat":5.346}},{"type":"MultiPolygon","arcs":[[[802]],[[803]],[[804]],[[805]]],"id":"BS","properties":{"hc-group":"admin0","hc-key":"bs","hc-a2":"BS","name":"The Bahamas","labelrank":"4","country-abbrev":"Bhs.","subregion":"Caribbean","region-wb":"Latin America & Caribbean","iso-a3":"BHS","iso-a2":"BS","woe-id":"23424758","continent":"North America","hc-middle-lon":-77.142,"hc-middle-lat":25.88}},{"type":"Polygon","arcs":[[806]],"id":"PW","properties":{"hc-group":"admin0","hc-key":"pw","hc-a2":"PW","name":"Palau","labelrank":"6","country-abbrev":"Palau","subregion":"Micronesia","region-wb":"East Asia & Pacific","iso-a3":"PLW","iso-a2":"PW","woe-id":"23424927","continent":"Oceania","hc-middle-lon":134.401,"hc-middle-lat":7.478}},{"type":"MultiPolygon","arcs":[[[807]],[[-649,808,809,810,811,812,813,814,815,816]]],"id":"IR","properties":{"hc-group":"admin0","hc-key":"ir","hc-a2":"IR","name":"Iran","labelrank":"2","country-abbrev":"Iran","subregion":"Southern Asia","region-wb":"Middle East & North Africa","iso-a3":"IRN","iso-a2":"IR","woe-id":"23424851","continent":"Asia","hc-middle-lon":55.155,"hc-middle-lat":32.427}},{"type":"Polygon","arcs":[[817]],"id":"TV","properties":{"hc-group":"admin0","hc-key":"tv","hc-a2":"TV","name":"Tuvalu","labelrank":"6","country-abbrev":"Tuv.","subregion":"Polynesia","region-wb":"East Asia & Pacific","iso-a3":"TUV","iso-a2":"TV","woe-id":"23424970","continent":"Oceania","hc-middle-lon":179.016,"hc-middle-lat":-8.488}},{"type":"Polygon","arcs":[[818]],"id":"MH","properties":{"hc-group":"admin0","hc-key":"mh","hc-a2":"MH","name":"Marshall Islands","labelrank":"6","country-abbrev":"M. Is.","subregion":"Micronesia","region-wb":"East Asia & Pacific","iso-a3":"MHL","iso-a2":"MH","woe-id":"23424932","continent":"Oceania","hc-middle-lon":170.974,"hc-middle-lat":7.081}},{"type":"MultiPolygon","arcs":[[[819,820,-619,821,822],[823]],[[824]],[[825]],[[826]],[[827]],[[828]],[[829]],[[830]],[[831]],[[832]],[[833]],[[834]],[[835]],[[836]],[[837]],[[838]],[[839]],[[840]],[[-614,841,-616,842]],[[843]],[[844]],[[845]],[[846]],[[847,847,847]],[[848]],[[849]],[[850]],[[851]],[[852]]],"id":"CL","properties":{"hc-group":"admin0","hc-key":"cl","hc-a2":"CL","name":"Chile","labelrank":"2","country-abbrev":"Chile","subregion":"South America","region-wb":"Latin America & Caribbean","iso-a3":"CHL","iso-a2":"CL","woe-id":"23424782","continent":"South America","hc-middle-lon":-71.809,"hc-middle-lat":-53.598}},{"type":"MultiPolygon","arcs":[[[853]],[[-799,854,855,856,857,858]]],"id":"TH","properties":{"hc-group":"admin0","hc-key":"th","hc-a2":"TH","name":"Thailand","labelrank":"3","country-abbrev":"Thai.","subregion":"South-Eastern Asia","region-wb":"East Asia & Pacific","iso-a3":"THA","iso-a2":"TH","woe-id":"23424960","continent":"Asia","hc-middle-lon":99.94,"hc-middle-lat":7.579}},{"type":"Polygon","arcs":[[859]],"id":"GD","properties":{"hc-group":"admin0","hc-key":"gd","hc-a2":"GD","name":"Grenada","labelrank":"6","country-abbrev":"Gren.","subregion":"Caribbean","region-wb":"Latin America & Caribbean","iso-a3":"GRD","iso-a2":"GD","woe-id":"23424826","continent":"North America","hc-middle-lon":-61.617,"hc-middle-lat":12.112}},{"type":"MultiPolygon","arcs":[[[860]],[[861]],[[862]],[[863]],[[864,865,866,867,868,869,870,871,872]]],"id":"EE","properties":{"hc-group":"admin0","hc-key":"ee","hc-a2":"EE","name":"Estonia","labelrank":"6","country-abbrev":"Est.","subregion":"Northern Europe","region-wb":"Europe & Central Asia","iso-a3":"EST","iso-a2":"EE","woe-id":"23424805","continent":"Europe","hc-middle-lon":24.026,"hc-middle-lat":58.721}},{"type":"Polygon","arcs":[[873]],"id":"AG","properties":{"hc-group":"admin0","hc-key":"ag","hc-a2":"AG","name":"Antigua and Barbuda","labelrank":"6","country-abbrev":"Ant.B.","subregion":"Caribbean","region-wb":"Latin America & Caribbean","iso-a3":"ATG","iso-a2":"AG","woe-id":"23424737","continent":"North America","hc-middle-lon":-61.718,"hc-middle-lat":17.045}},{"type":"Polygon","arcs":[[874]],"id":"TW","properties":{"hc-group":"admin0","hc-key":"tw","hc-a2":"TW","name":"Taiwan","labelrank":"3","country-abbrev":"Taiwan","subregion":"Eastern Asia","region-wb":"East Asia & Pacific","iso-a3":"TWN","iso-a2":"TW","woe-id":"23424971","continent":"Asia","hc-middle-lon":120.797,"hc-middle-lat":23.69}},{"type":"Polygon","arcs":[[875]],"id":"BB","properties":{"hc-group":"admin0","hc-key":"bb","hc-a2":"BB","name":"Barbados","labelrank":"5","country-abbrev":"Barb.","subregion":"Caribbean","region-wb":"Latin America & Caribbean","iso-a3":"BRB","iso-a2":"BB","woe-id":"23424754","continent":"North America","hc-middle-lon":-59.508,"hc-middle-lat":13.155}},{"type":"MultiPolygon","arcs":[[[876]],[[877]],[[-137,878,879,880,881],[882],[883]]],"id":"IT","properties":{"hc-group":"admin0","hc-key":"it","hc-a2":"IT","name":"Italy","labelrank":"2","country-abbrev":"Italy","subregion":"Southern Europe","region-wb":"Europe & Central Asia","iso-a3":"ITA","iso-a2":"IT","woe-id":"23424853","continent":"Europe","hc-middle-lon":16.937,"hc-middle-lat":40.699}},{"type":"Polygon","arcs":[[884]],"id":"MT","properties":{"hc-group":"admin0","hc-key":"mt","hc-a2":"MT","name":"Malta","labelrank":"5","country-abbrev":"Malta","subregion":"Southern Europe","region-wb":"Middle East & North Africa","iso-a3":"MLT","iso-a2":"MT","woe-id":"23424897","continent":"Europe","hc-middle-lon":14.391,"hc-middle-lat":35.863}},{"type":"MultiPolygon","arcs":[[[885]],[[886]],[[887]],[[888]],[[-772,889]],[[890]],[[891]]],"id":"PG","properties":{"hc-group":"admin0","hc-key":"pg","hc-a2":"PG","name":"Papua New Guinea","labelrank":"2","country-abbrev":"P.N.G.","subregion":"Melanesia","region-wb":"East Asia & Pacific","iso-a3":"PNG","iso-a2":"PG","woe-id":"23424926","continent":"Oceania","hc-middle-lon":142.341,"hc-middle-lat":-6.211}},{"type":"MultiPolygon","arcs":[[[892]],[[893,893,893]],[[-329,894,895,896,897,898,899,900,901,-147,902,903,-629,904]]],"id":"DE","properties":{"hc-group":"admin0","hc-key":"de","hc-a2":"DE","name":"Germany","labelrank":"2","country-abbrev":"Ger.","subregion":"Western Europe","region-wb":"Europe & Central Asia","iso-a3":"DEU","iso-a2":"DE","woe-id":"23424829","continent":"Europe","hc-middle-lon":10.639,"hc-middle-lat":52.265}},{"type":"MultiPolygon","arcs":[[[905]],[[906]],[[907]],[[908]],[[909]]],"id":"VU","properties":{"hc-group":"admin0","hc-key":"vu","hc-a2":"VU","name":"Vanuatu","labelrank":"4","country-abbrev":"Van.","subregion":"Melanesia","region-wb":"East Asia & Pacific","iso-a3":"VUT","iso-a2":"VU","woe-id":"23424907","continent":"Oceania","hc-middle-lon":166.678,"hc-middle-lat":-15.123}},{"type":"MultiPolygon","arcs":[[[910]],[[911,912,913]]],"id":"GQ","properties":{"hc-group":"admin0","hc-key":"gq","hc-a2":"GQ","name":"Equatorial Guinea","labelrank":"4","country-abbrev":"Eq. G.","subregion":"Middle Africa","region-wb":"Sub-Saharan Africa","iso-a3":"GNQ","iso-a2":"GQ","woe-id":"23424804","continent":"Africa","hc-middle-lon":10.371,"hc-middle-lat":1.595}},{"type":"MultiPolygon","arcs":[[[286,-287,287]],[[914,-286,915]],[[-278,916,-279]],[[917,-291,918,919,920,921,-281]]],"id":"CY","properties":{"hc-group":"admin0","hc-key":"cy","hc-a2":"CY","name":"Cyprus","labelrank":"5","country-abbrev":"Cyp.","subregion":"Western Asia","region-wb":"Europe & Central Asia","iso-a3":"CYP","iso-a2":"CY","woe-id":"-90","continent":"Asia","hc-middle-lon":32.956,"hc-middle-lat":34.86}},{"type":"Polygon","arcs":[[922]],"id":"KM","properties":{"hc-group":"admin0","hc-key":"km","hc-a2":"KM","name":"Comoros","labelrank":"6","country-abbrev":"Com.","subregion":"Eastern Africa","region-wb":"Sub-Saharan Africa","iso-a3":"COM","iso-a2":"KM","woe-id":"23424786","continent":"Africa","hc-middle-lon":43.276,"hc-middle-lat":-11.637}},{"type":"MultiPolygon","arcs":[[[923]],[[924]]],"id":"FJ","properties":{"hc-group":"admin0","hc-key":"fj","hc-a2":"FJ","name":"Fiji","labelrank":"6","country-abbrev":"Fiji","subregion":"Melanesia","region-wb":"East Asia & Pacific","iso-a3":"FJI","iso-a2":"FJ","woe-id":"23424813","continent":"Oceania","hc-middle-lon":178.12,"hc-middle-lat":-17.762}},{"type":"MultiPolygon","arcs":[[[925,-171,926,-169,927,-165,928,929,930,931,932,933,934,935,-866,936,-873,937,-871,938,-869,939,-729,-705,940,941,942],[943],[944]],[[945]],[[946]],[[947]],[[948]],[[949]],[[950]],[[951]],[[952]],[[953]],[[954]],[[955]],[[956]],[[957]],[[958]],[[959]],[[960]],[[961]],[[962]],[[963]],[[964]],[[965]],[[966]],[[967]],[[968]],[[969]],[[970]],[[971]],[[972]],[[973]],[[974]],[[975]],[[976]],[[977]],[[978]],[[979]],[[980]],[[981]],[[982]],[[983]],[[984]],[[985]],[[986]],[[987]],[[988]],[[989]],[[990]],[[991]],[[992]],[[993]],[[994]],[[995]],[[996]],[[997]],[[998]],[[999]],[[1000]],[[1001]],[[1002]],[[1003]],[[1004]],[[1005]],[[1006]],[[1007]],[[1008]],[[1009]],[[1010]],[[1011]],[[1012]],[[1013]],[[1014,1015,1016,1017,1018,1019,1020]],[[1021,-1022,1022]],[[1023]],[[1024]],[[1025]],[[1026]],[[1027]],[[1028]],[[1029]],[[1030]],[[1031]],[[1032]],[[1033]],[[1034]]],"id":"RU","properties":{"hc-group":"admin0","hc-key":"ru","hc-a2":"RU","name":"Russia","labelrank":"2","country-abbrev":"Rus.","subregion":"Eastern Europe","region-wb":"Europe & Central Asia","iso-a3":"RUS","iso-a2":"RU","woe-id":"23424936","continent":"Europe","hc-middle-lon":118.476,"hc-middle-lat":62.18}},{"type":"MultiPolygon","arcs":[[[1035,-606,1036,1037,1038,1039,1040,1041,1042,1043]],[[607,-608,1044]]],"id":"UG","properties":{"hc-group":"admin0","hc-key":"ug","hc-a2":"UG","name":"Uganda","labelrank":"3","country-abbrev":"Uga.","subregion":"Eastern Africa","region-wb":"Sub-Saharan Africa","iso-a3":"UGA","iso-a2":"UG","woe-id":"23424974","continent":"Africa","hc-middle-lon":30.375,"hc-middle-lat":1.151}},{"type":"Polygon","arcs":[[882]],"id":"VA","properties":{"hc-group":"admin0","hc-key":"va","hc-a2":"VA","name":"Vatican","labelrank":"6","country-abbrev":"Vat.","subregion":"Southern Europe","region-wb":"Europe & Central Asia","iso-a3":"VAT","iso-a2":"VA","woe-id":"23424986","continent":"Europe","hc-middle-lon":12.442,"hc-middle-lat":41.855}},{"type":"Polygon","arcs":[[-884]],"id":"SM","properties":{"hc-group":"admin0","hc-key":"sm","hc-a2":"SM","name":"San Marino","labelrank":"6","country-abbrev":"S.M.","subregion":"Southern Europe","region-wb":"Europe & Central Asia","iso-a3":"SMR","iso-a2":"SM","woe-id":"23424947","continent":"Europe","hc-middle-lon":12.423,"hc-middle-lat":43.898}},{"type":"MultiPolygon","arcs":[[[1045]],[[1046]],[[1047,1048]],[[1049,1050,1051,-929,-164,1052,1053,1054]]],"id":"KZ","properties":{"hc-group":"admin0","hc-key":"kz","hc-a2":"KZ","name":"Kazakhstan","labelrank":"3","country-abbrev":"Kaz.","subregion":"Central Asia","region-wb":"Europe & Central Asia","iso-a3":"KAZ","iso-a2":"KZ","woe-id":"-90","continent":"Asia","hc-middle-lon":70.087,"hc-middle-lat":48.726}},{"type":"MultiPolygon","arcs":[[[1055]],[[1056]],[[-655,1057,-809]],[[1058,-811,1059,1060,-931],[1061]]],"id":"AZ","properties":{"hc-group":"admin0","hc-key":"az","hc-a2":"AZ","name":"Azerbaijan","labelrank":"5","country-abbrev":"Aze.","subregion":"Western Asia","region-wb":"Europe & Central Asia","iso-a3":"AZE","iso-a2":"AZ","woe-id":"23424741","continent":"Asia","hc-middle-lon":48.634,"hc-middle-lat":41.339}},{"type":"MultiPolygon","arcs":[[[-1062]],[[-810,-1058,-654,1062,-1060],[-1056],[1056]]],"id":"AM","properties":{"hc-group":"admin0","hc-key":"am","hc-a2":"AM","name":"Armenia","labelrank":"6","country-abbrev":"Arm.","subregion":"Western Asia","region-wb":"Europe & Central Asia","iso-a3":"ARM","iso-a2":"AM","woe-id":"23424743","continent":"Asia","hc-middle-lon":43.698,"hc-middle-lat":40.97}},{"type":"MultiPolygon","arcs":[[[1063]],[[1064]],[[-162,1065,1066,1067]]],"id":"TJ","properties":{"hc-group":"admin0","hc-key":"tj","hc-a2":"TJ","name":"Tajikistan","labelrank":"4","country-abbrev":"Tjk.","subregion":"Central Asia","region-wb":"Europe & Central Asia","iso-a3":"TJK","iso-a2":"TJ","woe-id":"23424961","continent":"Asia","hc-middle-lon":71.011,"hc-middle-lat":38.835}},{"type":"Polygon","arcs":[[1068]],"id":"LS","properties":{"hc-group":"admin0","hc-key":"ls","hc-a2":"LS","name":"Lesotho","labelrank":"6","country-abbrev":"Les.","subregion":"Southern Africa","region-wb":"Sub-Saharan Africa","iso-a3":"LSO","iso-a2":"LS","woe-id":"23424880","continent":"Africa","hc-middle-lon":28.177,"hc-middle-lat":-29.541}},{"type":"MultiPolygon","arcs":[[[1069]],[[1070]],[[1071,-1054,1072,-1067,1073,1074,1075,1076,-1050,1077,-1049],[-1064]]],"id":"UZ","properties":{"hc-group":"admin0","hc-key":"uz","hc-a2":"UZ","name":"Uzbekistan","labelrank":"3","country-abbrev":"Uzb.","subregion":"Central Asia","region-wb":"Europe & Central Asia","iso-a3":"UZB","iso-a2":"UZ","woe-id":"23424980","continent":"Asia","hc-middle-lon":63.782,"hc-middle-lat":41.149}},{"type":"Polygon","arcs":[[1078,1079,1080,1081,-250,1082,246]],"id":"MA","properties":{"hc-group":"admin0","hc-key":"ma","hc-a2":"MA","name":"Morocco","labelrank":"3","country-abbrev":"Mor.","subregion":"Northern Africa","region-wb":"Middle East & North Africa","iso-a3":"MAR","iso-a2":"MA","woe-id":"23424893","continent":"Africa","hc-middle-lon":-7.438,"hc-middle-lat":32.949}},{"type":"Polygon","arcs":[[-202,1083,1084,1085,1086,-194,1087]],"id":"CO","properties":{"hc-group":"admin0","hc-key":"co","hc-a2":"CO","name":"Colombia","labelrank":"2","country-abbrev":"Col.","subregion":"South America","region-wb":"Latin America & Caribbean","iso-a3":"COL","iso-a2":"CO","woe-id":"23424787","continent":"South America","hc-middle-lon":-72.742,"hc-middle-lat":3.458}},{"type":"MultiPolygon","arcs":[[[1088,-766]],[[1089,-768]]],"id":"TL","properties":{"hc-group":"admin0","hc-key":"tl","hc-a2":"TL","name":"East Timor","labelrank":"5","country-abbrev":"T.L.","subregion":"South-Eastern Asia","region-wb":"East Asia & Pacific","iso-a3":"TLS","iso-a2":"TL","woe-id":"23424968","continent":"Asia","hc-middle-lon":125.96,"hc-middle-lat":-8.663}},{"type":"Polygon","arcs":[[1090,-858,1091,1092]],"id":"KH","properties":{"hc-group":"admin0","hc-key":"kh","hc-a2":"KH","name":"Cambodia","labelrank":"3","country-abbrev":"Camb.","subregion":"South-Eastern Asia","region-wb":"East Asia & Pacific","iso-a3":"KHM","iso-a2":"KH","woe-id":"23424776","continent":"Asia","hc-middle-lon":106.521,"hc-middle-lat":12.592}},{"type":"Polygon","arcs":[[1093,1094,1095,1096,-642,-636,1097,1098,1099,1100]],"id":"SA","properties":{"hc-group":"admin0","hc-key":"sa","hc-a2":"SA","name":"Saudi Arabia","labelrank":"2","country-abbrev":"Saud.","subregion":"Western Asia","region-wb":"Middle East & North Africa","iso-a3":"SAU","iso-a2":"SA","woe-id":"23424938","continent":"Asia","hc-middle-lon":43.572,"hc-middle-lat":24.379}},{"type":"Polygon","arcs":[[-160,1101,-119,1102,-815,1103]],"id":"PK","properties":{"hc-group":"admin0","hc-key":"pk","hc-a2":"PK","name":"Pakistan","labelrank":"2","country-abbrev":"Pak.","subregion":"Southern Asia","region-wb":"South Asia","iso-a3":"PAK","iso-a2":"PK","woe-id":"23424922","continent":"Asia","hc-middle-lon":65.479,"hc-middle-lat":27.228}},{"type":"Polygon","arcs":[[1104,-643,-1097,1105,-641],[-639]],"id":"AE","properties":{"hc-group":"admin0","hc-key":"ae","hc-a2":"AE","name":"United Arab Emirates","labelrank":"4","country-abbrev":"U.A.E.","subregion":"Western Asia","region-wb":"Middle East & North Africa","iso-a3":"ARE","iso-a2":"AE","woe-id":"23424738","continent":"Asia","hc-middle-lon":54.347,"hc-middle-lat":23.832}},{"type":"Polygon","arcs":[[-610,1106,-1044,1107,1108,1109,1110]],"id":"KE","properties":{"hc-group":"admin0","hc-key":"ke","hc-a2":"KE","name":"Kenya","labelrank":"2","country-abbrev":"Ken.","subregion":"Eastern Africa","region-wb":"Sub-Saharan Africa","iso-a3":"KEN","iso-a2":"KE","woe-id":"23424863","continent":"Africa","hc-middle-lon":40.799,"hc-middle-lat":-1.773}},{"type":"Polygon","arcs":[[1111,1112,1113,1114,-820,1115,-203,-1088,-193,1116]],"id":"PE","properties":{"hc-group":"admin0","hc-key":"pe","hc-a2":"PE","name":"Peru","labelrank":"2","country-abbrev":"Peru","subregion":"South America","region-wb":"Latin America & Caribbean","iso-a3":"PER","iso-a2":"PE","woe-id":"23424919","continent":"South America","hc-middle-lon":-72.655,"hc-middle-lat":-12.9}},{"type":"Polygon","arcs":[[1117,1118,1119,1120,1121]],"id":"DO","properties":{"hc-group":"admin0","hc-key":"do","hc-a2":"DO","name":"Dominican Republic","labelrank":"5","country-abbrev":"Dom. Rep.","subregion":"Caribbean","region-wb":"Latin America & Caribbean","iso-a3":"DOM","iso-a2":"DO","woe-id":"23424800","continent":"North America","hc-middle-lon":-70.171,"hc-middle-lat":18.955}},{"type":"MultiPolygon","arcs":[[[1117,-1118,1122]],[[-1120,1123,-1122,1124]]],"id":"HT","properties":{"hc-group":"admin0","hc-key":"ht","hc-a2":"HT","name":"Haiti","labelrank":"5","country-abbrev":"Haiti","subregion":"Caribbean","region-wb":"Latin America & Caribbean","iso-a3":"HTI","iso-a2":"HT","woe-id":"23424839","continent":"North America","hc-middle-lon":-73.808,"hc-middle-lat":18.186}},{"type":"MultiPolygon","arcs":[[[1125,1126,1127]],[[1128,1129,1130,1131]]],"id":"AO","properties":{"hc-group":"admin0","hc-key":"ao","hc-a2":"AO","name":"Angola","labelrank":"3","country-abbrev":"Ang.","subregion":"Middle Africa","region-wb":"Sub-Saharan Africa","iso-a3":"AGO","iso-a2":"AO","woe-id":"23424745","continent":"Africa","hc-middle-lon":17.887,"hc-middle-lat":-13.559}},{"type":"Polygon","arcs":[[1132,-612,1133,1134,1135,1136,1137,1138,1139]],"id":"MZ","properties":{"hc-group":"admin0","hc-key":"mz","hc-a2":"MZ","name":"Mozambique","labelrank":"3","country-abbrev":"Moz.","subregion":"Eastern Africa","region-wb":"Sub-Saharan Africa","iso-a3":"MOZ","iso-a2":"MZ","woe-id":"23424902","continent":"Africa","hc-middle-lon":36.026,"hc-middle-lat":-17.288}},{"type":"Polygon","arcs":[[1140,-1085,1141,1142]],"id":"PA","properties":{"hc-group":"admin0","hc-key":"pa","hc-a2":"PA","name":"Panama","labelrank":"4","country-abbrev":"Pan.","subregion":"Central America","region-wb":"Latin America & Caribbean","iso-a3":"PAN","iso-a2":"PA","woe-id":"23424924","continent":"North America","hc-middle-lon":-81.665,"hc-middle-lat":8.395}},{"type":"Polygon","arcs":[[1143,-1143,1144,1145]],"id":"CR","properties":{"hc-group":"admin0","hc-key":"cr","hc-a2":"CR","name":"Costa Rica","labelrank":"5","country-abbrev":"C.R.","subregion":"Central America","region-wb":"Latin America & Caribbean","iso-a3":"CRI","iso-a2":"CR","woe-id":"23424791","continent":"North America","hc-middle-lon":-85.302,"hc-middle-lat":10.903}},{"type":"Polygon","arcs":[[1146,1147,1148]],"id":"SV","properties":{"hc-group":"admin0","hc-key":"sv","hc-a2":"SV","name":"El Salvador","labelrank":"6","country-abbrev":"El. S.","subregion":"Central America","region-wb":"Latin America & Caribbean","iso-a3":"SLV","iso-a2":"SV","woe-id":"23424807","continent":"North America","hc-middle-lon":-88.808,"hc-middle-lat":13.774}},{"type":"MultiPolygon","arcs":[[[-821,-1115,1149,-1117,-192,1150,-620]],[[1151,-1113]]],"id":"BO","properties":{"hc-group":"admin0","hc-key":"bo","hc-a2":"BO","name":"Bolivia","labelrank":"3","country-abbrev":"Bolivia","subregion":"South America","region-wb":"Latin America & Caribbean","iso-a3":"BOL","iso-a2":"BO","woe-id":"23424762","continent":"South America","hc-middle-lon":-63.776,"hc-middle-lat":-17.541}},{"type":"MultiPolygon","arcs":[[[1152,1153,1154]],[[1155,1156,1157,1158,1159]]],"id":"HR","properties":{"hc-group":"admin0","hc-key":"hr","hc-a2":"HR","name":"Croatia","labelrank":"6","country-abbrev":"Cro.","subregion":"Southern Europe","region-wb":"Europe & Central Asia","iso-a3":"HRV","iso-a2":"HR","woe-id":"23424843","continent":"Europe","hc-middle-lon":15.49,"hc-middle-lat":44.063}},{"type":"Polygon","arcs":[[-239,1160,1161]],"id":"BZ","properties":{"hc-group":"admin0","hc-key":"bz","hc-a2":"BZ","name":"Belize","labelrank":"6","country-abbrev":"Belize","subregion":"Central America","region-wb":"Latin America & Caribbean","iso-a3":"BLZ","iso-a2":"BZ","woe-id":"23424760","continent":"North America","hc-middle-lon":-88.643,"hc-middle-lat":17.175}},{"type":"Polygon","arcs":[[-1135,1162,1163,1164,1165,-1137,1166],[-1069]],"id":"ZA","properties":{"hc-group":"admin0","hc-key":"za","hc-a2":"ZA","name":"South Africa","labelrank":"2","country-abbrev":"S.Af.","subregion":"Southern Africa","region-wb":"Sub-Saharan Africa","iso-a3":"ZAF","iso-a2":"ZA","woe-id":"23424942","continent":"Africa","hc-middle-lon":22.378,"hc-middle-lat":-31.083}},{"type":"Polygon","arcs":[[1167,1168,1169,1170,1171,1172,1173]],"id":"LY","properties":{"hc-group":"admin0","hc-key":"ly","hc-a2":"LY","name":"Libya","labelrank":"3","country-abbrev":"Libya","subregion":"Northern Africa","region-wb":"Middle East & North Africa","iso-a3":"LBY","iso-a2":"LY","woe-id":"23424882","continent":"Africa","hc-middle-lon":17.209,"hc-middle-lat":27.938}},{"type":"Polygon","arcs":[[-1168,1174,1175,1176,1177,1178,1179,1180,1181,1182,1183,1184,1185]],"id":"SD","properties":{"hc-group":"admin0","hc-key":"sd","hc-a2":"SD","name":"Sudan","labelrank":"3","country-abbrev":"Sudan","subregion":"Northern Africa","region-wb":"Sub-Saharan Africa","iso-a3":"SDN","iso-a2":"SD","woe-id":"-90","continent":"Africa","hc-middle-lon":30.168,"hc-middle-lat":15.631}},{"type":"Polygon","arcs":[[1186,1187,1188,1189,-1130,1190,-1128,1191,1192,1193,-1042,1194,-1040,1195,-1038,1196,1197,1198,1199]],"id":"CD","properties":{"hc-group":"admin0","hc-key":"cd","hc-a2":"CD","name":"Democratic Republic of the Congo","labelrank":"2","country-abbrev":"D.R.C.","subregion":"Middle Africa","region-wb":"Sub-Saharan Africa","iso-a3":"COD","iso-a2":"CD","woe-id":"23424780","continent":"Africa","hc-middle-lon":23.244,"hc-middle-lat":-2.56}},{"type":"Polygon","arcs":[[1200,-1101,1201]],"id":"KW","properties":{"hc-group":"admin0","hc-key":"kw","hc-a2":"KW","name":"Kuwait","labelrank":"6","country-abbrev":"Kwt.","subregion":"Western Asia","region-wb":"Middle East & North Africa","iso-a3":"KWT","iso-a2":"KW","woe-id":"23424870","continent":"Asia","hc-middle-lon":47.704,"hc-middle-lat":29.279}},{"type":"Polygon","arcs":[[-1182,1202,1203,1204]],"id":"ER","properties":{"hc-group":"admin0","hc-key":"er","hc-a2":"ER","name":"Eritrea","labelrank":"4","country-abbrev":"Erit.","subregion":"Eastern Africa","region-wb":"Sub-Saharan Africa","iso-a3":"ERI","iso-a2":"ER","woe-id":"23424806","continent":"Africa","hc-middle-lon":37.062,"hc-middle-lat":16.625}},{"type":"Polygon","arcs":[[-293,1205]],"id":"IE","properties":{"hc-group":"admin0","hc-key":"ie","hc-a2":"IE","name":"Ireland","labelrank":"3","country-abbrev":"Ire.","subregion":"Northern Europe","region-wb":"Europe & Central Asia","iso-a3":"IRL","iso-a2":"IE","woe-id":"23424803","continent":"Europe","hc-middle-lon":-8.487,"hc-middle-lat":53.339}},{"type":"Polygon","arcs":[[1206,-125,1207,-172,-926]],"id":"KP","properties":{"hc-group":"admin0","hc-key":"kp","hc-a2":"KP","name":"North Korea","labelrank":"3","country-abbrev":"N.K.","subregion":"Eastern Asia","region-wb":"East Asia & Pacific","iso-a3":"PRK","iso-a2":"KP","woe-id":"23424865","continent":"Asia","hc-middle-lon":126.383,"hc-middle-lat":39.355}},{"type":"Polygon","arcs":[[1208,-195,-1087,1209]],"id":"VE","properties":{"hc-group":"admin0","hc-key":"ve","hc-a2":"VE","name":"Venezuela","labelrank":"3","country-abbrev":"Ven.","subregion":"South America","region-wb":"Latin America & Caribbean","iso-a3":"VEN","iso-a2":"VE","woe-id":"23424982","continent":"South America","hc-middle-lon":-67.35,"hc-middle-lat":9.327}},{"type":"Polygon","arcs":[[-1209,1210,1211,1212,-196]],"id":"GY","properties":{"hc-group":"admin0","hc-key":"gy","hc-a2":"GY","name":"Guyana","labelrank":"4","country-abbrev":"Guy.","subregion":"South America","region-wb":"Latin America & Caribbean","iso-a3":"GUY","iso-a2":"GY","woe-id":"23424836","continent":"South America","hc-middle-lon":-59.406,"hc-middle-lat":6.494}},{"type":"Polygon","arcs":[[1213,1214,1215,-1149,1216]],"id":"HN","properties":{"hc-group":"admin0","hc-key":"hn","hc-a2":"HN","name":"Honduras","labelrank":"5","country-abbrev":"Hond.","subregion":"Central America","region-wb":"Latin America & Caribbean","iso-a3":"HND","iso-a2":"HN","woe-id":"23424841","continent":"North America","hc-middle-lon":-84.834,"hc-middle-lat":15.679}},{"type":"Polygon","arcs":[[-657,-115,-176,1217,-856,1218]],"id":"MM","properties":{"hc-group":"admin0","hc-key":"mm","hc-a2":"MM","name":"Myanmar","labelrank":"3","country-abbrev":"Myan.","subregion":"South-Eastern Asia","region-wb":"East Asia & Pacific","iso-a3":"MMR","iso-a2":"MM","woe-id":"23424763","continent":"Asia","hc-middle-lon":93.773,"hc-middle-lat":19.524}},{"type":"Polygon","arcs":[[-912,1219,1220,1221]],"id":"GA","properties":{"hc-group":"admin0","hc-key":"ga","hc-a2":"GA","name":"Gabon","labelrank":"4","country-abbrev":"Gabon","subregion":"Middle Africa","region-wb":"Sub-Saharan Africa","iso-a3":"GAB","iso-a2":"GA","woe-id":"23424822","continent":"Africa","hc-middle-lon":10.649,"hc-middle-lat":-1.557}},{"type":"Polygon","arcs":[[1222,-1215,1223,-1146]],"id":"NI","properties":{"hc-group":"admin0","hc-key":"ni","hc-a2":"NI","name":"Nicaragua","labelrank":"5","country-abbrev":"Nic.","subregion":"Central America","region-wb":"Latin America & Caribbean","iso-a3":"NIC","iso-a2":"NI","woe-id":"23424915","continent":"North America","hc-middle-lon":-83.746,"hc-middle-lat":12.912}},{"type":"MultiPolygon","arcs":[[[1224,1224,1224]],[[595,-596,1225]],[[597,-598,1226]],[[1227,1227,1227]],[[-601,1228,-1140,1229]]],"id":"MW","properties":{"hc-group":"admin0","hc-key":"mw","hc-a2":"MW","name":"Malawi","labelrank":"6","country-abbrev":"Mal.","subregion":"Eastern Africa","region-wb":"Sub-Saharan Africa","iso-a3":"MWI","iso-a2":"MW","woe-id":"23424889","continent":"Africa","hc-middle-lon":33.412,"hc-middle-lat":-11.81}},{"type":"Polygon","arcs":[[1230,1231,1232,1233]],"id":"SX","properties":{"hc-group":"admin0","hc-key":"sx","hc-a2":"SX","name":"Somaliland","labelrank":"5","country-abbrev":"Solnd.","subregion":"Eastern Africa","region-wb":"Sub-Saharan Africa","iso-a3":"-99","iso-a2":"SX","woe-id":"-99","continent":"Africa","hc-middle-lon":47.372,"hc-middle-lat":9.663}},{"type":"Polygon","arcs":[[1234,-1075,1235,-813,1236,-1051,-1077]],"id":"TM","properties":{"hc-group":"admin0","hc-key":"tm","hc-a2":"TM","name":"Turkmenistan","labelrank":"4","country-abbrev":"Turkm.","subregion":"Central Asia","region-wb":"Europe & Central Asia","iso-a3":"TKM","iso-a2":"TM","woe-id":"23424972","continent":"Asia","hc-middle-lon":57.735,"hc-middle-lat":39.682}},{"type":"Polygon","arcs":[[1237,-1188,1238,-602,-1230,-1139,1239,1240,1241,1242,-1131,-1190]],"id":"ZM","properties":{"hc-group":"admin0","hc-key":"zm","hc-a2":"ZM","name":"Zambia","labelrank":"3","country-abbrev":"Zambia","subregion":"Eastern Africa","region-wb":"Sub-Saharan Africa","iso-a3":"ZMB","iso-a2":"ZM","woe-id":"23425003","continent":"Africa","hc-middle-lon":24.868,"hc-middle-lat":-14.83}},{"type":"MultiPolygon","arcs":[[[-284,-283,1243,1244,1245]],[[1246,-1247,1247]]],"id":"NC","properties":{"hc-group":"admin0","hc-key":"nc","hc-a2":"NC","name":"Northern Cyprus","labelrank":"6","country-abbrev":"N. Cy.","subregion":"Western Asia","region-wb":"Europe & Central Asia","iso-a3":"-99","iso-a2":"NC","woe-id":"-90","continent":"Asia","hc-middle-lon":33.661,"hc-middle-lat":35.224}},{"type":"Polygon","arcs":[[1248,1249,1250,1251,1252]],"id":"MR","properties":{"hc-group":"admin0","hc-key":"mr","hc-a2":"MR","name":"Mauritania","labelrank":"3","country-abbrev":"Mrt.","subregion":"Western Africa","region-wb":"Sub-Saharan Africa","iso-a3":"MRT","iso-a2":"MR","woe-id":"23424896","continent":"Africa","hc-middle-lon":-9.467,"hc-middle-lat":19.434}},{"type":"Polygon","arcs":[[-1249,1253,-1080,1254,1255,-1171,1256,1257]],"id":"DZ","properties":{"hc-group":"admin0","hc-key":"dz","hc-a2":"DZ","name":"Algeria","labelrank":"3","country-abbrev":"Alg.","subregion":"Northern Africa","region-wb":"Middle East & North Africa","iso-a3":"DZA","iso-a2":"DZ","woe-id":"23424740","continent":"Africa","hc-middle-lon":4.336,"hc-middle-lat":28.425}},{"type":"MultiPolygon","arcs":[[[1258,1259,1260,1261,-1020]],[[1262,-1018]]],"id":"LT","properties":{"hc-group":"admin0","hc-key":"lt","hc-a2":"LT","name":"Lithuania","labelrank":"5","country-abbrev":"Lith.","subregion":"Northern Europe","region-wb":"Europe & Central Asia","iso-a3":"LTU","iso-a2":"LT","woe-id":"23424875","continent":"Europe","hc-middle-lon":22.349,"hc-middle-lat":56.082}},{"type":"Polygon","arcs":[[1263,1264,-1233,1265,-1109,1266,-1183,-1205,1267]],"id":"ET","properties":{"hc-group":"admin0","hc-key":"et","hc-a2":"ET","name":"Ethiopia","labelrank":"2","country-abbrev":"Eth.","subregion":"Eastern Africa","region-wb":"Sub-Saharan Africa","iso-a3":"ETH","iso-a2":"ET","woe-id":"23424808","continent":"Africa","hc-middle-lon":39.7,"hc-middle-lat":8.255}},{"type":"Polygon","arcs":[[-1266,-1232,1268,-1110]],"id":"SO","properties":{"hc-group":"admin0","hc-key":"so","hc-a2":"SO","name":"Somalia","labelrank":"6","country-abbrev":"Som.","subregion":"Eastern Africa","region-wb":"Sub-Saharan Africa","iso-a3":"SOM","iso-a2":"SO","woe-id":"-90","continent":"Africa","hc-middle-lon":44.928,"hc-middle-lat":1.883}},{"type":"Polygon","arcs":[[1269,1270,1271,1272,1273,1274]],"id":"GH","properties":{"hc-group":"admin0","hc-key":"gh","hc-a2":"GH","name":"Ghana","labelrank":"3","country-abbrev":"Ghana","subregion":"Western Africa","region-wb":"Sub-Saharan Africa","iso-a3":"GHA","iso-a2":"GH","woe-id":"23424824","continent":"Africa","hc-middle-lon":-2.658,"hc-middle-lat":6.212}},{"type":"Polygon","arcs":[[1275,-881,1276,1277,-1159]],"id":"SI","properties":{"hc-group":"admin0","hc-key":"si","hc-a2":"SI","name":"Slovenia","labelrank":"6","country-abbrev":"Slo.","subregion":"Southern Europe","region-wb":"Europe & Central Asia","iso-a3":"SVN","iso-a2":"SI","woe-id":"23424945","continent":"Europe","hc-middle-lon":14.999,"hc-middle-lat":46.005}},{"type":"Polygon","arcs":[[1278,-1217,-1148,1279,-240,-1162]],"id":"GT","properties":{"hc-group":"admin0","hc-key":"gt","hc-a2":"GT","name":"Guatemala","labelrank":"3","country-abbrev":"Guat.","subregion":"Central America","region-wb":"Latin America & Caribbean","iso-a3":"GTM","iso-a2":"GT","woe-id":"23424834","continent":"North America","hc-middle-lon":-91.221,"hc-middle-lat":14.572}},{"type":"Polygon","arcs":[[1280,-1157,1281,1282,-1154]],"id":"BA","properties":{"hc-group":"admin0","hc-key":"ba","hc-a2":"BA","name":"Bosnia and Herzegovina","labelrank":"5","country-abbrev":"B.H.","subregion":"Southern Europe","region-wb":"Europe & Central Asia","iso-a3":"BIH","iso-a2":"BA","woe-id":"23424761","continent":"Europe","hc-middle-lon":17.876,"hc-middle-lat":44.394}},{"type":"Polygon","arcs":[[1283,1284,1285,1286,1287,1288,-1099,1289,1290]],"id":"JO","properties":{"hc-group":"admin0","hc-key":"jo","hc-a2":"JO","name":"Jordan","labelrank":"4","country-abbrev":"Jord.","subregion":"Western Asia","region-wb":"Middle East & North Africa","iso-a3":"JOR","iso-a2":"JO","woe-id":"23424860","continent":"Asia","hc-middle-lon":35.2,"hc-middle-lat":30.081}},{"type":"Polygon","arcs":[[1291,-139]],"id":"MC","properties":{"hc-group":"admin0","hc-key":"mc","hc-a2":"MC","name":"Monaco","labelrank":"6","country-abbrev":"Mco.","subregion":"Western Europe","region-wb":"Europe & Central Asia","iso-a3":"MCO","iso-a2":"MC","woe-id":"23424892","continent":"Europe","hc-middle-lon":7.387,"hc-middle-lat":43.692}},{"type":"MultiPolygon","arcs":[[[1292,1292,1292]],[[1293,1294,1295,1296,1297,1298,1299,1300,-312,1301,-319,317,1302,1303]],[[1304,-1305,1305]]],"id":"AL","properties":{"hc-group":"admin0","hc-key":"al","hc-a2":"AL","name":"Albania","labelrank":"6","country-abbrev":"Alb.","subregion":"Southern Europe","region-wb":"Europe & Central Asia","iso-a3":"ALB","iso-a2":"AL","woe-id":"23424742","continent":"Europe","hc-middle-lon":19.974,"hc-middle-lat":41.115}},{"type":"Polygon","arcs":[[1306,-199,1307,-617,-187]],"id":"UY","properties":{"hc-group":"admin0","hc-key":"uy","hc-a2":"UY","name":"Uruguay","labelrank":"4","country-abbrev":"Ury.","subregion":"South America","region-wb":"Latin America & Caribbean","iso-a3":"URY","iso-a2":"UY","woe-id":"23424979","continent":"South America","hc-middle-lon":-54.469,"hc-middle-lat":-34.426}},{"type":"MultiPolygon","arcs":[[[-916,-285,-1246]],[[1246,1308,-920]],[[-1244,-282,-922]]],"id":"CNM","properties":{"hc-group":"admin0","hc-key":"cnm","hc-a2":"CN","name":"Cyprus No Mans Area","labelrank":"9","country-abbrev":null,"subregion":"Western Asia","region-wb":"Europe & Central Asia","iso-a3":"-99","iso-a2":null,"woe-id":"-99","continent":"Asia","hc-middle-lon":33.486,"hc-middle-lat":35.059}},{"type":"Polygon","arcs":[[1309,-166,-928,-168]],"id":"MN","properties":{"hc-group":"admin0","hc-key":"mn","hc-a2":"MN","name":"Mongolia","labelrank":"3","country-abbrev":"Mong.","subregion":"Eastern Asia","region-wb":"East Asia & Pacific","iso-a3":"MNG","iso-a2":"MN","woe-id":"23424887","continent":"Asia","hc-middle-lon":103.397,"hc-middle-lat":46.746}},{"type":"Polygon","arcs":[[-1199,1310,-1197,-1037,-605,1311]],"id":"RW","properties":{"hc-group":"admin0","hc-key":"rw","hc-a2":"RW","name":"Rwanda","labelrank":"3","country-abbrev":"Rwa.","subregion":"Eastern Africa","region-wb":"Sub-Saharan Africa","iso-a3":"RWA","iso-a2":"RW","woe-id":"23424937","continent":"Africa","hc-middle-lon":29.773,"hc-middle-lat":-2.039}},{"type":"MultiPolygon","arcs":[[[-1220,-914,1312,1313,1314,1315,1316,1317,1318]],[[1319,1320]]],"id":"CM","properties":{"hc-group":"admin0","hc-key":"cm","hc-a2":"CM","name":"Cameroon","labelrank":"3","country-abbrev":"Cam.","subregion":"Middle Africa","region-wb":"Sub-Saharan Africa","iso-a3":"CMR","iso-a2":"CM","woe-id":"23424785","continent":"Africa","hc-middle-lon":10.577,"hc-middle-lat":5.497}},{"type":"Polygon","arcs":[[-1319,1321,-1192,-1127,1322,-1221]],"id":"CG","properties":{"hc-group":"admin0","hc-key":"cg","hc-a2":"CG","name":"Republic of Congo","labelrank":"4","country-abbrev":"Rep. Congo","subregion":"Middle Africa","region-wb":"Sub-Saharan Africa","iso-a3":"COG","iso-a2":"CG","woe-id":"23424779","continent":"Africa","hc-middle-lon":12.215,"hc-middle-lat":-3.1}},{"type":"Polygon","arcs":[[1323,-1081,-1254,-1253]],"id":"EH","properties":{"hc-group":"admin0","hc-key":"eh","hc-a2":"EH","name":"Western Sahara","labelrank":"7","country-abbrev":"W. Sah.","subregion":"Northern Africa","region-wb":"Middle East & North Africa","iso-a3":"ESH","iso-a2":"EH","woe-id":"23424990","continent":"Africa","hc-middle-lon":-13.623,"hc-middle-lat":22.76}},{"type":"Polygon","arcs":[[-1156,1324,1325,1326,1327,1328,1329,-1282]],"id":"RS","properties":{"hc-group":"admin0","hc-key":"rs","hc-a2":"RS","name":"Republic of Serbia","labelrank":"5","country-abbrev":"Serb.","subregion":"Southern Europe","region-wb":"Europe & Central Asia","iso-a3":"SRB","iso-a2":"RS","woe-id":"-90","continent":"Europe","hc-middle-lon":20.668,"hc-middle-lat":44.144}},{"type":"Polygon","arcs":[[-1295,1330,1304,1331,-1304,1332,-1155,-1283,-1330,1333]],"id":"ME","properties":{"hc-group":"admin0","hc-key":"me","hc-a2":"ME","name":"Montenegro","labelrank":"6","country-abbrev":"Mont.","subregion":"Southern Europe","region-wb":"Europe & Central Asia","iso-a3":"MNE","iso-a2":"ME","woe-id":"20069817","continent":"Europe","hc-middle-lon":19.211,"hc-middle-lat":42.697}},{"type":"Polygon","arcs":[[1334,1335,1336,1337,1338]],"id":"BJ","properties":{"hc-group":"admin0","hc-key":"bj","hc-a2":"BJ","name":"Benin","labelrank":"5","country-abbrev":"Benin","subregion":"Western Africa","region-wb":"Sub-Saharan Africa","iso-a3":"BEN","iso-a2":"BJ","woe-id":"23424764","continent":"Africa","hc-middle-lon":2.512,"hc-middle-lat":9.31}},{"type":"Polygon","arcs":[[-1339,1339,1340,-1314,1341]],"id":"NG","properties":{"hc-group":"admin0","hc-key":"ng","hc-a2":"NG","name":"Nigeria","labelrank":"2","country-abbrev":"Nigeria","subregion":"Western Africa","region-wb":"Sub-Saharan Africa","iso-a3":"NGA","iso-a2":"NG","woe-id":"23424908","continent":"Africa","hc-middle-lon":8.66,"hc-middle-lat":10.723}},{"type":"Polygon","arcs":[[-1336,1342,-1275,1343]],"id":"TG","properties":{"hc-group":"admin0","hc-key":"tg","hc-a2":"TG","name":"Togo","labelrank":"6","country-abbrev":"Togo","subregion":"Western Africa","region-wb":"Sub-Saharan Africa","iso-a3":"TGO","iso-a2":"TG","woe-id":"23424965","continent":"Africa","hc-middle-lon":1.2,"hc-middle-lat":7.058}},{"type":"Polygon","arcs":[[-161,-1104,-814,-1236,-1074,-1066]],"id":"AF","properties":{"hc-group":"admin0","hc-key":"af","hc-a2":"AF","name":"Afghanistan","labelrank":"3","country-abbrev":"Afg.","subregion":"Southern Asia","region-wb":"South Asia","iso-a3":"AFG","iso-a2":"AF","woe-id":"23424739","continent":"Asia","hc-middle-lon":65.879,"hc-middle-lat":33.687}},{"type":"Polygon","arcs":[[1344,1345,1346,-934,1347,1348,1349,1350,1351],[1352],[1353]],"id":"UA","properties":{"hc-group":"admin0","hc-key":"ua","hc-a2":"UA","name":"Ukraine","labelrank":"3","country-abbrev":"Ukr.","subregion":"Eastern Europe","region-wb":"Europe & Central Asia","iso-a3":"UKR","iso-a2":"UA","woe-id":"23424976","continent":"Europe","hc-middle-lon":34.697,"hc-middle-lat":48.666}},{"type":"Polygon","arcs":[[-1345,1354,1355,1356,1357]],"id":"SK","properties":{"hc-group":"admin0","hc-key":"sk","hc-a2":"SK","name":"Slovakia","labelrank":"6","country-abbrev":"Svk.","subregion":"Eastern Europe","region-wb":"Europe & Central Asia","iso-a3":"SVK","iso-a2":"SK","woe-id":"23424877","continent":"Europe","hc-middle-lon":21.264,"hc-middle-lat":49.031}},{"type":"Polygon","arcs":[[-120,-1102,-159]],"id":"JK","properties":{"hc-group":"admin0","hc-key":"jk","hc-a2":"JK","name":"Siachen Glacier","labelrank":"5","country-abbrev":"Siachen","subregion":"Southern Asia","region-wb":"South Asia","iso-a3":"-99","iso-a2":"JK","woe-id":"23424928","continent":"Asia","hc-middle-lon":77.104,"hc-middle-lat":35.276}},{"type":"Polygon","arcs":[[1358,-648,-315,1359,-1327,1360]],"id":"BG","properties":{"hc-group":"admin0","hc-key":"bg","hc-a2":"BG","name":"Bulgaria","labelrank":"4","country-abbrev":"Bulg.","subregion":"Eastern Europe","region-wb":"Europe & Central Asia","iso-a3":"BGR","iso-a2":"BG","woe-id":"23424771","continent":"Europe","hc-middle-lon":27.059,"hc-middle-lat":42.673}},{"type":"Polygon","arcs":[[1361,-1095]],"id":"QA","properties":{"hc-group":"admin0","hc-key":"qa","hc-a2":"QA","name":"Qatar","labelrank":"5","country-abbrev":"Qatar","subregion":"Western Asia","region-wb":"Middle East & North Africa","iso-a3":"QAT","iso-a2":"QA","woe-id":"23424930","continent":"Asia","hc-middle-lon":51.134,"hc-middle-lat":25.341}},{"type":"Polygon","arcs":[[1362,1363]],"id":"LI","properties":{"hc-group":"admin0","hc-key":"li","hc-a2":"LI","name":"Liechtenstein","labelrank":"6","country-abbrev":"Liech.","subregion":"Western Europe","region-wb":"Europe & Central Asia","iso-a3":"LIE","iso-a2":"LI","woe-id":"23424879","continent":"Europe","hc-middle-lon":9.54,"hc-middle-lat":47.113}},{"type":"Polygon","arcs":[[-1363,1364,1365,-900,1366,-1356,1367,-1277,-880,1368]],"id":"AT","properties":{"hc-group":"admin0","hc-key":"at","hc-a2":"AT","name":"Austria","labelrank":"4","country-abbrev":"Aust.","subregion":"Western Europe","region-wb":"Europe & Central Asia","iso-a3":"AUT","iso-a2":"AT","woe-id":"23424750","continent":"Europe","hc-middle-lon":13.4,"hc-middle-lat":47.353}},{"type":"Polygon","arcs":[[-1136,-1167]],"id":"SZ","properties":{"hc-group":"admin0","hc-key":"sz","hc-a2":"SZ","name":"Swaziland","labelrank":"4","country-abbrev":"Swz.","subregion":"Southern Africa","region-wb":"Sub-Saharan Africa","iso-a3":"SWZ","iso-a2":"SZ","woe-id":"23424993","continent":"Africa","hc-middle-lon":31.45,"hc-middle-lat":-26.496}},{"type":"Polygon","arcs":[[-1352,1369,-1325,-1160,-1278,-1368,-1355]],"id":"HU","properties":{"hc-group":"admin0","hc-key":"hu","hc-a2":"HU","name":"Hungary","labelrank":"5","country-abbrev":"Hun.","subregion":"Eastern Europe","region-wb":"Europe & Central Asia","iso-a3":"HUN","iso-a2":"HU","woe-id":"23424844","continent":"Europe","hc-middle-lon":17.904,"hc-middle-lat":46.864}},{"type":"Polygon","arcs":[[-1370,-1351,1370,-1349,1371,-1361,-1326]],"id":"RO","properties":{"hc-group":"admin0","hc-key":"ro","hc-a2":"RO","name":"Romania","labelrank":"3","country-abbrev":"Rom.","subregion":"Eastern Europe","region-wb":"Europe & Central Asia","iso-a3":"ROU","iso-a2":"RO","woe-id":"23424933","continent":"Europe","hc-middle-lon":26.53,"hc-middle-lat":45.928}},{"type":"Polygon","arcs":[[-146,1372,-903]],"id":"LU","properties":{"hc-group":"admin0","hc-key":"lu","hc-a2":"LU","name":"Luxembourg","labelrank":"6","country-abbrev":"Lux.","subregion":"Western Europe","region-wb":"Europe & Central Asia","iso-a3":"LUX","iso-a2":"LU","woe-id":"23424881","continent":"Europe","hc-middle-lon":6.107,"hc-middle-lat":49.689}},{"type":"Polygon","arcs":[[-142,-253]],"id":"AD","properties":{"hc-group":"admin0","hc-key":"ad","hc-a2":"AD","name":"Andorra","labelrank":"6","country-abbrev":"And.","subregion":"Southern Europe","region-wb":"Europe & Central Asia","iso-a3":"AND","iso-a2":"AD","woe-id":"23424744","continent":"Europe","hc-middle-lon":1.594,"hc-middle-lat":42.514}},{"type":"MultiPolygon","arcs":[[[1373,1374,1375,1376,-1273,1377,1378],[1379]],[[1380,-1271]]],"id":"CI","properties":{"hc-group":"admin0","hc-key":"ci","hc-a2":"CI","name":"Ivory Coast","labelrank":"3","country-abbrev":"I.C.","subregion":"Western Africa","region-wb":"Sub-Saharan Africa","iso-a3":"CIV","iso-a2":"CI","woe-id":"23424854","continent":"Africa","hc-middle-lon":-5.694,"hc-middle-lat":5.766}},{"type":"Polygon","arcs":[[-1374,1381,1382,1383]],"id":"LR","properties":{"hc-group":"admin0","hc-key":"lr","hc-a2":"LR","name":"Liberia","labelrank":"4","country-abbrev":"Liberia","subregion":"Western Africa","region-wb":"Sub-Saharan Africa","iso-a3":"LBR","iso-a2":"LR","woe-id":"23424876","continent":"Africa","hc-middle-lon":-7.648,"hc-middle-lat":5.437}},{"type":"MultiPolygon","arcs":[[[1384,-795]],[[1385,-798]]],"id":"BN","properties":{"hc-group":"admin0","hc-key":"bn","hc-a2":"BN","name":"Brunei","labelrank":"6","country-abbrev":"Brunei","subregion":"South-Eastern Asia","region-wb":"East Asia & Pacific","iso-a3":"BRN","iso-a2":"BN","woe-id":"23424773","continent":"Asia","hc-middle-lon":114.554,"hc-middle-lat":4.464}},{"type":"Polygon","arcs":[[-1373,-145,1386,-628,1387,-630,-904]],"id":"BE","properties":{"hc-group":"admin0","hc-key":"be","hc-a2":"BE","name":"Belgium","labelrank":"2","country-abbrev":"Belg.","subregion":"Western Europe","region-wb":"Europe & Central Asia","iso-a3":"BEL","iso-a2":"BE","woe-id":"23424757","continent":"Europe","hc-middle-lon":4.475,"hc-middle-lat":50.702}},{"type":"Polygon","arcs":[[1388,-1202,-1100,-1289,1389,-650,-817]],"id":"IQ","properties":{"hc-group":"admin0","hc-key":"iq","hc-a2":"IQ","name":"Iraq","labelrank":"3","country-abbrev":"Iraq","subregion":"Western Asia","region-wb":"Middle East & North Africa","iso-a3":"IRQ","iso-a2":"IQ","woe-id":"23424855","continent":"Asia","hc-middle-lon":43.213,"hc-middle-lat":33.744}},{"type":"Polygon","arcs":[[-1063,-653,1390,-932,-1061]],"id":"GE","properties":{"hc-group":"admin0","hc-key":"ge","hc-a2":"GE","name":"Georgia","labelrank":"5","country-abbrev":"Geo.","subregion":"Western Asia","region-wb":"Europe & Central Asia","iso-a3":"GEO","iso-a2":"GE","woe-id":"23424823","continent":"Asia","hc-middle-lon":41.627,"hc-middle-lat":42.391}},{"type":"Polygon","arcs":[[1391,1392]],"id":"GM","properties":{"hc-group":"admin0","hc-key":"gm","hc-a2":"GM","name":"Gambia","labelrank":"6","country-abbrev":"Gambia","subregion":"Western Africa","region-wb":"Sub-Saharan Africa","iso-a3":"GMB","iso-a2":"GM","woe-id":"23424821","continent":"Africa","hc-middle-lon":-15.326,"hc-middle-lat":13.45}},{"type":"Polygon","arcs":[[1393,-1365,-1364,-1369,-879,-136,1394,-148,-902]],"id":"CH","properties":{"hc-group":"admin0","hc-key":"ch","hc-a2":"CH","name":"Switzerland","labelrank":"4","country-abbrev":"Switz.","subregion":"Western Europe","region-wb":"Europe & Central Asia","iso-a3":"CHE","iso-a2":"CH","woe-id":"23424957","continent":"Europe","hc-middle-lon":9.859,"hc-middle-lat":46.729}},{"type":"Polygon","arcs":[[1395,1396,-1315,-1341,1397,-1169,-1186,1398,-1317]],"id":"TD","properties":{"hc-group":"admin0","hc-key":"td","hc-a2":"TD","name":"Chad","labelrank":"3","country-abbrev":"Chad","subregion":"Middle Africa","region-wb":"Sub-Saharan Africa","iso-a3":"TCD","iso-a2":"TD","woe-id":"23424777","continent":"Africa","hc-middle-lon":18.369,"hc-middle-lat":13.459}},{"type":"Polygon","arcs":[[-1296,-1334,-1329,1399]],"id":"KV","properties":{"hc-group":"admin0","hc-key":"kv","hc-a2":"KV","name":"Kosovo","labelrank":"6","country-abbrev":"Kos.","subregion":"Southern Europe","region-wb":"Europe & Central Asia","iso-a3":"-99","iso-a2":"KV","woe-id":"-90","continent":"Europe","hc-middle-lon":20.856,"hc-middle-lat":42.492}},{"type":"Polygon","arcs":[[1400,1401,1402]],"id":"LB","properties":{"hc-group":"admin0","hc-key":"lb","hc-a2":"LB","name":"Lebanon","labelrank":"5","country-abbrev":"Leb.","subregion":"Western Asia","region-wb":"Middle East & North Africa","iso-a3":"LBN","iso-a2":"LB","woe-id":"23424873","continent":"Asia","hc-middle-lon":35.712,"hc-middle-lat":33.807}},{"type":"Polygon","arcs":[[-1265,1403,-1268,-1204,1404,-1234]],"id":"DJ","properties":{"hc-group":"admin0","hc-key":"dj","hc-a2":"DJ","name":"Djibouti","labelrank":"5","country-abbrev":"Dji.","subregion":"Eastern Africa","region-wb":"Middle East & North Africa","iso-a3":"DJI","iso-a2":"DJ","woe-id":"23424797","continent":"Africa","hc-middle-lon":42.602,"hc-middle-lat":11.72}},{"type":"Polygon","arcs":[[1405,-1200,-1312,-604]],"id":"BI","properties":{"hc-group":"admin0","hc-key":"bi","hc-a2":"BI","name":"Burundi","labelrank":"6","country-abbrev":"Bur.","subregion":"Eastern Africa","region-wb":"Sub-Saharan Africa","iso-a3":"BDI","iso-a2":"BI","woe-id":"23424774","continent":"Africa","hc-middle-lon":30.005,"hc-middle-lat":-3.302}},{"type":"Polygon","arcs":[[-1213,1406,1407,-152,-197]],"id":"SR","properties":{"hc-group":"admin0","hc-key":"sr","hc-a2":"SR","name":"Suriname","labelrank":"4","country-abbrev":"Sur.","subregion":"South America","region-wb":"Latin America & Caribbean","iso-a3":"SUR","iso-a2":"SR","woe-id":"23424913","continent":"South America","hc-middle-lon":-54.313,"hc-middle-lat":5.585}},{"type":"Polygon","arcs":[[1408,-1403,1409,-1287,1410,-1285,1411,-1291,1412,1413]],"id":"IL","properties":{"hc-group":"admin0","hc-key":"il","hc-a2":"IL","name":"Israel","labelrank":"4","country-abbrev":"Isr.","subregion":"Western Asia","region-wb":"Middle East & North Africa","iso-a3":"ISR","iso-a2":"IL","woe-id":"23424852","continent":"Asia","hc-middle-lon":35.308,"hc-middle-lat":32.996}},{"type":"Polygon","arcs":[[-1376,1414,1415,-1250,-1258,1416,1417]],"id":"ML","properties":{"hc-group":"admin0","hc-key":"ml","hc-a2":"ML","name":"Mali","labelrank":"3","country-abbrev":"Mali","subregion":"Western Africa","region-wb":"Sub-Saharan Africa","iso-a3":"MLI","iso-a2":"ML","woe-id":"23424891","continent":"Africa","hc-middle-lon":-2.528,"hc-middle-lat":19.432}},{"type":"Polygon","arcs":[[1418,-1393,1419,-1251,-1416,1420,1421]],"id":"SN","properties":{"hc-group":"admin0","hc-key":"sn","hc-a2":"SN","name":"Senegal","labelrank":"3","country-abbrev":"Sen.","subregion":"Western Africa","region-wb":"Sub-Saharan Africa","iso-a3":"SEN","iso-a2":"SN","woe-id":"23424943","continent":"Africa","hc-middle-lon":-16.101,"hc-middle-lat":14.461}},{"type":"Polygon","arcs":[[-1422,1422,1423]],"id":"GW","properties":{"hc-group":"admin0","hc-key":"gw","hc-a2":"GW","name":"Guinea Bissau","labelrank":"6","country-abbrev":"GnB.","subregion":"Western Africa","region-wb":"Sub-Saharan Africa","iso-a3":"GNB","iso-a2":"GW","woe-id":"23424929","continent":"Africa","hc-middle-lon":-15.069,"hc-middle-lat":11.809}},{"type":"Polygon","arcs":[[-1421,-1415,-1375,-1384,1424,1425,-1423]],"id":"GN","properties":{"hc-group":"admin0","hc-key":"gn","hc-a2":"GN","name":"Guinea","labelrank":"3","country-abbrev":"Gin.","subregion":"Western Africa","region-wb":"Sub-Saharan Africa","iso-a3":"GIN","iso-a2":"GN","woe-id":"23424835","continent":"Africa","hc-middle-lon":-13.089,"hc-middle-lat":9.772}},{"type":"Polygon","arcs":[[-1242,1426,-1240,-1138,-1166,1427]],"id":"ZW","properties":{"hc-group":"admin0","hc-key":"zw","hc-a2":"ZW","name":"Zimbabwe","labelrank":"3","country-abbrev":"Zimb.","subregion":"Eastern Africa","region-wb":"Sub-Saharan Africa","iso-a3":"ZWE","iso-a2":"ZW","woe-id":"23425004","continent":"Africa","hc-middle-lon":28.632,"hc-middle-lat":-19.88}},{"type":"Polygon","arcs":[[1428,-1021,-1262,1429,-1346,-1358,1430,-898,1431,-896,1432,-1016]],"id":"PL","properties":{"hc-group":"admin0","hc-key":"pl","hc-a2":"PL","name":"Poland","labelrank":"3","country-abbrev":"Pol.","subregion":"Eastern Europe","region-wb":"Europe & Central Asia","iso-a3":"POL","iso-a2":"PL","woe-id":"23424923","continent":"Europe","hc-middle-lon":19.209,"hc-middle-lat":53.251}},{"type":"MultiPolygon","arcs":[[[1433,1433,1433]],[[-1360,-314,1434,-1299,1435,-1297,-1400,-1328]]],"id":"MK","properties":{"hc-group":"admin0","hc-key":"mk","hc-a2":"MK","name":"Macedonia","labelrank":"6","country-abbrev":"Mkd.","subregion":"Southern Europe","region-wb":"Europe & Central Asia","iso-a3":"MKD","iso-a2":"MK","woe-id":"23424890","continent":"Europe","hc-middle-lon":21.704,"hc-middle-lat":41.557}},{"type":"Polygon","arcs":[[1436,-189,-621,-1151,-191]],"id":"PY","properties":{"hc-group":"admin0","hc-key":"py","hc-a2":"PY","name":"Paraguay","labelrank":"4","country-abbrev":"Para.","subregion":"South America","region-wb":"Latin America & Caribbean","iso-a3":"PRY","iso-a2":"PY","woe-id":"23424917","continent":"South America","hc-middle-lon":-58.477,"hc-middle-lat":-23.369}},{"type":"Polygon","arcs":[[-1430,-1261,1437,-935,-1347]],"id":"BY","properties":{"hc-group":"admin0","hc-key":"by","hc-a2":"BY","name":"Belarus","labelrank":"4","country-abbrev":"Bela.","subregion":"Eastern Europe","region-wb":"Europe & Central Asia","iso-a3":"BLR","iso-a2":"BY","woe-id":"23424765","continent":"Europe","hc-middle-lon":28.008,"hc-middle-lat":53.738}},{"type":"Polygon","arcs":[[-1438,-1260,1438,-867,-936]],"id":"LV","properties":{"hc-group":"admin0","hc-key":"lv","hc-a2":"LV","name":"Latvia","labelrank":"5","country-abbrev":"Lat.","subregion":"Northern Europe","region-wb":"Europe & Central Asia","iso-a3":"LVA","iso-a2":"LV","woe-id":"23424874","continent":"Europe","hc-middle-lon":23.053,"hc-middle-lat":57.042}},{"type":"Polygon","arcs":[[-1410,-1402,1439,-651,-1390,-1288]],"id":"SY","properties":{"hc-group":"admin0","hc-key":"sy","hc-a2":"SY","name":"Syria","labelrank":"3","country-abbrev":"Syria","subregion":"Western Asia","region-wb":"Middle East & North Africa","iso-a3":"SYR","iso-a2":"SY","woe-id":"23424956","continent":"Asia","hc-middle-lon":37.401,"hc-middle-lat":34.605}},{"type":"Polygon","arcs":[[-1344,-1274,-1377,-1418,1440,-1337]],"id":"BF","properties":{"hc-group":"admin0","hc-key":"bf","hc-a2":"BF","name":"Burkina Faso","labelrank":"3","country-abbrev":"B.F.","subregion":"Western Africa","region-wb":"Sub-Saharan Africa","iso-a3":"BFA","iso-a2":"BF","woe-id":"23424978","continent":"Africa","hc-middle-lon":-0.445,"hc-middle-lat":12.738}},{"type":"Polygon","arcs":[[-1441,-1417,-1257,-1170,-1398,-1340,-1338]],"id":"NE","properties":{"hc-group":"admin0","hc-key":"ne","hc-a2":"NE","name":"Niger","labelrank":"3","country-abbrev":"Niger","subregion":"Western Africa","region-wb":"Sub-Saharan Africa","iso-a3":"NER","iso-a2":"NE","woe-id":"23424906","continent":"Africa","hc-middle-lon":10.258,"hc-middle-lat":17.3}},{"type":"Polygon","arcs":[[-1243,1441,-1164,1442,-1132]],"id":"NA","properties":{"hc-group":"admin0","hc-key":"na","hc-a2":"NA","name":"Namibia","labelrank":"3","country-abbrev":"Nam.","subregion":"Southern Africa","region-wb":"Sub-Saharan Africa","iso-a3":"NAM","iso-a2":"NA","woe-id":"23424987","continent":"Africa","hc-middle-lon":16.163,"hc-middle-lat":-21.445}},{"type":"Polygon","arcs":[[-1172,-1256,1443]],"id":"TN","properties":{"hc-group":"admin0","hc-key":"tn","hc-a2":"TN","name":"Tunisia","labelrank":"3","country-abbrev":"Tun.","subregion":"Northern Africa","region-wb":"Middle East & North Africa","iso-a3":"TUN","iso-a2":"TN","woe-id":"23424967","continent":"Africa","hc-middle-lon":9.179,"hc-middle-lat":36.684}},{"type":"Polygon","arcs":[[-1073,-1053,-163,-1068],[-1065],[-1070],[-1071]],"id":"KG","properties":{"hc-group":"admin0","hc-key":"kg","hc-a2":"KG","name":"Kyrgyzstan","labelrank":"4","country-abbrev":"Kgz.","subregion":"Central Asia","region-wb":"Europe & Central Asia","iso-a3":"KGZ","iso-a2":"KG","woe-id":"23424864","continent":"Asia","hc-middle-lon":74.535,"hc-middle-lat":41.443}},{"type":"Polygon","arcs":[[-1371,-1350]],"id":"MD","properties":{"hc-group":"admin0","hc-key":"md","hc-a2":"MD","name":"Moldova","labelrank":"6","country-abbrev":"Mda.","subregion":"Eastern Europe","region-wb":"Europe & Central Asia","iso-a3":"MDA","iso-a2":"MD","woe-id":"23424885","continent":"Europe","hc-middle-lon":28.423,"hc-middle-lat":47.199}},{"type":"Polygon","arcs":[[-1043,-1194,1444,-1184,-1267,-1108]],"id":"SS","properties":{"hc-group":"admin0","hc-key":"ss","hc-a2":"SS","name":"South Sudan","labelrank":"3","country-abbrev":"S. Sud.","subregion":"Eastern Africa","region-wb":"Sub-Saharan Africa","iso-a3":"SSD","iso-a2":"SS","woe-id":"-99","continent":"Africa","hc-middle-lon":29.898,"hc-middle-lat":7.154}},{"type":"Polygon","arcs":[[-1185,-1445,-1193,-1322,-1318,-1399]],"id":"CF","properties":{"hc-group":"admin0","hc-key":"cf","hc-a2":"CF","name":"Central African Republic","labelrank":"4","country-abbrev":"C.A.R.","subregion":"Middle Africa","region-wb":"Sub-Saharan Africa","iso-a3":"CAF","iso-a2":"CF","woe-id":"23424792","continent":"Africa","hc-middle-lon":20.499,"hc-middle-lat":6.979}},{"type":"Polygon","arcs":[[-1428,-1165,-1442]],"id":"BW","properties":{"hc-group":"admin0","hc-key":"bw","hc-a2":"BW","name":"Botswana","labelrank":"4","country-abbrev":"Bwa.","subregion":"Southern Africa","region-wb":"Sub-Saharan Africa","iso-a3":"BWA","iso-a2":"BW","woe-id":"23424755","continent":"Africa","hc-middle-lon":24.528,"hc-middle-lat":-23.274}},{"type":"Polygon","arcs":[[1445,-801]],"id":"SG","properties":{"hc-group":"admin0","hc-key":"sg","hc-a2":"SG","name":"Singapore","labelrank":"6","country-abbrev":"Sing.","subregion":"South-Eastern Asia","region-wb":"East Asia & Pacific","iso-a3":"SGP","iso-a2":"SG","woe-id":"23424948","continent":"Asia","hc-middle-lon":103.702,"hc-middle-lat":1.333}},{"type":"Polygon","arcs":[[1446,-1093,1447,-174]],"id":"VN","properties":{"hc-group":"admin0","hc-key":"vn","hc-a2":"VN","name":"Vietnam","labelrank":"2","country-abbrev":"Viet.","subregion":"South-Eastern Asia","region-wb":"East Asia & Pacific","iso-a3":"VNM","iso-a2":"VN","woe-id":"23424984","continent":"Asia","hc-middle-lon":106.329,"hc-middle-lat":10.415}},{"type":"Polygon","arcs":[[1448,-1425,-1383]],"id":"SL","properties":{"hc-group":"admin0","hc-key":"sl","hc-a2":"SL","name":"Sierra Leone","labelrank":"4","country-abbrev":"S.L.","subregion":"Western Africa","region-wb":"Sub-Saharan Africa","iso-a3":"SLE","iso-a2":"SL","woe-id":"23424946","continent":"Africa","hc-middle-lon":-11.84,"hc-middle-lat":8.507}},{"type":"Polygon","arcs":[[1449]],"id":"MG","properties":{"hc-group":"admin0","hc-key":"mg","hc-a2":"MG","name":"Madagascar","labelrank":"3","country-abbrev":"Mad.","subregion":"Eastern Africa","region-wb":"Sub-Saharan Africa","iso-a3":"MDG","iso-a2":"MG","woe-id":"23424883","continent":"Africa","hc-middle-lon":46.446,"hc-middle-lat":-18.562}},{"type":"Polygon","arcs":[[1450]],"id":"IS","properties":{"hc-group":"admin0","hc-key":"is","hc-a2":"IS","name":"Iceland","labelrank":"3","country-abbrev":"Iceland","subregion":"Northern Europe","region-wb":"Europe & Central Asia","iso-a3":"ISL","iso-a2":"IS","woe-id":"23424845","continent":"Europe","hc-middle-lon":-19.006,"hc-middle-lat":64.909}},{"type":"Polygon","arcs":[[1451,1452,1178,1453,1454,1175,1455,-1174,1456,-1414]],"id":"EG","properties":{"hc-group":"admin0","hc-key":"eg","hc-a2":"EG","name":"Egypt","labelrank":"2","country-abbrev":"Egypt","subregion":"Northern Africa","region-wb":"Middle East & North Africa","iso-a3":"EGY","iso-a2":"EG","woe-id":"23424802","continent":"Africa","hc-middle-lon":30.762,"hc-middle-lat":25.315}},{"type":"Polygon","arcs":[[1457]],"id":"LK","properties":{"hc-group":"admin0","hc-key":"lk","hc-a2":"LK","name":"Sri Lanka","labelrank":"3","country-abbrev":"Sri L.","subregion":"Southern Asia","region-wb":"South Asia","iso-a3":"LKA","iso-a2":"LK","woe-id":"23424778","continent":"Asia","hc-middle-lon":80.874,"hc-middle-lat":6.281}},{"type":"Polygon","arcs":[[-158,-122]],"id":"NP","properties":{"hc-group":"admin0","hc-key":"np","hc-a2":"NP","name":"Nepal","labelrank":"3","country-abbrev":"Nepal","subregion":"Southern Asia","region-wb":"South Asia","iso-a3":"NPL","iso-a2":"NP","woe-id":"23424911","continent":"Asia","hc-middle-lon":84.17,"hc-middle-lat":28.11}},{"type":"Polygon","arcs":[[-175,-1448,-1092,-857,-1218]],"id":"LA","properties":{"hc-group":"admin0","hc-key":"la","hc-a2":"LA","name":"Laos","labelrank":"4","country-abbrev":"Laos","subregion":"South-Eastern Asia","region-wb":"East Asia & Pacific","iso-a3":"LAO","iso-a2":"LA","woe-id":"23424872","continent":"Asia","hc-middle-lon":103.769,"hc-middle-lat":20.237}},{"type":"Polygon","arcs":[[-1431,-1357,-1367,-899]],"id":"CZ","properties":{"hc-group":"admin0","hc-key":"cz","hc-a2":"CZ","name":"Czech Republic","labelrank":"5","country-abbrev":"Cz. Rep.","subregion":"Eastern Europe","region-wb":"Europe & Central Asia","iso-a3":"CZE","iso-a2":"CZ","woe-id":"23424810","continent":"Europe","hc-middle-lon":15.445,"hc-middle-lat":49.768}},{"type":"Polygon","arcs":[[-113,-177]],"id":"BT","properties":{"hc-group":"admin0","hc-key":"bt","hc-a2":"BT","name":"Bhutan","labelrank":"5","country-abbrev":"Bhutan","subregion":"Southern Asia","region-wb":"South Asia","iso-a3":"BTN","iso-a2":"BT","woe-id":"23424770","continent":"Asia","hc-middle-lon":90.284,"hc-middle-lat":27.52}}],"hc-recommended-transform":{"default":{"crs":"+proj=mill +lat_0=0 +lon_0=0 +x_0=0 +y_0=0 +R_A +datum=WGS84 +units=m +no_defs","scale":0.0000170833333518,"jsonres":15.5,"jsonmarginX":-999,"jsonmarginY":9851,"xoffset":-19816494.5204,"yoffset":12635908.1982}}}},"arcs":[[[4813,8417],[-4,-5],[1,29],[5,-3],[-2,-21]],[[4816,8464],[3,11],[4,-9],[-9,-13],[-1,-9],[-8,11],[-6,-6],[-12,6],[12,5],[1,9],[16,-5]],[[503,4426],[-1,0],[1,0]],[[430,8369],[-20,21],[0,-10],[-6,7],[0,9],[-9,8],[4,8],[-9,0],[0,10],[9,3],[-8,9],[13,4],[-4,11],[12,29],[15,15],[-2,15],[7,20],[12,10],[11,-2],[12,-14],[7,2],[14,15],[5,11],[-9,11],[19,-7],[-4,-4],[27,6],[12,17],[-5,36],[-14,13],[0,6],[10,0],[9,9],[-3,13],[-9,8],[-6,-11],[-8,2],[-13,-9],[-11,-12],[-6,-13],[-1,13],[-11,10],[-5,-4],[10,-6],[-2,-8],[-12,12],[-23,0],[-18,-9],[-32,11],[-9,9],[3,12],[-8,6],[-8,13],[12,-1],[5,10],[6,0],[-22,7],[-13,2],[-18,12],[0,9],[22,14],[3,-2],[8,5],[3,9],[40,27],[16,8],[13,3],[15,0],[-6,-26],[8,-12],[15,0],[10,3],[3,-4],[13,1],[9,-4],[8,17],[16,-1],[-4,7],[-10,6],[-12,-4],[2,8],[-10,16],[-7,5],[-4,10],[8,4],[9,-13],[-2,-7],[6,-10],[7,-6],[11,6],[12,-12],[15,2],[1,10],[-19,10],[-8,-3],[-9,-7],[-10,11],[0,9],[5,15],[-8,1],[-13,-4],[2,11],[-6,-8],[-31,5],[-3,19],[-10,19],[-35,31],[-14,5],[-10,12],[-9,4],[7,7],[4,8],[0,23],[15,-2],[37,6],[20,12],[14,21],[-1,19],[3,12],[14,18],[5,-1],[13,20],[1,-12],[6,5],[9,0],[13,7],[19,19],[6,-1],[-4,-19],[6,4],[0,15],[-6,4],[12,10],[14,4],[-8,-5],[13,0],[26,4],[13,8],[10,9],[11,16],[6,4],[4,-6],[23,-6],[2,-8],[-8,-6],[-7,-2],[5,-9],[10,1],[1,7],[9,7],[2,6],[14,-8],[-3,-9],[4,-4],[12,-3],[7,7],[16,3],[27,-6],[3,-2],[-7,-8],[-4,-11],[25,0],[-7,-8],[15,0],[6,-6],[1,6],[11,4],[12,0],[-2,-6],[15,7],[18,3],[8,-10],[8,0],[8,-8],[6,3],[11,-4],[-1,-4],[19,-5],[7,2],[27,-1],[16,-12],[20,-2],[24,9],[12,1],[20,-8],[8,-11],[14,-3],[11,-8],[11,-4]],[[1087,8996],[0,-670],[12,-7],[4,7],[11,-9],[10,10],[16,2],[-3,-20],[13,-13],[3,-9],[27,-37],[6,-24],[10,11]],[[1196,8237],[4,-10],[10,-5],[13,-25],[0,-11],[-8,-4],[-5,4],[-3,-9],[-6,12],[-6,0],[-15,17],[-10,21],[-7,12],[-26,16],[-19,17],[12,11],[-5,13],[3,12],[-9,-17],[-11,-8],[-10,0],[-24,13],[2,10],[-8,-5],[-8,5],[-23,7],[-35,-7],[-14,-11],[9,11],[6,2],[-6,8],[-9,1],[-10,9],[4,11],[1,16],[-10,-18],[-1,-8],[-12,10],[-10,0],[8,16],[-8,2],[-9,-5],[7,8],[-18,-3],[16,9],[-4,4],[-8,-5],[-9,1],[7,21],[-9,-11],[-11,2],[5,-10],[-12,3],[-9,-5],[-2,-13],[-5,10],[-1,-10],[9,-21],[4,10],[2,-8],[-8,-11],[-10,11],[0,-11],[12,-12],[-4,-8],[-9,15],[-2,-13],[-13,-3],[-10,4],[-2,-9],[-3,9],[-6,-13],[-4,10],[0,-21],[-5,8],[-3,-10],[-28,-24],[-3,-7],[-7,3],[-13,-8],[-2,13],[8,12],[13,8],[5,13],[-13,-10],[-10,9],[3,19],[9,13],[4,24],[-4,12],[9,6],[17,18],[12,-10],[5,5],[20,-6],[-13,8],[-19,19],[-8,4],[-13,-11],[-4,-8],[-8,-3],[-24,-37],[3,-8],[-10,-11],[-9,0],[10,-8],[-4,-15],[-15,-3],[7,-4],[-1,-8],[-8,-5],[-4,12],[-8,-26],[-10,-4],[-2,-24],[13,1],[11,-10],[-3,-13],[-7,-8],[-6,0],[-6,-10],[3,-9],[-9,-20],[-7,-5],[-12,0],[-2,-8],[-7,-5],[-1,-9],[-23,-16],[-9,-14],[5,2],[0,-10],[-5,-14],[-7,5],[-11,-20],[-4,-18],[-12,11],[-10,-7],[7,0],[1,-19],[-4,12],[-10,0],[-4,-10],[7,-4],[-8,-13],[-6,0],[1,-11],[-5,-7],[-6,5],[-11,-8],[-3,-12],[-1,12],[-6,3],[-20,-26],[-10,2],[-9,-12],[-7,2],[-1,-9],[-6,-14],[-4,7],[-12,-5],[3,-13],[-5,-3],[-7,14],[-4,-9],[-10,14],[3,-14],[-7,-9],[-1,23],[20,19],[11,21],[11,14],[12,5],[11,-2],[6,-15],[0,12],[15,-3],[-10,10],[6,21],[18,22],[7,3],[15,16],[8,-5],[-1,18],[10,21],[16,18],[4,39],[3,8],[0,17],[12,18],[-1,12],[-29,-20],[-11,17],[3,18],[-12,-27],[2,-15],[-1,-8],[-6,2],[-15,35],[-4,1],[-5,-11],[-4,8],[-7,5],[-1,8],[-13,-15],[4,-3],[-6,-17],[-5,-1],[0,10],[6,3],[-3,10],[-11,-12],[0,-5],[-12,-6],[-2,6],[4,9],[-3,18],[-6,18],[9,17],[-17,44],[-3,19],[-4,-6],[4,-9],[-2,-13],[-7,0],[-9,-9],[-15,-5],[-14,3],[0,11],[-10,13],[-14,12],[-12,14],[12,12],[-1,6],[10,8]],[[430,8369],[0,-1],[0,-5],[12,-2],[3,-10],[4,8],[5,-3],[1,-9],[10,11],[-12,8],[7,2],[-6,6],[-4,-8],[-17,0],[-3,2],[1,1],[-1,0]],[[682,5447],[14,-18],[0,-10],[8,-19],[-5,-9],[-14,-14],[-5,-17],[-6,10],[-1,23],[-4,26],[6,21],[-2,15],[9,-8]],[[656,5478],[1,16],[-5,10],[12,2],[7,-19],[-15,-9]],[[646,5504],[-1,-14],[-5,28],[-4,7],[15,-5],[-5,-16]],[[618,5553],[7,-21],[-13,0],[-5,19],[9,9],[2,-7]],[[576,5597],[3,-4],[-4,-21],[-9,9],[2,12],[8,4]],[[3091,7162],[-2,8],[7,4],[0,-12],[-5,0]],[[3102,7170],[-2,10],[3,8],[5,-4],[-6,-14]],[[1588,7479],[3,-6],[-9,8],[1,7],[5,-9]],[[1590,7494],[3,-2],[-3,-5],[-4,3],[4,4]],[[66,7708],[-12,13],[8,4],[8,-8],[0,-5],[10,4],[6,7],[-2,-11],[-18,-4]],[[110,7736],[6,-4],[-3,-9],[-23,-20],[1,14],[15,2],[4,17]],[[178,7739],[14,-3],[-16,-2],[-6,7],[-10,-2],[-2,-5],[-11,0],[15,11],[0,12],[5,2],[11,-20]],[[337,7844],[6,-4],[-1,-11],[-13,-8],[-5,-15],[-13,-12],[9,28],[6,-1],[2,16],[9,7]],[[403,7883],[-7,-7],[-6,7],[14,12],[18,-16],[-8,0],[-4,9],[-7,-5]],[[1316,7939],[3,0],[-1,-10],[-4,10],[2,0]],[[456,7950],[4,0],[7,-19],[-8,-13],[-14,0],[-6,-10],[-13,-6],[-4,14],[7,8],[5,14],[9,0],[13,12]],[[1314,7959],[4,-9],[-2,-4],[-4,2],[2,11]],[[1307,7959],[4,-16],[7,-19],[-13,17],[-1,21],[3,-3]],[[1355,7955],[-1,-9],[-7,0],[2,20],[6,-11]],[[573,7964],[0,-14],[-4,2],[-12,8],[16,4]],[[1301,7969],[1,-7],[-5,-2],[0,9],[4,0]],[[545,7969],[5,5],[0,-10],[-6,-9],[-7,0],[-1,14],[5,5],[4,-5]],[[1342,7976],[4,-9],[-3,-10],[-2,16],[1,3]],[[1292,7978],[5,3],[-1,-8],[-5,-7],[1,12]],[[1301,7978],[-1,-2],[-4,7],[5,0],[0,-5]],[[1359,8014],[7,-22],[-1,-18],[-6,-15],[-6,5],[4,14],[-7,-11],[-8,12],[8,20],[-2,12],[11,3]],[[1286,8011],[4,12],[11,5],[-3,-9],[-12,-8]],[[1323,8031],[11,-6],[-6,-14],[-4,12],[-5,-2],[-2,12],[5,9],[1,-11]],[[1319,8049],[0,-11],[-7,-3],[-4,7],[3,8],[8,-1]],[[1332,8043],[7,-10],[-4,-7],[-8,11],[0,17],[5,-11]],[[1312,8074],[10,-15],[-7,-5],[-4,0],[1,20]],[[1238,8107],[-2,-17],[-6,-2],[3,14],[-3,10],[8,-5]],[[1216,8162],[-3,-11],[-2,5],[1,11],[4,-5]],[[1271,8181],[3,-7],[-10,3],[1,9],[6,-5]],[[763,8201],[8,5],[-2,-19],[9,2],[5,-12],[-5,-6],[-5,8],[-1,-10],[-18,-10],[-12,7],[9,15],[9,0],[-3,10],[6,10]],[[907,8321],[8,1],[0,8],[7,-3],[-15,-27],[0,-5],[-10,-7],[4,16],[9,10],[-3,7]],[[391,8332],[11,-6],[-1,-17],[5,-6],[-17,-12],[-13,4],[-15,11],[-8,11],[16,2],[11,13],[11,0]],[[944,8335],[-12,-13],[-4,10],[3,7],[23,8],[-10,-12]],[[2565,7403],[-14,-18],[-5,-13],[-6,17],[6,10],[10,7],[9,-3]],[[2543,7456],[-4,-9],[-13,-14],[-3,6],[20,17]],[[2587,7255],[-3,-18],[-7,-20],[-3,10],[4,14],[9,14]],[[2627,7286],[0,-12],[-4,-2],[2,12],[2,2]],[[2681,7306],[1,-10],[-8,0],[3,8],[4,2]],[[2998,6950],[0,-7],[-8,-10],[-13,-8],[-30,-12],[1,14],[13,12],[23,2],[8,11],[6,-2]],[[388,7872],[-11,-18],[14,9],[-14,-23],[-24,-14],[-11,-2],[19,13],[0,10],[7,7],[-7,9],[3,7],[12,4],[1,-12],[6,12],[5,-2]],[[1234,8115],[9,14],[6,-5],[9,-16],[6,-39],[-2,-39],[-10,25],[3,4],[-5,19],[-6,0],[-1,7],[5,6],[-5,5],[2,11],[-6,0],[-5,8]],[[1234,8115],[-8,12],[-3,12],[-9,10],[3,12],[-3,6],[13,5],[3,9],[26,-19],[-1,-15],[-9,-1],[-17,15],[10,-12],[5,-9],[12,4],[3,-20],[-7,-2],[-20,22],[6,-14],[-4,-15]],[[1255,8181],[0,8],[7,-17],[14,-1],[8,-24],[-2,-8],[-5,22],[-4,6],[0,-18],[10,-15],[-1,-22],[-5,5],[0,-14],[-13,-13],[0,15],[4,12],[-5,15],[-3,37],[-5,12]],[[295,8547],[23,-5],[-3,-11],[-13,2],[-13,-16],[-2,11],[-11,11],[-13,9],[-12,2],[-8,-8],[-9,5],[-4,9],[4,20],[7,-14],[15,-1],[8,7],[10,2],[5,-6],[0,-10],[16,-7]],[[1586,7515],[-2,-2],[0,2]],[[1584,7515],[2,0]],[[2247,5908],[-1,28],[-6,6]],[[2240,5942],[-2,39],[-10,16],[-5,25],[-6,9],[-11,61],[-11,24]],[[2195,6116],[-2,5],[-2,4]],[[2191,6125],[-5,14],[-20,2],[-5,7],[-11,-12],[-5,-33],[-8,-20],[-4,0],[-14,20],[-7,4],[-13,23],[-4,20],[0,18],[-6,26],[-13,20],[-18,40],[-5,5],[-5,20],[-4,2],[-47,0],[0,-31],[-80,0],[-104,84],[3,15],[-66,-13]],[[1750,6336],[-4,11],[-2,30],[-6,16],[-17,30],[-4,-4],[-2,-20],[-5,5],[4,26],[-4,13],[-7,-2],[-12,10],[-14,-13],[-10,-4],[-6,9],[13,2],[-1,26],[-16,2],[-5,11],[0,39],[-7,6],[-1,15],[-10,15],[-11,37],[-6,10],[-2,20],[5,17],[-4,12],[-8,3],[-5,12],[-3,43],[11,-24],[-11,47],[0,-21],[-11,14],[2,5],[-8,25],[-17,35],[-3,30],[2,16],[-2,19],[-14,31],[-2,12],[9,41],[0,31],[-3,39],[-6,24],[0,24],[-4,13],[12,76],[1,67],[5,52],[-2,46],[7,-2],[7,8],[-17,-2],[0,28],[2,-14],[3,21],[-5,0],[0,12],[8,4],[-10,6],[-7,50],[-7,11],[-1,19],[3,15],[15,-15],[22,-4],[8,-5],[7,3],[7,-23],[-2,-26],[3,7],[4,33],[2,2],[-4,23],[-6,5],[-4,-11],[11,-19],[-6,2],[-6,17],[5,11],[-2,2],[6,15],[-9,19],[0,8]],[[1593,7515],[153,0],[153,0],[153,0],[153,0],[154,0],[0,26],[9,-3],[4,-36],[4,-8],[18,-4],[3,-9],[14,7],[17,-5],[8,-23],[9,8],[10,-18],[7,-3],[14,13],[5,-10],[18,2],[6,-9],[9,2]],[[2514,7445],[-14,-14],[-12,-7],[-14,-16],[-14,-27],[-16,-23],[4,-8],[21,12],[6,8],[13,0],[-8,-6],[2,-14],[8,-7],[11,7],[6,10],[12,2],[12,12],[8,15],[6,-17],[0,-14],[6,10],[17,-8],[7,-21],[12,0],[10,-4],[12,15],[17,0],[16,6],[-3,-17],[16,-6]],[[2655,7333],[11,6],[0,-14]],[[2666,7325],[-5,-10],[10,-13],[-3,-4],[-17,8],[-3,-16],[-8,12],[-15,6],[-3,-8],[-16,-2],[-3,-12],[-10,-8],[4,16],[-11,-14],[0,14],[-16,-51],[-2,-14],[-6,-4],[-6,-27],[8,7],[4,12],[8,-2],[-6,-35],[2,-6],[-7,-22],[1,-16],[-6,-30],[4,-34],[-2,-37],[8,-36],[7,-11],[8,2],[10,15],[8,28],[4,33],[0,18],[-9,46],[3,12],[-2,22],[6,20],[0,23],[6,16],[7,2],[5,18],[-1,-24],[7,4],[1,22],[11,12],[-3,17],[9,12],[6,2],[13,-23],[16,-10],[5,-20],[-3,-6],[4,-22],[-2,-25],[-4,-6],[-2,-14],[-8,-6],[-1,-22],[6,-4],[6,6],[6,20],[10,6],[6,-10],[4,-46],[4,-18]],[[2713,7088],[-3,-27],[-4,-8]],[[2706,7053],[-4,8],[-2,-18],[-6,-8]],[[2694,7035],[-5,-26],[-5,-14],[26,-25],[13,8],[11,2],[8,15],[27,20],[25,28],[9,12],[8,21],[-1,6]],[[2810,7082],[-5,12]],[[2805,7094],[0,12]],[[2805,7106],[11,6],[17,2],[15,-10],[23,6],[8,14],[6,4],[-1,20],[-3,20],[4,6]],[[2885,7174],[0,2]],[[2885,7176],[12,18]],[[2897,7194],[14,25],[10,10],[5,0]],[[2926,7229],[89,0],[6,22],[13,6],[15,35],[-1,14],[7,25],[2,19],[22,54],[4,-1],[4,-18],[16,14],[4,-2],[11,-20],[0,-79],[0,-14]],[[3118,7284],[4,-12],[7,0]],[[3129,7272],[-1,-23],[7,-8]],[[3135,7241],[6,-26],[-9,-12],[-6,0],[-10,-7],[-5,-14],[-1,10],[-7,0],[-5,-16],[-8,8],[2,12],[-7,-8],[-2,-24],[-8,-8],[-13,-20],[-1,10],[-11,-10],[1,-10],[-10,-18],[-6,-28],[0,-14],[6,-7],[-13,-22],[8,-6],[6,-30],[7,-6],[10,8],[0,-13],[-12,-2],[-4,-18],[-9,-8],[0,12],[6,21],[-9,-13],[-14,-6],[-3,-20],[-1,12],[-13,-8],[0,6],[-23,-6],[-20,-17],[-11,-18],[-6,-23],[7,-2],[-3,-47],[-5,-17],[-5,2],[0,-12],[-15,-32],[2,15],[-6,4],[-12,21],[4,-31],[9,-19],[0,-36],[-7,-29],[-5,-4],[-10,-34],[-2,17],[8,27],[-6,2],[4,9],[-9,8],[-7,17],[8,6],[-8,15],[5,8],[-4,21],[9,31],[-12,-27],[-4,-35],[0,-25],[6,-23],[-15,14],[16,-25],[-1,-21],[-7,0],[8,-13],[-6,-12],[6,-11],[-4,-11],[-7,19],[-9,5],[7,-11],[8,-17],[12,2],[1,-32],[6,-30],[-8,7],[-19,-15],[25,2],[3,-26],[-4,2],[-5,-19],[-1,-21],[-12,-33],[-4,4],[-13,0],[-15,-21],[-4,-13],[-4,-26],[-8,6],[-9,-4],[-10,-17],[-6,-16],[-1,-17],[-32,-48],[-16,-31],[2,-5],[-9,-19],[-3,-34],[-3,-8],[-2,-29],[6,-69],[7,-45],[13,-50],[-1,-29],[3,-11],[12,-77],[-3,-67],[-5,-25],[3,-2],[-5,-25],[-20,-3],[-5,42],[-14,27],[-2,25],[-9,3],[-4,34],[-12,41],[5,2],[5,18],[-6,7],[-2,-14],[-4,14],[4,40],[1,32],[-5,18],[-6,2],[-9,25],[0,9],[-9,20],[-9,13],[-10,-7],[1,-8],[-18,-21],[-10,5],[0,16],[-9,15],[-11,14],[-12,6],[-32,-11],[-12,2],[-9,9],[-3,-13],[-9,15],[-21,-20],[-18,16],[-5,-16],[7,-9],[9,9],[6,0],[-5,-15],[6,-2],[5,6]],[[2518,6154],[3,-13],[-11,-7],[5,-22],[9,-5],[4,-9],[-3,-15],[-9,18],[-9,4],[-4,9],[-5,-22],[-6,13],[-7,-4],[-1,-14],[-19,18],[6,2],[-14,29],[-8,-6],[3,-12],[-9,9],[-5,-6],[-25,18],[-24,-7],[-23,-22],[-7,-23],[-20,-31],[-22,-23],[-4,14],[0,-23],[9,11],[-15,-34],[-14,0],[10,-15],[-7,-28],[-3,-29],[4,-2],[5,-30],[2,-32]],[[2304,5865],[-8,-7],[-6,12],[-16,4],[-16,21],[-8,2],[-3,11]],[[1301,8000],[-6,-3],[-3,9],[7,0],[2,-4],[2,7],[-2,21],[-8,1],[-1,12],[12,-3],[3,-19],[12,-9],[9,-27],[-2,-2],[12,-23],[-5,-17],[3,0],[1,-19],[-10,8],[-1,14],[-13,20],[-10,0],[0,7],[9,-2],[-6,10],[4,11],[-12,0],[3,8]],[[1357,7945],[-2,-9],[-4,5],[6,4]],[[1289,8066],[0,-5],[-6,1],[2,-20],[-7,-14],[0,-16],[-4,31],[5,0],[1,9],[-7,5],[-3,21],[4,7],[6,-4],[5,-12],[4,4],[-1,3],[-8,14],[8,5],[22,-10],[1,-21],[-5,-2],[-1,-12],[-14,0],[-2,16]],[[2519,6156],[-1,-2]],[[2518,6154],[0,2],[1,0]],[[2519,6156],[9,16],[-5,-16],[-4,0]],[[1196,8237],[0,0]],[[732,8100],[-16,0],[-1,-7],[7,5],[-2,-17],[-9,7],[-2,20],[-5,5],[12,22],[9,0],[4,-16],[2,33],[7,4],[2,3],[13,-10],[-7,13],[15,-13],[7,8],[4,-1],[-4,-21],[9,-1],[-5,-14],[-18,7],[11,-12],[-7,-7],[-8,4],[5,-10],[-11,-12],[-2,5],[-6,-5],[-2,-9],[-11,-20],[4,-7],[-14,0],[-8,-9],[1,10],[13,6],[13,39]],[[1392,8011],[-5,-11],[1,-15],[5,-19]],[[1393,7966],[-11,-27],[-9,-10],[-6,3],[-5,28],[6,9],[-1,28],[-8,19],[-6,2],[-10,-9],[-5,-28],[-6,7],[-3,12],[6,4],[3,12],[0,12],[4,3],[-5,12],[-10,12],[1,9],[-6,0],[-4,10],[-11,21],[-13,7],[5,17],[-6,11],[1,26],[-4,-10],[-11,20],[2,25],[-6,-15],[-8,10],[-6,1],[-8,27],[-6,28],[-5,12],[1,-25],[6,-23],[3,-20],[-3,-10],[-8,11],[-12,0],[0,14],[-5,18],[-4,-5],[-24,23]],[[1196,8237],[6,7],[7,0],[3,10],[4,21],[24,15],[13,-18],[-2,-10],[4,-10],[13,-11],[7,-20],[11,-9],[12,-23],[23,-64],[9,-22],[-3,-8],[9,-4],[-2,-12],[6,-5],[2,-13],[7,0],[12,-14],[8,-4],[10,-10],[2,-7],[9,-1],[2,-14]],[[1357,7945],[1,7],[-1,-6],[0,-1]],[[8545,5920],[9,-5],[5,16],[-1,-18],[-10,-14],[-1,-18],[-5,-7],[2,25],[6,12],[-5,9]],[[8580,5995],[-2,11],[7,11],[-2,12],[14,11],[-11,-16],[3,-7],[-9,-22]],[[8623,6172],[-6,11],[4,5],[10,-9],[2,24],[4,7],[-4,-29],[-10,-9]],[[8584,6366],[-8,-21],[-8,-3],[14,29],[0,15],[12,11],[-10,-31]],[[8913,7249],[1,4],[7,-12],[-4,-2],[-4,10]],[[8736,6462],[10,22],[-1,-24],[-7,-6],[-4,-13],[5,-11],[-10,-15],[-6,-29],[-8,20],[-4,2],[-14,-13],[-7,-35],[-11,-9],[3,11],[-6,2],[2,22],[-7,18],[10,17],[2,20],[6,10],[5,-15],[10,2],[5,20],[14,20],[-1,-9],[8,-13],[6,6]],[[8648,6270],[-4,-18],[-19,-27],[4,25],[-5,24],[-3,-15],[4,-14],[-12,-2],[2,29],[-3,11],[-7,2],[-7,-13],[4,18],[11,2],[13,53],[-9,-11],[-10,-22],[1,24],[4,0],[0,20],[-9,-7],[-6,15],[10,-6],[-2,13],[-7,6],[-2,20],[6,-4],[1,15],[4,-7],[6,14],[4,-3],[3,18],[12,4],[5,-19],[10,-5],[2,9],[6,-9],[-1,-11],[-6,-11],[12,0],[-3,-11],[7,-11],[-11,-30],[-5,-46],[0,-20]],[[8906,6954],[4,28],[10,-14],[5,6],[-2,-20],[3,-43],[5,-9],[8,-31],[2,-41],[-4,-6],[1,-17],[-8,-8],[-5,-23],[1,-30],[-4,11],[-7,-2],[-5,-23],[3,-49],[-2,-30],[-4,-6],[-7,-43],[2,-19],[6,-19],[-10,-13],[-3,-26],[-7,-6],[-5,-13],[-4,28],[8,19],[-9,-4],[-4,-28],[-2,13],[-11,-7],[0,-21],[-6,-20],[-5,0],[1,33],[-7,-2],[-9,-26],[-5,-5],[-17,0],[-12,-6],[9,11],[-2,6],[-11,-4],[-3,19],[-6,-19],[1,-11],[9,-6],[0,-18],[-10,0],[-9,-13],[-7,-35],[-5,-8],[-9,4],[-1,11],[-10,13],[4,19],[-3,14],[8,10],[1,13],[-11,-2],[-7,11],[-13,-7],[-13,-17],[-2,7],[-20,-24],[-6,6],[-6,-24],[-4,9],[1,20],[-8,-9],[1,-33],[-14,20],[-9,-2],[-6,-7],[-9,13],[2,20],[14,2],[4,17],[8,5],[15,32],[7,9],[-1,10],[13,11],[9,-11],[23,7],[7,11],[12,-3],[8,9],[-1,-15],[14,-4],[11,19],[-4,15],[6,17],[6,13],[11,34],[-3,21],[3,13],[15,13],[-2,-17],[-6,-9],[-1,-21],[10,-9],[2,13],[23,1