{"type":"Topology","objects":{"default":{"type":"GeometryCollection","geometries":[{"type":"MultiPolygon","arcs":[[[0,1,2,3],[4],[5]],[[6]],[[7]],[[8]],[[9]],[[10]],[[11]],[[12]],[[13]],[[14]],[[15]],[[16]],[[17]],[[18]],[[19]],[[20]],[[21]],[[22]],[[23]],[[24]],[[25]],[[26]],[[27]],[[28,-29,29]],[[30]],[[31]]],"id":"GL","properties":{"hc-group":"admin0","hc-key":"gl","hc-a2":"GL","name":"Greenland","labelrank":"3","country-abbrev":"Grlnd.","subregion":"Northern America","region-wb":"Europe & Central Asia","iso-a3":"GRL","iso-a2":"GL","woe-id":"23424828","continent":"North America","hc-middle-lon":-40.247,"hc-middle-lat":76.037}},{"type":"Polygon","arcs":[[32]],"id":"SH","properties":{"hc-group":"admin0","hc-key":"sh","hc-a2":"SH","name":"Scarborough Reef","labelrank":"6","country-abbrev":"S.R.","subregion":"South-Eastern Asia","region-wb":"East Asia & Pacific","iso-a3":"-99","iso-a2":"SH","woe-id":"-99","continent":"Asia","hc-middle-lon":117.616,"hc-middle-lat":15.144}},{"type":"Polygon","arcs":[[33]],"id":"BU","properties":{"hc-group":"admin0","hc-key":"bu","hc-a2":"BU","name":"Bajo Nuevo Bank (Petrel Is.)","labelrank":"8","country-abbrev":null,"subregion":"Caribbean","region-wb":"Latin America & Caribbean","iso-a3":"-99","iso-a2":"BU","woe-id":"-99","continent":"North America","hc-middle-lon":-79.901,"hc-middle-lat":15.777}},{"type":"Polygon","arcs":[[34]],"id":"LK","properties":{"hc-group":"admin0","hc-key":"lk","hc-a2":"LK","name":"Sri Lanka","labelrank":"3","country-abbrev":"Sri L.","subregion":"Southern Asia","region-wb":"South Asia","iso-a3":"LKA","iso-a2":"LK","woe-id":"23424778","continent":"Asia","hc-middle-lon":81.085,"hc-middle-lat":6.434}},{"type":"Polygon","arcs":[[35]],"id":"AS","properties":{"hc-group":"admin0","hc-key":"as","hc-a2":"AS","name":"American Samoa","labelrank":"4","country-abbrev":"Am. Samoa","subregion":"Polynesia","region-wb":"East Asia & Pacific","iso-a3":"ASM","iso-a2":"AS","woe-id":"23424746","continent":"Oceania","hc-middle-lon":-170.52,"hc-middle-lat":-14.31}},{"type":"MultiPolygon","arcs":[[[36]],[[37]],[[38]],[[39,40]]],"id":"DK","properties":{"hc-group":"admin0","hc-key":"dk","hc-a2":"DK","name":"Denmark","labelrank":"4","country-abbrev":"Den.","subregion":"Northern Europe","region-wb":"Europe & Central Asia","iso-a3":"DNK","iso-a2":"DK","woe-id":"23424796","continent":"Europe","hc-middle-lon":9.443,"hc-middle-lat":56.345}},{"type":"Polygon","arcs":[[41]],"id":"FO","properties":{"hc-group":"admin0","hc-key":"fo","hc-a2":"FO","name":"Faroe Islands","labelrank":"6","country-abbrev":"Faeroe Is.","subregion":"Northern Europe","region-wb":"Europe & Central Asia","iso-a3":"FRO","iso-a2":"FO","woe-id":"23424816","continent":"Europe","hc-middle-lon":-6.888,"hc-middle-lat":62.172}},{"type":"Polygon","arcs":[[42]],"id":"GU","properties":{"hc-group":"admin0","hc-key":"gu","hc-a2":"GU","name":"Guam","labelrank":"6","country-abbrev":"Guam","subregion":"Micronesia","region-wb":"East Asia & Pacific","iso-a3":"GUM","iso-a2":"GU","woe-id":"23424832","continent":"Oceania","hc-middle-lon":144.585,"hc-middle-lat":13.458}},{"type":"Polygon","arcs":[[43]],"id":"MP","properties":{"hc-group":"admin0","hc-key":"mp","hc-a2":"MP","name":"Northern Mariana Islands","labelrank":"6","country-abbrev":"N.M.I.","subregion":"Micronesia","region-wb":"East Asia & Pacific","iso-a3":"MNP","iso-a2":"MP","woe-id":"23424788","continent":"Oceania","hc-middle-lon":145.574,"hc-middle-lat":15.144}},{"type":"Polygon","arcs":[[44]],"id":"UM","properties":{"hc-group":"admin0","hc-key":"um","hc-a2":"UM","name":"United States Minor Outlying Islands","labelrank":"5","country-abbrev":"U.S. MOI","subregion":"Seven seas (open ocean)","region-wb":"East Asia & Pacific","iso-a3":"UMI","iso-a2":"UM","woe-id":"28289407","continent":"North America","hc-middle-lon":-161.883,"hc-middle-lat":5.879}},{"type":"MultiPolygon","arcs":[[[45,46,47,48,49],[50]],[[51]],[[52]],[[53]],[[54]],[[55]],[[56]],[[57]],[[58]],[[59]],[[60]],[[61]],[[62]],[[63]],[[64]],[[65]],[[66]],[[67,68,69,70,71,72,73,74,75,76,77,78,79,80,81,82,83,84,85,86,87,88,89]],[[90,91]],[[92]],[[93]],[[94]]],"id":"US","properties":{"hc-group":"admin0","hc-key":"us","hc-a2":"US","name":"United States of America","labelrank":"2","country-abbrev":"U.S.A.","subregion":"Northern America","region-wb":"North America","iso-a3":"USA","iso-a2":"US","woe-id":"23424977","continent":"North America","hc-middle-lon":-100.192,"hc-middle-lat":39.464}},{"type":"Polygon","arcs":[[95]],"id":"VI","properties":{"hc-group":"admin0","hc-key":"vi","hc-a2":"VI","name":"United States Virgin Islands","labelrank":"6","country-abbrev":"V.I. (U.S.)","subregion":"Caribbean","region-wb":"Latin America & Caribbean","iso-a3":"VIR","iso-a2":"VI","woe-id":"23424985","continent":"North America","hc-middle-lon":-64.651,"hc-middle-lat":17.719}},{"type":"MultiPolygon","arcs":[[[-74,96,-73,97,-71,98,-69,99,-90,100,-88,101,-86,102,-92,103,-47,104,-50,105,106,-78,107,-76,108],[109,110]],[[111],[112]],[[113],[114]],[[115]],[[116]],[[117]],[[118]],[[119]],[[120]],[[121]],[[122]],[[123]],[[124]],[[125]],[[126]],[[127]],[[128]],[[129]],[[130]],[[131]],[[132]],[[133]],[[134]],[[135]],[[136]],[[137]],[[138]],[[139]],[[140]],[[141]],[[142]],[[143]],[[144]],[[145]],[[146]],[[147]],[[148]],[[149]],[[150]],[[151]],[[152]],[[153]],[[154]],[[155]],[[156]],[[157]],[[158]],[[159]],[[160]],[[161]],[[162]],[[163]],[[164]],[[165]],[[166]],[[167]],[[168]],[[169]],[[170]],[[171]],[[172]],[[173]],[[174]],[[175]],[[176]],[[177]],[[178]],[[179]],[[180]]],"id":"CA","properties":{"hc-group":"admin0","hc-key":"ca","hc-a2":"CA","name":"Canada","labelrank":"2","country-abbrev":"Can.","subregion":"Northern America","region-wb":"North America","iso-a3":"CAN","iso-a2":"CA","woe-id":"23424775","continent":"North America","hc-middle-lon":-116.997,"hc-middle-lat":60.32}},{"type":"Polygon","arcs":[[181]],"id":"ST","properties":{"hc-group":"admin0","hc-key":"st","hc-a2":"ST","name":"Sao Tome and Principe","labelrank":"6","country-abbrev":"S.T.P.","subregion":"Middle Africa","region-wb":"Sub-Saharan Africa","iso-a3":"STP","iso-a2":"ST","woe-id":"23424966","continent":"Africa","hc-middle-lon":6.609,"hc-middle-lat":0.233}},{"type":"MultiPolygon","arcs":[[[182]],[[183]],[[184]],[[185]]],"id":"JP","properties":{"hc-group":"admin0","hc-key":"jp","hc-a2":"JP","name":"Japan","labelrank":"2","country-abbrev":"Japan","subregion":"Eastern Asia","region-wb":"East Asia & Pacific","iso-a3":"JPN","iso-a2":"JP","woe-id":"23424856","continent":"Asia","hc-middle-lon":139.872,"hc-middle-lat":38.088}},{"type":"Polygon","arcs":[[186]],"id":"CV","properties":{"hc-group":"admin0","hc-key":"cv","hc-a2":"CV","name":"Cape Verde","labelrank":"4","country-abbrev":"C.Vd.","subregion":"Western Africa","region-wb":"Sub-Saharan Africa","iso-a3":"CPV","iso-a2":"CV","woe-id":"23424794","continent":"Africa","hc-middle-lon":-23.872,"hc-middle-lat":15.075}},{"type":"Polygon","arcs":[[187]],"id":"DM","properties":{"hc-group":"admin0","hc-key":"dm","hc-a2":"DM","name":"Dominica","labelrank":"6","country-abbrev":"D'inca","subregion":"Caribbean","region-wb":"Latin America & Caribbean","iso-a3":"DMA","iso-a2":"DM","woe-id":"23424798","continent":"North America","hc-middle-lon":-61.34,"hc-middle-lat":15.381}},{"type":"Polygon","arcs":[[188]],"id":"SC","properties":{"hc-group":"admin0","hc-key":"sc","hc-a2":"SC","name":"Seychelles","labelrank":"6","country-abbrev":"Syc.","subregion":"Eastern Africa","region-wb":"Sub-Saharan Africa","iso-a3":"SYC","iso-a2":"SC","woe-id":"23424941","continent":"Seven seas (open ocean)","hc-middle-lon":55.411,"hc-middle-lat":-4.66}},{"type":"MultiPolygon","arcs":[[[189]],[[190]],[[191]]],"id":"NZ","properties":{"hc-group":"admin0","hc-key":"nz","hc-a2":"NZ","name":"New Zealand","labelrank":"2","country-abbrev":"N.Z.","subregion":"Australia and New Zealand","region-wb":"East Asia & Pacific","iso-a3":"NZL","iso-a2":"NZ","woe-id":"23424916","continent":"Oceania","hc-middle-lon":169.44,"hc-middle-lat":-44.772}},{"type":"MultiPolygon","arcs":[[[192]],[[193,194,195]]],"id":"YE","properties":{"hc-group":"admin0","hc-key":"ye","hc-a2":"YE","name":"Yemen","labelrank":"3","country-abbrev":"Yem.","subregion":"Western Asia","region-wb":"Middle East & North Africa","iso-a3":"YEM","iso-a2":"YE","woe-id":"23425002","continent":"Asia","hc-middle-lon":46.172,"hc-middle-lat":15.544}},{"type":"Polygon","arcs":[[196]],"id":"JM","properties":{"hc-group":"admin0","hc-key":"jm","hc-a2":"JM","name":"Jamaica","labelrank":"4","country-abbrev":"Jam.","subregion":"Caribbean","region-wb":"Latin America & Caribbean","iso-a3":"JAM","iso-a2":"JM","woe-id":"23424858","continent":"North America","hc-middle-lon":-77.187,"hc-middle-lat":18.076}},{"type":"Polygon","arcs":[[197]],"id":"WS","properties":{"hc-group":"admin0","hc-key":"ws","hc-a2":"WS","name":"Samoa","labelrank":"4","country-abbrev":"Samoa","subregion":"Polynesia","region-wb":"East Asia & Pacific","iso-a3":"WSM","iso-a2":"WS","woe-id":"23424992","continent":"Oceania","hc-middle-lon":-172.295,"hc-middle-lat":-13.612}},{"type":"MultiPolygon","arcs":[[[198]],[[199,200]],[[201,202,203,-194]]],"id":"OM","properties":{"hc-group":"admin0","hc-key":"om","hc-a2":"OM","name":"Oman","labelrank":"4","country-abbrev":"Oman","subregion":"Western Asia","region-wb":"Middle East & North Africa","iso-a3":"OMN","iso-a2":"OM","woe-id":"23424898","continent":"Asia","hc-middle-lon":58.88,"hc-middle-lat":22.016}},{"type":"MultiPolygon","arcs":[[[204]],[[205,206,207,208,209,210,211,212,213,214,215,216]]],"id":"IN","properties":{"hc-group":"admin0","hc-key":"in","hc-a2":"IN","name":"India","labelrank":"2","country-abbrev":"India","subregion":"Southern Asia","region-wb":"South Asia","iso-a3":"IND","iso-a2":"IN","woe-id":"23424848","continent":"Asia","hc-middle-lon":78.306,"hc-middle-lat":23.842}},{"type":"Polygon","arcs":[[217]],"id":"VC","properties":{"hc-group":"admin0","hc-key":"vc","hc-a2":"VC","name":"Saint Vincent and the Grenadines","labelrank":"6","country-abbrev":"St.V.G.","subregion":"Caribbean","region-wb":"Latin America & Caribbean","iso-a3":"VCT","iso-a2":"VC","woe-id":"23424981","continent":"North America","hc-middle-lon":-61.138,"hc-middle-lat":13.203}},{"type":"MultiPolygon","arcs":[[[218]],[[219,-217,220,221]]],"id":"BD","properties":{"hc-group":"admin0","hc-key":"bd","hc-a2":"BD","name":"Bangladesh","labelrank":"3","country-abbrev":"Bang.","subregion":"Southern Asia","region-wb":"South Asia","iso-a3":"BGD","iso-a2":"BD","woe-id":"23424759","continent":"Asia","hc-middle-lon":91.853,"hc-middle-lat":23.204}},{"type":"MultiPolygon","arcs":[[[222]],[[223]],[[224]],[[225]],[[226]],[[227,228]],[[229]],[[230]]],"id":"SB","properties":{"hc-group":"admin0","hc-key":"sb","hc-a2":"SB","name":"Solomon Islands","labelrank":"3","country-abbrev":"S. Is.","subregion":"Melanesia","region-wb":"East Asia & Pacific","iso-a3":"SLB","iso-a2":"SB","woe-id":"23424766","continent":"Oceania","hc-middle-lon":160.005,"hc-middle-lat":-9.575}},{"type":"Polygon","arcs":[[231]],"id":"LC","properties":{"hc-group":"admin0","hc-key":"lc","hc-a2":"LC","name":"Saint Lucia","labelrank":"6","country-abbrev":"S.L.","subregion":"Caribbean","region-wb":"Latin America & Caribbean","iso-a3":"LCA","iso-a2":"LC","woe-id":"23424951","continent":"North America","hc-middle-lon":-60.921,"hc-middle-lat":13.897}},{"type":"MultiPolygon","arcs":[[[232]],[[233]],[[234]],[[235]],[[236]],[[237,238]],[[239,240,241,242,243,244,245,246,247,248,249,250,251,252,253,254,255,256,257],[258]],[[259,260,261]]],"id":"FR","properties":{"hc-group":"admin0","hc-key":"fr","hc-a2":"FR","name":"France","labelrank":"2","country-abbrev":"Fr.","subregion":"Western Europe","region-wb":"Europe & Central Asia","iso-a3":"FRA","iso-a2":"FR","woe-id":"-90","continent":"Europe","hc-middle-lon":3.941,"hc-middle-lat":46.789}},{"type":"Polygon","arcs":[[262]],"id":"NR","properties":{"hc-group":"admin0","hc-key":"nr","hc-a2":"NR","name":"Nauru","labelrank":"6","country-abbrev":"Nauru","subregion":"Micronesia","region-wb":"East Asia & Pacific","iso-a3":"NRU","iso-a2":"NR","woe-id":"23424912","continent":"Oceania","hc-middle-lon":166.759,"hc-middle-lat":-0.518}},{"type":"MultiPolygon","arcs":[[[263]],[[264]],[[265]],[[266]],[[267]],[[268]],[[269]],[[270]],[[271]],[[272]],[[273]],[[274]],[[275]],[[276]],[[277]],[[278,279,280,281]],[[282,282,282]],[[283]],[[284]],[[285]],[[286]]],"id":"NO","properties":{"hc-group":"admin0","hc-key":"no","hc-a2":"NO","name":"Norway","labelrank":"3","country-abbrev":"Nor.","subregion":"Northern Europe","region-wb":"Europe & Central Asia","iso-a3":"NOR","iso-a2":"NO","woe-id":"-90","continent":"Europe","hc-middle-lon":8.415,"hc-middle-lat":60.476}},{"type":"Polygon","arcs":[[287]],"id":"FM","properties":{"hc-group":"admin0","hc-key":"fm","hc-a2":"FM","name":"Federated States of Micronesia","labelrank":"6","country-abbrev":"F.S.M.","subregion":"Micronesia","region-wb":"East Asia & Pacific","iso-a3":"FSM","iso-a2":"FM","woe-id":"23424815","continent":"Oceania","hc-middle-lon":158.09,"hc-middle-lat":6.862}},{"type":"Polygon","arcs":[[288]],"id":"KN","properties":{"hc-group":"admin0","hc-key":"kn","hc-a2":"KN","name":"Saint Kitts and Nevis","labelrank":"6","country-abbrev":"St.K.N.","subregion":"Caribbean","region-wb":"Latin America & Caribbean","iso-a3":"KNA","iso-a2":"KN","woe-id":"23424940","continent":"North America","hc-middle-lon":-62.647,"hc-middle-lat":17.286}},{"type":"MultiPolygon","arcs":[[[289]],[[-213,290,-211,291,292,293,294,295,296,297,298,299,300,301,302,303,304,305,306,307,308,-215,309]]],"id":"CN","properties":{"hc-group":"admin0","hc-key":"cn","hc-a2":"CN","name":"China","labelrank":"2","country-abbrev":"China","subregion":"Eastern Asia","region-wb":"East Asia & Pacific","iso-a3":"CHN","iso-a2":"CN","woe-id":"23424781","continent":"Asia","hc-middle-lon":99.175,"hc-middle-lat":35.295}},{"type":"Polygon","arcs":[[310]],"id":"BH","properties":{"hc-group":"admin0","hc-key":"bh","hc-a2":"BH","name":"Bahrain","labelrank":"4","country-abbrev":"Bahr.","subregion":"Western Asia","region-wb":"Middle East & North Africa","iso-a3":"BHR","iso-a2":"BH","woe-id":"23424753","continent":"Asia","hc-middle-lon":50.485,"hc-middle-lat":25.994}},{"type":"Polygon","arcs":[[311]],"id":"TO","properties":{"hc-group":"admin0","hc-key":"to","hc-a2":"TO","name":"Tonga","labelrank":"4","country-abbrev":"Tongo","subregion":"Polynesia","region-wb":"East Asia & Pacific","iso-a3":"TON","iso-a2":"TO","woe-id":"23424964","continent":"Oceania","hc-middle-lon":-174.963,"hc-middle-lat":-21.192}},{"type":"MultiPolygon","arcs":[[[312]],[[313,314,-280,315]]],"id":"FI","properties":{"hc-group":"admin0","hc-key":"fi","hc-a2":"FI","name":"Finland","labelrank":"3","country-abbrev":"Fin.","subregion":"Northern Europe","region-wb":"Europe & Central Asia","iso-a3":"FIN","iso-a2":"FI","woe-id":"23424812","continent":"Europe","hc-middle-lon":26.037,"hc-middle-lat":62.739}},{"type":"MultiPolygon","arcs":[[[316]],[[317]],[[318]],[[319]],[[320]],[[321]],[[322]],[[323]],[[324]],[[325]],[[326]],[[327]],[[328]],[[329]],[[330]],[[331]],[[332]],[[333]],[[334]],[[335]],[[336]],[[337]],[[338]],[[339]],[[340]],[[341,342,343,344]],[[345,346]],[[347,348]],[[349]],[[350]],[[351]],[[352]],[[353]],[[354,355]]],"id":"ID","properties":{"hc-group":"admin0","hc-key":"id","hc-a2":"ID","name":"Indonesia","labelrank":"2","country-abbrev":"Indo.","subregion":"South-Eastern Asia","region-wb":"East Asia & Pacific","iso-a3":"IDN","iso-a2":"ID","woe-id":"23424846","continent":"Asia","hc-middle-lon":112.468,"hc-middle-lat":-0.99}},{"type":"Polygon","arcs":[[356]],"id":"MU","properties":{"hc-group":"admin0","hc-key":"mu","hc-a2":"MU","name":"Mauritius","labelrank":"5","country-abbrev":"Mus.","subregion":"Eastern Africa","region-wb":"Sub-Saharan Africa","iso-a3":"MUS","iso-a2":"MU","woe-id":"23424894","continent":"Seven seas (open ocean)","hc-middle-lon":57.519,"hc-middle-lat":-20.273}},{"type":"MultiPolygon","arcs":[[[357]],[[358]],[[359,-281,-315]]],"id":"SE","properties":{"hc-group":"admin0","hc-key":"se","hc-a2":"SE","name":"Sweden","labelrank":"3","country-abbrev":"Swe.","subregion":"Northern Europe","region-wb":"Europe & Central Asia","iso-a3":"SWE","iso-a2":"SE","woe-id":"23424954","continent":"Europe","hc-middle-lon":18.926,"hc-middle-lat":65.333}},{"type":"Polygon","arcs":[[360]],"id":"TT","properties":{"hc-group":"admin0","hc-key":"tt","hc-a2":"TT","name":"Trinidad and Tobago","labelrank":"5","country-abbrev":"Tr.T.","subregion":"Caribbean","region-wb":"Latin America & Caribbean","iso-a3":"TTO","iso-a2":"TT","woe-id":"23424958","continent":"North America","hc-middle-lon":-61.103,"hc-middle-lat":10.437}},{"type":"Polygon","arcs":[[361]],"id":"SW","properties":{"hc-group":"admin0","hc-key":"sw","hc-a2":"SW","name":"Serranilla Bank","labelrank":"5","country-abbrev":"S.B.","subregion":"Caribbean","region-wb":"Latin America & Caribbean","iso-a3":"-99","iso-a2":"SW","woe-id":"-99","continent":"North America","hc-middle-lon":-78.544,"hc-middle-lat":15.844}},{"type":"MultiPolygon","arcs":[[[362]],[[363]],[[364,365,366,367,368,369,370,371,372,373,374,375,-261,376,377]]],"id":"BR","properties":{"hc-group":"admin0","hc-key":"br","hc-a2":"BR","name":"Brazil","labelrank":"2","country-abbrev":"Brazil","subregion":"South America","region-wb":"Latin America & Caribbean","iso-a3":"BRA","iso-a2":"BR","woe-id":"23424768","continent":"South America","hc-middle-lon":-52.77,"hc-middle-lat":-8.829}},{"type":"MultiPolygon","arcs":[[[378]],[[379]],[[380]],[[381,382]],[[383]],[[384]]],"id":"BS","properties":{"hc-group":"admin0","hc-key":"bs","hc-a2":"BS","name":"The Bahamas","labelrank":"4","country-abbrev":"Bhs.","subregion":"Caribbean","region-wb":"Latin America & Caribbean","iso-a3":"BHS","iso-a2":"BS","woe-id":"23424758","continent":"North America","hc-middle-lon":-77.862,"hc-middle-lat":24.763}},{"type":"Polygon","arcs":[[385]],"id":"PW","properties":{"hc-group":"admin0","hc-key":"pw","hc-a2":"PW","name":"Palau","labelrank":"6","country-abbrev":"Palau","subregion":"Micronesia","region-wb":"East Asia & Pacific","iso-a3":"PLW","iso-a2":"PW","woe-id":"23424927","continent":"Oceania","hc-middle-lon":134.403,"hc-middle-lat":7.471}},{"type":"MultiPolygon","arcs":[[[386]],[[387,388,389]]],"id":"EC","properties":{"hc-group":"admin0","hc-key":"ec","hc-a2":"EC","name":"Ecuador","labelrank":"3","country-abbrev":"Ecu.","subregion":"South America","region-wb":"Latin America & Caribbean","iso-a3":"ECU","iso-a2":"EC","woe-id":"23424801","continent":"South America","hc-middle-lon":-79.197,"hc-middle-lat":0.267}},{"type":"MultiPolygon","arcs":[[[390]],[[391]],[[392]],[[393]],[[394]],[[395]]],"id":"AU","properties":{"hc-group":"admin0","hc-key":"au","hc-a2":"AU","name":"Australia","labelrank":"2","country-abbrev":"Auz.","subregion":"Australia and New Zealand","region-wb":"East Asia & Pacific","iso-a3":"AUS","iso-a2":"AU","woe-id":"-90","continent":"Oceania","hc-middle-lon":135.153,"hc-middle-lat":-25.365}},{"type":"Polygon","arcs":[[396]],"id":"TV","properties":{"hc-group":"admin0","hc-key":"tv","hc-a2":"TV","name":"Tuvalu","labelrank":"6","country-abbrev":"Tuv.","subregion":"Polynesia","region-wb":"East Asia & Pacific","iso-a3":"TUV","iso-a2":"TV","woe-id":"23424970","continent":"Oceania","hc-middle-lon":179.006,"hc-middle-lat":-8.489}},{"type":"Polygon","arcs":[[397]],"id":"MH","properties":{"hc-group":"admin0","hc-key":"mh","hc-a2":"MH","name":"Marshall Islands","labelrank":"6","country-abbrev":"M. Is.","subregion":"Micronesia","region-wb":"East Asia & Pacific","iso-a3":"MHL","iso-a2":"MH","woe-id":"23424932","continent":"Oceania","hc-middle-lon":170.98,"hc-middle-lat":7.079}},{"type":"MultiPolygon","arcs":[[[398,399,400,401,402,403],[404],[405]],[[406]],[[407]],[[408]],[[409]],[[410]],[[411]],[[412]],[[413]],[[414]],[[415]],[[416]],[[417]],[[418]],[[419]],[[420,421,422,423]]],"id":"CL","properties":{"hc-group":"admin0","hc-key":"cl","hc-a2":"CL","name":"Chile","labelrank":"2","country-abbrev":"Chile","subregion":"South America","region-wb":"Latin America & Caribbean","iso-a3":"CHL","iso-a2":"CL","woe-id":"23424782","continent":"South America","hc-middle-lon":-71.822,"hc-middle-lat":-53.577}},{"type":"Polygon","arcs":[[424]],"id":"KI","properties":{"hc-group":"admin0","hc-key":"ki","hc-a2":"KI","name":"Kiribati","labelrank":"6","country-abbrev":"Kir.","subregion":"Micronesia","region-wb":"East Asia & Pacific","iso-a3":"KIR","iso-a2":"KI","woe-id":"23424867","continent":"Oceania","hc-middle-lon":-157.203,"hc-middle-lat":1.831}},{"type":"MultiPolygon","arcs":[[[425]],[[426]],[[427]],[[428]],[[429]],[[430]],[[431]],[[432]],[[433]],[[434]]],"id":"PH","properties":{"hc-group":"admin0","hc-key":"ph","hc-a2":"PH","name":"Philippines","labelrank":"2","country-abbrev":"Phil.","subregion":"South-Eastern Asia","region-wb":"East Asia & Pacific","iso-a3":"PHL","iso-a2":"PH","woe-id":"23424934","continent":"Asia","hc-middle-lon":120.998,"hc-middle-lat":16.697}},{"type":"Polygon","arcs":[[435]],"id":"GD","properties":{"hc-group":"admin0","hc-key":"gd","hc-a2":"GD","name":"Grenada","labelrank":"6","country-abbrev":"Gren.","subregion":"Caribbean","region-wb":"Latin America & Caribbean","iso-a3":"GRD","iso-a2":"GD","woe-id":"23424826","continent":"North America","hc-middle-lon":-61.6,"hc-middle-lat":12.109}},{"type":"MultiPolygon","arcs":[[[436]],[[437]],[[438,439,440,441,442,443,444,445,446]]],"id":"EE","properties":{"hc-group":"admin0","hc-key":"ee","hc-a2":"EE","name":"Estonia","labelrank":"6","country-abbrev":"Est.","subregion":"Northern Europe","region-wb":"Europe & Central Asia","iso-a3":"EST","iso-a2":"EE","woe-id":"23424805","continent":"Europe","hc-middle-lon":24.052,"hc-middle-lat":58.723}},{"type":"Polygon","arcs":[[447]],"id":"AG","properties":{"hc-group":"admin0","hc-key":"ag","hc-a2":"AG","name":"Antigua and Barbuda","labelrank":"6","country-abbrev":"Ant.B.","subregion":"Caribbean","region-wb":"Latin America & Caribbean","iso-a3":"ATG","iso-a2":"AG","woe-id":"23424737","continent":"North America","hc-middle-lon":-61.716,"hc-middle-lat":17.053}},{"type":"MultiPolygon","arcs":[[[448]],[[449]],[[450]],[[-259]],[[451,452]],[[453,454]],[[455,456,457,-245,458,-243,459,460]]],"id":"ES","properties":{"hc-group":"admin0","hc-key":"es","hc-a2":"ES","name":"Spain","labelrank":"2","country-abbrev":"Sp.","subregion":"Southern Europe","region-wb":"Europe & Central Asia","iso-a3":"ESP","iso-a2":"ES","woe-id":"23424950","continent":"Europe","hc-middle-lon":-1.495,"hc-middle-lat":39.59}},{"type":"Polygon","arcs":[[461]],"id":"BB","properties":{"hc-group":"admin0","hc-key":"bb","hc-a2":"BB","name":"Barbados","labelrank":"5","country-abbrev":"Barb.","subregion":"Caribbean","region-wb":"Latin America & Caribbean","iso-a3":"BRB","iso-a2":"BB","woe-id":"23424754","continent":"North America","hc-middle-lon":-59.518,"hc-middle-lat":13.168}},{"type":"MultiPolygon","arcs":[[[462]],[[463]],[[-258,464,465,466,467],[468],[469]]],"id":"IT","properties":{"hc-group":"admin0","hc-key":"it","hc-a2":"IT","name":"Italy","labelrank":"2","country-abbrev":"Italy","subregion":"Southern Europe","region-wb":"Europe & Central Asia","iso-a3":"ITA","iso-a2":"IT","woe-id":"23424853","continent":"Europe","hc-middle-lon":12.073,"hc-middle-lat":42.323}},{"type":"Polygon","arcs":[[470]],"id":"MT","properties":{"hc-group":"admin0","hc-key":"mt","hc-a2":"MT","name":"Malta","labelrank":"5","country-abbrev":"Malta","subregion":"Southern Europe","region-wb":"Middle East & North Africa","iso-a3":"MLT","iso-a2":"MT","woe-id":"23424897","continent":"Europe","hc-middle-lon":14.409,"hc-middle-lat":35.876}},{"type":"Polygon","arcs":[[471]],"id":"MV","properties":{"hc-group":"admin0","hc-key":"mv","hc-a2":"MV","name":"Maldives","labelrank":"5","country-abbrev":"Mald.","subregion":"Southern Asia","region-wb":"South Asia","iso-a3":"MDV","iso-a2":"MV","woe-id":"23424899","continent":"Seven seas (open ocean)","hc-middle-lon":73.378,"hc-middle-lat":1.93}},{"type":"Polygon","arcs":[[472]],"id":"SP","properties":{"hc-group":"admin0","hc-key":"sp","hc-a2":"SP","name":"Spratly Islands","labelrank":"6","country-abbrev":"Spratly Is.","subregion":"South-Eastern Asia","region-wb":"East Asia & Pacific","iso-a3":"-99","iso-a2":"SP","woe-id":"23424921","continent":"Asia","hc-middle-lon":115.682,"hc-middle-lat":10.711}},{"type":"MultiPolygon","arcs":[[[473]],[[474]],[[475]],[[-348,476]],[[477]]],"id":"PG","properties":{"hc-group":"admin0","hc-key":"pg","hc-a2":"PG","name":"Papua New Guinea","labelrank":"2","country-abbrev":"P.N.G.","subregion":"Melanesia","region-wb":"East Asia & Pacific","iso-a3":"PNG","iso-a2":"PG","woe-id":"23424926","continent":"Oceania","hc-middle-lon":142.498,"hc-middle-lat":-6.139}},{"type":"MultiPolygon","arcs":[[[478]],[[479]]],"id":"VU","properties":{"hc-group":"admin0","hc-key":"vu","hc-a2":"VU","name":"Vanuatu","labelrank":"4","country-abbrev":"Van.","subregion":"Melanesia","region-wb":"East Asia & Pacific","iso-a3":"VUT","iso-a2":"VU","woe-id":"23424907","continent":"Oceania","hc-middle-lon":167.268,"hc-middle-lat":-16.303}},{"type":"Polygon","arcs":[[480]],"id":"SG","properties":{"hc-group":"admin0","hc-key":"sg","hc-a2":"SG","name":"Singapore","labelrank":"6","country-abbrev":"Sing.","subregion":"South-Eastern Asia","region-wb":"East Asia & Pacific","iso-a3":"SGP","iso-a2":"SG","woe-id":"23424948","continent":"Asia","hc-middle-lon":103.71,"hc-middle-lat":1.329}},{"type":"MultiPolygon","arcs":[[[481]],[[482]],[[483]],[[484]],[[485]],[[486]],[[487]],[[488,489,490,491,492,493,494,495,496],[497,-498,498]],[[499,-461]],[[500,501]],[[502,502,502]],[[503,504]],[[505]]],"id":"GB","properties":{"hc-group":"admin0","hc-key":"gb","hc-a2":"GB","name":"United Kingdom","labelrank":"2","country-abbrev":"U.K.","subregion":"Northern Europe","region-wb":"Europe & Central Asia","iso-a3":"GBR","iso-a2":"GB","woe-id":"-90","continent":"Europe","hc-middle-lon":-2.257,"hc-middle-lat":52.551}},{"type":"MultiPolygon","arcs":[[[497,-498,498]],[[-490,489,498]],[[506,-497,507]],[[508,-502,509,510,511,512,-492]]],"id":"CY","properties":{"hc-group":"admin0","hc-key":"cy","hc-a2":"CY","name":"Cyprus","labelrank":"5","country-abbrev":"Cyp.","subregion":"Western Asia","region-wb":"Europe & Central Asia","iso-a3":"CYP","iso-a2":"CY","woe-id":"-90","continent":"Asia","hc-middle-lon":32.96,"hc-middle-lat":34.874}},{"type":"MultiPolygon","arcs":[[[513]],[[514]],[[515]],[[516]],[[517]],[[518,519,520,521,522,523,524,525]]],"id":"GR","properties":{"hc-group":"admin0","hc-key":"gr","hc-a2":"GR","name":"Greece","labelrank":"3","country-abbrev":"Greece","subregion":"Southern Europe","region-wb":"Europe & Central Asia","iso-a3":"GRC","iso-a2":"GR","woe-id":"23424833","continent":"Europe","hc-middle-lon":22.437,"hc-middle-lat":36.697}},{"type":"Polygon","arcs":[[526]],"id":"KM","properties":{"hc-group":"admin0","hc-key":"km","hc-a2":"KM","name":"Comoros","labelrank":"6","country-abbrev":"Com.","subregion":"Eastern Africa","region-wb":"Sub-Saharan Africa","iso-a3":"COM","iso-a2":"KM","woe-id":"23424786","continent":"Africa","hc-middle-lon":43.292,"hc-middle-lat":-11.639}},{"type":"MultiPolygon","arcs":[[[527]],[[528,528,528]],[[529]],[[530]]],"id":"FJ","properties":{"hc-group":"admin0","hc-key":"fj","hc-a2":"FJ","name":"Fiji","labelrank":"6","country-abbrev":"Fiji","subregion":"Melanesia","region-wb":"East Asia & Pacific","iso-a3":"FJI","iso-a2":"FJ","woe-id":"23424813","continent":"Oceania","hc-middle-lon":177.708,"hc-middle-lat":-17.723}},{"type":"MultiPolygon","arcs":[[[531]],[[532]],[[533]],[[534]],[[535]],[[536]],[[537]],[[538]],[[539]],[[540]],[[541]],[[542]],[[543]],[[544]],[[545]],[[546]],[[547]],[[548]],[[549]],[[550]],[[551]],[[552]],[[553]],[[554]],[[555]],[[556]],[[557]],[[558]],[[559]],[[560]],[[561]],[[562]],[[563]],[[564]],[[565]],[[566]],[[567]],[[568]],[[569]],[[570]],[[571]],[[572]],[[573]],[[574]],[[575]],[[576]],[[577]],[[578]],[[579]],[[580]],[[581]],[[582]],[[583]],[[584]],[[585]],[[586]],[[-304,587,-302,588,-298,589,590,591,592,593,594,595,596,597,598,599,600,601,602,603,604,605,606,607,608,609,610,611,612,613,614,615,616,617,618,619,620,621,622,623,624,625,626,627,628,629,630,631,632,633,634,635,636,637,638,639,640,641,642,643,644,645,646,647,648,649,650,651,652,653,654,655,656,657,658,659,660,661,662,663,664,665,666,667,668,669,670,-444,671,-442,672,-440,673,-447,674,-316,-279,675,676]],[[677,678,679,680,681,682]],[[683,684,685]],[[686,687]],[[688]],[[689]],[[690]],[[691]],[[692]],[[693]],[[694]],[[695]],[[696]]],"id":"RU","properties":{"hc-group":"admin0","hc-key":"ru","hc-a2":"RU","name":"Russia","labelrank":"2","country-abbrev":"Rus.","subregion":"Eastern Europe","region-wb":"Europe & Central Asia","iso-a3":"RUS","iso-a2":"RU","woe-id":"23424936","continent":"Europe","hc-middle-lon":118.481,"hc-middle-lat":62.192}},{"type":"Polygon","arcs":[[468]],"id":"VA","properties":{"hc-group":"admin0","hc-key":"va","hc-a2":"VA","name":"Vatican","labelrank":"6","country-abbrev":"Vat.","subregion":"Southern Europe","region-wb":"Europe & Central Asia","iso-a3":"VAT","iso-a2":"VA","woe-id":"23424986","continent":"Europe","hc-middle-lon":12.446,"hc-middle-lat":41.854}},{"type":"Polygon","arcs":[[-470]],"id":"SM","properties":{"hc-group":"admin0","hc-key":"sm","hc-a2":"SM","name":"San Marino","labelrank":"6","country-abbrev":"S.M.","subregion":"Southern Europe","region-wb":"Europe & Central Asia","iso-a3":"SMR","iso-a2":"SM","woe-id":"23424947","continent":"Europe","hc-middle-lon":12.427,"hc-middle-lat":43.897}},{"type":"MultiPolygon","arcs":[[[697]],[[698,699,700,701,702],[703],[704]]],"id":"AM","properties":{"hc-group":"admin0","hc-key":"am","hc-a2":"AM","name":"Armenia","labelrank":"6","country-abbrev":"Arm.","subregion":"Western Asia","region-wb":"Europe & Central Asia","iso-a3":"ARM","iso-a2":"AM","woe-id":"23424743","continent":"Asia","hc-middle-lon":43.695,"hc-middle-lat":40.969}},{"type":"MultiPolygon","arcs":[[[-704]],[[-705]],[[705,-661,706,707,-703,708,-663],[-698]],[[709,-700,710]]],"id":"AZ","properties":{"hc-group":"admin0","hc-key":"az","hc-a2":"AZ","name":"Azerbaijan","labelrank":"5","country-abbrev":"Aze.","subregion":"Western Asia","region-wb":"Europe & Central Asia","iso-a3":"AZE","iso-a2":"AZ","woe-id":"23424741","continent":"Asia","hc-middle-lon":48.628,"hc-middle-lat":41.338}},{"type":"Polygon","arcs":[[711]],"id":"LS","properties":{"hc-group":"admin0","hc-key":"ls","hc-a2":"LS","name":"Lesotho","labelrank":"6","country-abbrev":"Les.","subregion":"Southern Africa","region-wb":"Sub-Saharan Africa","iso-a3":"LSO","iso-a2":"LS","woe-id":"23424880","continent":"Africa","hc-middle-lon":28.204,"hc-middle-lat":-29.544}},{"type":"MultiPolygon","arcs":[[[712]],[[713]],[[-295,714,715,716]]],"id":"TJ","properties":{"hc-group":"admin0","hc-key":"tj","hc-a2":"TJ","name":"Tajikistan","labelrank":"4","country-abbrev":"Tjk.","subregion":"Central Asia","region-wb":"Europe & Central Asia","iso-a3":"TJK","iso-a2":"TJ","woe-id":"23424961","continent":"Asia","hc-middle-lon":71.016,"hc-middle-lat":38.834}},{"type":"Polygon","arcs":[[717,718,719,720,721,722,723]],"id":"ML","properties":{"hc-group":"admin0","hc-key":"ml","hc-a2":"ML","name":"Mali","labelrank":"3","country-abbrev":"Mali","subregion":"Western Africa","region-wb":"Sub-Saharan Africa","iso-a3":"MLI","iso-a2":"ML","woe-id":"23424891","continent":"Africa","hc-middle-lon":-2.524,"hc-middle-lat":19.43}},{"type":"Polygon","arcs":[[724,725,726,727,728,729,730,-724]],"id":"DZ","properties":{"hc-group":"admin0","hc-key":"dz","hc-a2":"DZ","name":"Algeria","labelrank":"3","country-abbrev":"Alg.","subregion":"Northern Africa","region-wb":"Middle East & North Africa","iso-a3":"DZA","iso-a2":"DZ","woe-id":"23424740","continent":"Africa","hc-middle-lon":4.339,"hc-middle-lat":28.424}},{"type":"Polygon","arcs":[[731]],"id":"TW","properties":{"hc-group":"admin0","hc-key":"tw","hc-a2":"TW","name":"Taiwan","labelrank":"3","country-abbrev":"Taiwan","subregion":"Eastern Asia","region-wb":"East Asia & Pacific","iso-a3":"TWN","iso-a2":"TW","woe-id":"23424971","continent":"Asia","hc-middle-lon":120.774,"hc-middle-lat":23.708}},{"type":"MultiPolygon","arcs":[[[732]],[[733]],[[734,735,736,-716,737,738,739,740,741,742,743],[-713]]],"id":"UZ","properties":{"hc-group":"admin0","hc-key":"uz","hc-a2":"UZ","name":"Uzbekistan","labelrank":"3","country-abbrev":"Uzb.","subregion":"Central Asia","region-wb":"Europe & Central Asia","iso-a3":"UZB","iso-a2":"UZ","woe-id":"23424980","continent":"Asia","hc-middle-lon":63.786,"hc-middle-lat":41.163}},{"type":"Polygon","arcs":[[744,745,746,747,748,749,750,751,752,753,754,755,756,757,758,759,760,761,762]],"id":"TZ","properties":{"hc-group":"admin0","hc-key":"tz","hc-a2":"TZ","name":"United Republic of Tanzania","labelrank":"3","country-abbrev":"Tanz.","subregion":"Eastern Africa","region-wb":"Sub-Saharan Africa","iso-a3":"TZA","iso-a2":"TZ","woe-id":"23424973","continent":"Africa","hc-middle-lon":36.601,"hc-middle-lat":-7.566}},{"type":"MultiPolygon","arcs":[[[763,-423]],[[764,765]],[[766,401]],[[767,768,769,-401,770,771,-367,772]]],"id":"AR","properties":{"hc-group":"admin0","hc-key":"ar","hc-a2":"AR","name":"Argentina","labelrank":"2","country-abbrev":"Arg.","subregion":"South America","region-wb":"Latin America & Caribbean","iso-a3":"ARG","iso-a2":"AR","woe-id":"23424747","continent":"South America","hc-middle-lon":-64.542,"hc-middle-lat":-31.657}},{"type":"Polygon","arcs":[[773,774,-202,-196,775,776,777,778,779,780]],"id":"SA","properties":{"hc-group":"admin0","hc-key":"sa","hc-a2":"SA","name":"Saudi Arabia","labelrank":"2","country-abbrev":"Saud.","subregion":"Western Asia","region-wb":"Middle East & North Africa","iso-a3":"SAU","iso-a2":"SA","woe-id":"23424938","continent":"Asia","hc-middle-lon":43.615,"hc-middle-lat":24.535}},{"type":"MultiPolygon","arcs":[[[781,-239]],[[782,783]],[[784,785,786],[787]]],"id":"NL","properties":{"hc-group":"admin0","hc-key":"nl","hc-a2":"NL","name":"Netherlands","labelrank":"5","country-abbrev":"Neth.","subregion":"Western Europe","region-wb":"Europe & Central Asia","iso-a3":"NLD","iso-a2":"NL","woe-id":"-90","continent":"Europe","hc-middle-lon":6.485,"hc-middle-lat":53.502}},{"type":"Polygon","arcs":[[788,-203,-775,789,-201],[-199]],"id":"AE","properties":{"hc-group":"admin0","hc-key":"ae","hc-a2":"AE","name":"United Arab Emirates","labelrank":"4","country-abbrev":"U.A.E.","subregion":"Western Asia","region-wb":"Middle East & North Africa","iso-a3":"ARE","iso-a2":"AE","woe-id":"23424738","continent":"Asia","hc-middle-lon":54.351,"hc-middle-lat":23.831}},{"type":"Polygon","arcs":[[790,791,792,793,794,-465,-257,795,796,-254,797,251]],"id":"CH","properties":{"hc-group":"admin0","hc-key":"ch","hc-a2":"CH","name":"Switzerland","labelrank":"4","country-abbrev":"Switz.","subregion":"Western Europe","region-wb":"Europe & Central Asia","iso-a3":"CHE","iso-a2":"CH","woe-id":"23424957","continent":"Europe","hc-middle-lon":9.927,"hc-middle-lat":46.689}},{"type":"Polygon","arcs":[[798,-457]],"id":"PT","properties":{"hc-group":"admin0","hc-key":"pt","hc-a2":"PT","name":"Portugal","labelrank":"2","country-abbrev":"Port.","subregion":"Southern Europe","region-wb":"Europe & Central Asia","iso-a3":"PRT","iso-a2":"PT","woe-id":"23424925","continent":"Europe","hc-middle-lon":-7.972,"hc-middle-lat":39.472}},{"type":"MultiPolygon","arcs":[[[799,-347]],[[800,801,802,803,804,805,806,-356]],[[807,808]]],"id":"MY","properties":{"hc-group":"admin0","hc-key":"my","hc-a2":"MY","name":"Malaysia","labelrank":"3","country-abbrev":"Malay.","subregion":"South-Eastern Asia","region-wb":"East Asia & Pacific","iso-a3":"MYS","iso-a2":"MY","woe-id":"23424901","continent":"Asia","hc-middle-lon":116.986,"hc-middle-lat":5.409}},{"type":"Polygon","arcs":[[809,810,811,812]],"id":"PA","properties":{"hc-group":"admin0","hc-key":"pa","hc-a2":"PA","name":"Panama","labelrank":"4","country-abbrev":"Pan.","subregion":"Central America","region-wb":"Latin America & Caribbean","iso-a3":"PAN","iso-a2":"PA","woe-id":"23424924","continent":"North America","hc-middle-lon":-81.663,"hc-middle-lat":8.427}},{"type":"MultiPolygon","arcs":[[[813,814,815,816,817,-701,-710]],[[818,819,-524]]],"id":"TR","properties":{"hc-group":"admin0","hc-key":"tr","hc-a2":"TR","name":"Turkey","labelrank":"2","country-abbrev":"Tur.","subregion":"Western Asia","region-wb":"Europe & Central Asia","iso-a3":"TUR","iso-a2":"TR","woe-id":"23424969","continent":"Asia","hc-middle-lon":32.204,"hc-middle-lat":39.09}},{"type":"Polygon","arcs":[[-814,-711,-699,-708,820,821,822,823,824,825]],"id":"IR","properties":{"hc-group":"admin0","hc-key":"ir","hc-a2":"IR","name":"Iran","labelrank":"2","country-abbrev":"Iran","subregion":"Southern Asia","region-wb":"Middle East & North Africa","iso-a3":"IRN","iso-a2":"IR","woe-id":"23424851","continent":"Asia","hc-middle-lon":55.154,"hc-middle-lat":32.426}},{"type":"MultiPolygon","arcs":[[[826,-827,827]],[[828,829,830,831]]],"id":"HT","properties":{"hc-group":"admin0","hc-key":"ht","hc-a2":"HT","name":"Haiti","labelrank":"5","country-abbrev":"Haiti","subregion":"Caribbean","region-wb":"Latin America & Caribbean","iso-a3":"HTI","iso-a2":"HT","woe-id":"23424839","continent":"North America","hc-middle-lon":-73.806,"hc-middle-lat":18.154}},{"type":"Polygon","arcs":[[832,-832,833,-830,826]],"id":"DO","properties":{"hc-group":"admin0","hc-key":"do","hc-a2":"DO","name":"Dominican Republic","labelrank":"5","country-abbrev":"Dom. Rep.","subregion":"Caribbean","region-wb":"Latin America & Caribbean","iso-a3":"DOM","iso-a2":"DO","woe-id":"23424800","continent":"North America","hc-middle-lon":-70.169,"hc-middle-lat":18.99}},{"type":"Polygon","arcs":[[834,835,836]],"id":"GW","properties":{"hc-group":"admin0","hc-key":"gw","hc-a2":"GW","name":"Guinea Bissau","labelrank":"6","country-abbrev":"GnB.","subregion":"Western Africa","region-wb":"Sub-Saharan Africa","iso-a3":"GNB","iso-a2":"GW","woe-id":"23424929","continent":"Africa","hc-middle-lon":-15.055,"hc-middle-lat":11.807}},{"type":"MultiPolygon","arcs":[[[837,838,839]],[[840,841,842,843,844]]],"id":"HR","properties":{"hc-group":"admin0","hc-key":"hr","hc-a2":"HR","name":"Croatia","labelrank":"6","country-abbrev":"Cro.","subregion":"Southern Europe","region-wb":"Europe & Central Asia","iso-a3":"HRV","iso-a2":"HR","woe-id":"23424843","continent":"Europe","hc-middle-lon":15.48,"hc-middle-lat":44.062}},{"type":"MultiPolygon","arcs":[[[-808,845,846,847,848,849]],[[850,-851,851]]],"id":"TH","properties":{"hc-group":"admin0","hc-key":"th","hc-a2":"TH","name":"Thailand","labelrank":"3","country-abbrev":"Thai.","subregion":"South-Eastern Asia","region-wb":"East Asia & Pacific","iso-a3":"THA","iso-a2":"TH","woe-id":"23424960","continent":"Asia","hc-middle-lon":99.91,"hc-middle-lat":7.728}},{"type":"Polygon","arcs":[[852,-82,853,-80,854,855,856,857,-84]],"id":"MX","properties":{"hc-group":"admin0","hc-key":"mx","hc-a2":"MX","name":"Mexico","labelrank":"2","country-abbrev":"Mex.","subregion":"Central America","region-wb":"Latin America & Caribbean","iso-a3":"MEX","iso-a2":"MX","woe-id":"23424900","continent":"North America","hc-middle-lon":-102.104,"hc-middle-lat":23.996}},{"type":"Polygon","arcs":[[-779,858,859]],"id":"KW","properties":{"hc-group":"admin0","hc-key":"kw","hc-a2":"KW","name":"Kuwait","labelrank":"6","country-abbrev":"Kwt.","subregion":"Western Asia","region-wb":"Middle East & North Africa","iso-a3":"KWT","iso-a2":"KW","woe-id":"23424870","continent":"Asia","hc-middle-lon":47.727,"hc-middle-lat":29.293}},{"type":"MultiPolygon","arcs":[[[860,860,860]],[[-40,861,862,863,864,865,866,867,-791,868,-250,869,870,-786,871]]],"id":"DE","properties":{"hc-group":"admin0","hc-key":"de","hc-a2":"DE","name":"Germany","labelrank":"2","country-abbrev":"Ger.","subregion":"Western Europe","region-wb":"Europe & Central Asia","iso-a3":"DEU","iso-a2":"DE","woe-id":"23424829","continent":"Europe","hc-middle-lon":10.535,"hc-middle-lat":52.357}},{"type":"Polygon","arcs":[[872,873,874]],"id":"GQ","properties":{"hc-group":"admin0","hc-key":"gq","hc-a2":"GQ","name":"Equatorial Guinea","labelrank":"4","country-abbrev":"Eq. G.","subregion":"Middle Africa","region-wb":"Sub-Saharan Africa","iso-a3":"GNQ","iso-a2":"GQ","woe-id":"23424804","continent":"Africa","hc-middle-lon":10.385,"hc-middle-lat":1.599}},{"type":"MultiPolygon","arcs":[[[875,-508,-496]],[[876,877,-511]],[[878,-493,-513]]],"id":"CNM","properties":{"hc-group":"admin0","hc-key":"cnm","hc-a2":"CN","name":"Cyprus No Mans Area","labelrank":"9","country-abbrev":null,"subregion":"Western Asia","region-wb":"Europe & Central Asia","iso-a3":"-99","iso-a2":null,"woe-id":"-99","continent":"Asia","hc-middle-lon":33.077,"hc-middle-lat":35.095}},{"type":"MultiPolygon","arcs":[[[-495,-494,-879,879,-876]],[[876,-877,880]]],"id":"NC","properties":{"hc-group":"admin0","hc-key":"nc","hc-a2":"NC","name":"Northern Cyprus","labelrank":"6","country-abbrev":"N. Cy.","subregion":"Western Asia","region-wb":"Europe & Central Asia","iso-a3":"-99","iso-a2":"NC","woe-id":"-90","continent":"Asia","hc-middle-lon":33.626,"hc-middle-lat":35.224}},{"type":"Polygon","arcs":[[-505,881]],"id":"IE","properties":{"hc-group":"admin0","hc-key":"ie","hc-a2":"IE","name":"Ireland","labelrank":"3","country-abbrev":"Ire.","subregion":"Northern Europe","region-wb":"Europe & Central Asia","iso-a3":"IRL","iso-a2":"IE","woe-id":"23424803","continent":"Europe","hc-middle-lon":-8.529,"hc-middle-lat":53.324}},{"type":"MultiPolygon","arcs":[[[-603,882,-601,883,884,885,-597,886,887,-594,888,-592,889,890,-297,891,-736,892,-742,893,894,895,896,-657,897,898,-654,899,-652,900,901,-649,902,-647,903,-645,904,-643,905,906,907,908,909,910,911,912,913,-633,914,-631,915,916,-628,917,918,919,-624,920,-622,921,-620,922,-618,923,-616,924,925,-613,926,927,928,929,930,931,932,-605,933]],[[934,-744]]],"id":"KZ","properties":{"hc-group":"admin0","hc-key":"kz","hc-a2":"KZ","name":"Kazakhstan","labelrank":"3","country-abbrev":"Kaz.","subregion":"Central Asia","region-wb":"Europe & Central Asia","iso-a3":"KAZ","iso-a2":"KZ","woe-id":"-90","continent":"Asia","hc-middle-lon":70.091,"hc-middle-lat":48.737}},{"type":"Polygon","arcs":[[-665,935,-709,-702,-818,936,-667,937]],"id":"GE","properties":{"hc-group":"admin0","hc-key":"ge","hc-a2":"GE","name":"Georgia","labelrank":"5","country-abbrev":"Geo.","subregion":"Western Asia","region-wb":"Europe & Central Asia","iso-a3":"GEO","iso-a2":"GE","woe-id":"23424823","continent":"Asia","hc-middle-lon":41.605,"hc-middle-lat":42.38}},{"type":"Polygon","arcs":[[938,-680,939,940,941,942,943,-865,944,-863,945,-684]],"id":"PL","properties":{"hc-group":"admin0","hc-key":"pl","hc-a2":"PL","name":"Poland","labelrank":"3","country-abbrev":"Pol.","subregion":"Eastern Europe","region-wb":"Europe & Central Asia","iso-a3":"POL","iso-a2":"PL","woe-id":"23424923","continent":"Europe","hc-middle-lon":19.312,"hc-middle-lat":53.25}},{"type":"MultiPolygon","arcs":[[[946,-683]],[[947,948,949,-940,-679]]],"id":"LT","properties":{"hc-group":"admin0","hc-key":"lt","hc-a2":"LT","name":"Lithuania","labelrank":"5","country-abbrev":"Lith.","subregion":"Northern Europe","region-wb":"Europe & Central Asia","iso-a3":"LTU","iso-a2":"LT","woe-id":"23424875","continent":"Europe","hc-middle-lon":22.478,"hc-middle-lat":56.234}},{"type":"MultiPolygon","arcs":[[[758,-759,950]],[[-757,951,952,953,954,955,956,957,958,959]]],"id":"UG","properties":{"hc-group":"admin0","hc-key":"ug","hc-a2":"UG","name":"Uganda","labelrank":"3","country-abbrev":"Uga.","subregion":"Eastern Africa","region-wb":"Sub-Saharan Africa","iso-a3":"UGA","iso-a2":"UG","woe-id":"23424974","continent":"Africa","hc-middle-lon":30.379,"hc-middle-lat":1.149}},{"type":"Polygon","arcs":[[960,961,962,963,964,965,966,967,968,969,-957,970,-955,971,-953,972,973,974,975]],"id":"CD","properties":{"hc-group":"admin0","hc-key":"cd","hc-a2":"CD","name":"Democratic Republic of the Congo","labelrank":"2","country-abbrev":"D.R.C.","subregion":"Middle Africa","region-wb":"Sub-Saharan Africa","iso-a3":"COD","iso-a2":"CD","woe-id":"23424780","continent":"Africa","hc-middle-lon":23.247,"hc-middle-lat":-2.393}},{"type":"MultiPolygon","arcs":[[[976,977,978,979,980,981,-522,982]],[[983,984]],[[985,985,985]]],"id":"MK","properties":{"hc-group":"admin0","hc-key":"mk","hc-a2":"MK","name":"Macedonia","labelrank":"6","country-abbrev":"Mkd.","subregion":"Southern Europe","region-wb":"Europe & Central Asia","iso-a3":"MKD","iso-a2":"MK","woe-id":"23424890","continent":"Europe","hc-middle-lon":21.708,"hc-middle-lat":41.599}},{"type":"MultiPolygon","arcs":[[[985,985,985]],[[986,-977,987,988,-520,989,-526,990,991,992,993,994,-979]],[[995,995,995]]],"id":"AL","properties":{"hc-group":"admin0","hc-key":"al","hc-a2":"AL","name":"Albania","labelrank":"6","country-abbrev":"Alb.","subregion":"Southern Europe","region-wb":"Europe & Central Asia","iso-a3":"ALB","iso-a2":"AL","woe-id":"23424742","continent":"Europe","hc-middle-lon":19.96,"hc-middle-lat":41.172}},{"type":"Polygon","arcs":[[996,997,998,999,1000,1001,1002,1003,1004,1005,1006]],"id":"NG","properties":{"hc-group":"admin0","hc-key":"ng","hc-a2":"NG","name":"Nigeria","labelrank":"2","country-abbrev":"Nigeria","subregion":"Western Africa","region-wb":"Sub-Saharan Africa","iso-a3":"NGA","iso-a2":"NG","woe-id":"23424908","continent":"Africa","hc-middle-lon":8.663,"hc-middle-lat":10.743}},{"type":"MultiPolygon","arcs":[[[-997,1007,1008,1009,1010,1011,1012,-874,1013,1014,-1000,1015,1016]],[[1017,1018]]],"id":"CM","properties":{"hc-group":"admin0","hc-key":"cm","hc-a2":"CM","name":"Cameroon","labelrank":"3","country-abbrev":"Cam.","subregion":"Middle Africa","region-wb":"Sub-Saharan Africa","iso-a3":"CMR","iso-a2":"CM","woe-id":"23424785","continent":"Africa","hc-middle-lon":10.581,"hc-middle-lat":5.495}},{"type":"Polygon","arcs":[[1019,1020,1021,1022,-1005,1023,-1003]],"id":"BJ","properties":{"hc-group":"admin0","hc-key":"bj","hc-a2":"BJ","name":"Benin","labelrank":"5","country-abbrev":"Benin","subregion":"Western Africa","region-wb":"Sub-Saharan Africa","iso-a3":"BEN","iso-a2":"BJ","woe-id":"23424764","continent":"Africa","hc-middle-lon":2.516,"hc-middle-lat":9.308}},{"type":"MultiPolygon","arcs":[[[1024,-345]],[[1025,-343]]],"id":"TL","properties":{"hc-group":"admin0","hc-key":"tl","hc-a2":"TL","name":"East Timor","labelrank":"5","country-abbrev":"T.L.","subregion":"South-Eastern Asia","region-wb":"East Asia & Pacific","iso-a3":"TLS","iso-a2":"TL","woe-id":"23424968","continent":"Asia","hc-middle-lon":125.966,"hc-middle-lat":-8.665}},{"type":"Polygon","arcs":[[1026,-739,1027,-822,1028,-894,-741]],"id":"TM","properties":{"hc-group":"admin0","hc-key":"tm","hc-a2":"TM","name":"Turkmenistan","labelrank":"4","country-abbrev":"Turkm.","subregion":"Central Asia","region-wb":"Europe & Central Asia","iso-a3":"TKM","iso-a2":"TM","woe-id":"23424972","continent":"Asia","hc-middle-lon":57.74,"hc-middle-lat":39.664}},{"type":"Polygon","arcs":[[1029,-851,-849,1030,1031]],"id":"KH","properties":{"hc-group":"admin0","hc-key":"kh","hc-a2":"KH","name":"Cambodia","labelrank":"3","country-abbrev":"Camb.","subregion":"South-Eastern Asia","region-wb":"East Asia & Pacific","iso-a3":"KHM","iso-a2":"KH","woe-id":"23424776","continent":"Asia","hc-middle-lon":106.578,"hc-middle-lat":12.59}},{"type":"Polygon","arcs":[[1032,1033,-399,1034,-389,1035,-372,1036,1037,1038]],"id":"PE","properties":{"hc-group":"admin0","hc-key":"pe","hc-a2":"PE","name":"Peru","labelrank":"2","country-abbrev":"Peru","subregion":"South America","region-wb":"Latin America & Caribbean","iso-a3":"PER","iso-a2":"PE","woe-id":"23424919","continent":"South America","hc-middle-lon":-77.335,"hc-middle-lat":-7.641}},{"type":"MultiPolygon","arcs":[[[1039,1039,1039]],[[746,1040]],[[748,-749,1041]],[[1042,1042,1042]],[[-752,1043,1044,1045]]],"id":"MW","properties":{"hc-group":"admin0","hc-key":"mw","hc-a2":"MW","name":"Malawi","labelrank":"6","country-abbrev":"Mal.","subregion":"Eastern Africa","region-wb":"Sub-Saharan Africa","iso-a3":"MWI","iso-a2":"MW","woe-id":"23424889","continent":"Africa","hc-middle-lon":35.118,"hc-middle-lat":-16.355}},{"type":"Polygon","arcs":[[1046,-299,-589,-301]],"id":"MN","properties":{"hc-group":"admin0","hc-key":"mn","hc-a2":"MN","name":"Mongolia","labelrank":"3","country-abbrev":"Mong.","subregion":"Eastern Asia","region-wb":"East Asia & Pacific","iso-a3":"MNG","iso-a2":"MN","woe-id":"23424887","continent":"Asia","hc-middle-lon":103.403,"hc-middle-lat":46.746}},{"type":"MultiPolygon","arcs":[[[1047,1048,-967]],[[-965,1049,1050,1051]]],"id":"AO","properties":{"hc-group":"admin0","hc-key":"ao","hc-a2":"AO","name":"Angola","labelrank":"3","country-abbrev":"Ang.","subregion":"Middle Africa","region-wb":"Sub-Saharan Africa","iso-a3":"AGO","iso-a2":"AO","woe-id":"23424745","continent":"Africa","hc-middle-lon":17.891,"hc-middle-lat":-13.573}},{"type":"Polygon","arcs":[[1052,-763,1053,1054,1055,1056,1057,1058,-1045]],"id":"MZ","properties":{"hc-group":"admin0","hc-key":"mz","hc-a2":"MZ","name":"Mozambique","labelrank":"3","country-abbrev":"Moz.","subregion":"Eastern Africa","region-wb":"Sub-Saharan Africa","iso-a3":"MOZ","iso-a2":"MZ","woe-id":"23424902","continent":"Africa","hc-middle-lon":39.003,"hc-middle-lat":-15.137}},{"type":"Polygon","arcs":[[-1055,1059,1060,1061,1062,-1057,1063],[-712]],"id":"ZA","properties":{"hc-group":"admin0","hc-key":"za","hc-a2":"ZA","name":"South Africa","labelrank":"2","country-abbrev":"S.Af.","subregion":"Southern Africa","region-wb":"Sub-Saharan Africa","iso-a3":"ZAF","iso-a2":"ZA","woe-id":"23424942","continent":"Africa","hc-middle-lon":22.382,"hc-middle-lat":-31.086}},{"type":"Polygon","arcs":[[1064,-813,1065,1066]],"id":"CR","properties":{"hc-group":"admin0","hc-key":"cr","hc-a2":"CR","name":"Costa Rica","labelrank":"5","country-abbrev":"C.R.","subregion":"Central America","region-wb":"Latin America & Caribbean","iso-a3":"CRI","iso-a2":"CR","woe-id":"23424791","continent":"North America","hc-middle-lon":-85.272,"hc-middle-lat":10.901}},{"type":"Polygon","arcs":[[1067,1068,1069]],"id":"SV","properties":{"hc-group":"admin0","hc-key":"sv","hc-a2":"SV","name":"El Salvador","labelrank":"6","country-abbrev":"El. S.","subregion":"Central America","region-wb":"Latin America & Caribbean","iso-a3":"SLV","iso-a2":"SV","woe-id":"23424807","continent":"North America","hc-middle-lon":-88.806,"hc-middle-lat":13.785}},{"type":"Polygon","arcs":[[1070,1071,-856]],"id":"BZ","properties":{"hc-group":"admin0","hc-key":"bz","hc-a2":"BZ","name":"Belize","labelrank":"6","country-abbrev":"Belize","subregion":"Central America","region-wb":"Latin America & Caribbean","iso-a3":"BLZ","iso-a2":"BZ","woe-id":"23424760","continent":"North America","hc-middle-lon":-88.614,"hc-middle-lat":17.173}},{"type":"Polygon","arcs":[[-388,1072,-811,1073,1074,-373,-1036]],"id":"CO","properties":{"hc-group":"admin0","hc-key":"co","hc-a2":"CO","name":"Colombia","labelrank":"2","country-abbrev":"Col.","subregion":"South America","region-wb":"Latin America & Caribbean","iso-a3":"COL","iso-a2":"CO","woe-id":"23424787","continent":"South America","hc-middle-lon":-72.74,"hc-middle-lat":3.472}},{"type":"Polygon","arcs":[[1075,-305,-677,1076,1077,1078]],"id":"KP","properties":{"hc-group":"admin0","hc-key":"kp","hc-a2":"KP","name":"North Korea","labelrank":"3","country-abbrev":"N.K.","subregion":"Eastern Asia","region-wb":"East Asia & Pacific","iso-a3":"PRK","iso-a2":"KP","woe-id":"23424865","continent":"Asia","hc-middle-lon":126.314,"hc-middle-lat":39.308}},{"type":"Polygon","arcs":[[-1078,1079,1080]],"id":"KR","properties":{"hc-group":"admin0","hc-key":"kr","hc-a2":"KR","name":"South Korea","labelrank":"2","country-abbrev":"S.K.","subregion":"Eastern Asia","region-wb":"East Asia & Pacific","iso-a3":"KOR","iso-a2":"KR","woe-id":"23424868","continent":"Asia","hc-middle-lon":127.466,"hc-middle-lat":36.449}},{"type":"Polygon","arcs":[[1081,1082,-375,1083]],"id":"GY","properties":{"hc-group":"admin0","hc-key":"gy","hc-a2":"GY","name":"Guyana","labelrank":"4","country-abbrev":"Guy.","subregion":"South America","region-wb":"Latin America & Caribbean","iso-a3":"GUY","iso-a2":"GY","woe-id":"23424836","continent":"South America","hc-middle-lon":-59.404,"hc-middle-lat":6.501}},{"type":"Polygon","arcs":[[1084,1085,1086,-1070,1087]],"id":"HN","properties":{"hc-group":"admin0","hc-key":"hn","hc-a2":"HN","name":"Honduras","labelrank":"5","country-abbrev":"Hond.","subregion":"Central America","region-wb":"Latin America & Caribbean","iso-a3":"HND","iso-a2":"HN","woe-id":"23424841","continent":"North America","hc-middle-lon":-84.832,"hc-middle-lat":15.677}},{"type":"Polygon","arcs":[[-1013,1088,1089,-875]],"id":"GA","properties":{"hc-group":"admin0","hc-key":"ga","hc-a2":"GA","name":"Gabon","labelrank":"4","country-abbrev":"Gabon","subregion":"Middle Africa","region-wb":"Sub-Saharan Africa","iso-a3":"GAB","iso-a2":"GA","woe-id":"23424822","continent":"Africa","hc-middle-lon":10.652,"hc-middle-lat":-1.634}},{"type":"Polygon","arcs":[[1090,-1086,1091,-1067]],"id":"NI","properties":{"hc-group":"admin0","hc-key":"ni","hc-a2":"NI","name":"Nicaragua","labelrank":"5","country-abbrev":"Nic.","subregion":"Central America","region-wb":"Latin America & Caribbean","iso-a3":"NIC","iso-a2":"NI","woe-id":"23424915","continent":"North America","hc-middle-lon":-83.744,"hc-middle-lat":12.893}},{"type":"Polygon","arcs":[[1092,1093,1094,1095,1096,1097,1098,1099,1100]],"id":"ET","properties":{"hc-group":"admin0","hc-key":"et","hc-a2":"ET","name":"Ethiopia","labelrank":"2","country-abbrev":"Eth.","subregion":"Eastern Africa","region-wb":"Sub-Saharan Africa","iso-a3":"ETH","iso-a2":"ET","woe-id":"23424808","continent":"Africa","hc-middle-lon":39.722,"hc-middle-lat":8.254}},{"type":"Polygon","arcs":[[-1099,1101,1102,1103,1104,1105,1106,1107,1108,1109,1110]],"id":"SD","properties":{"hc-group":"admin0","hc-key":"sd","hc-a2":"SD","name":"Sudan","labelrank":"3","country-abbrev":"Sudan","subregion":"Northern Africa","region-wb":"Sub-Saharan Africa","iso-a3":"SDN","iso-a2":"SD","woe-id":"-90","continent":"Africa","hc-middle-lon":30.24,"hc-middle-lat":16.986}},{"type":"Polygon","arcs":[[-1096,1111,1112,1113]],"id":"SO","properties":{"hc-group":"admin0","hc-key":"so","hc-a2":"SO","name":"Somalia","labelrank":"6","country-abbrev":"Som.","subregion":"Eastern Africa","region-wb":"Sub-Saharan Africa","iso-a3":"SOM","iso-a2":"SO","woe-id":"-90","continent":"Africa","hc-middle-lon":44.888,"hc-middle-lat":1.89}},{"type":"Polygon","arcs":[[1114,1115,1116,1117]],"id":"GH","properties":{"hc-group":"admin0","hc-key":"gh","hc-a2":"GH","name":"Ghana","labelrank":"3","country-abbrev":"Ghana","subregion":"Western Africa","region-wb":"Sub-Saharan Africa","iso-a3":"GHA","iso-a2":"GH","woe-id":"23424824","continent":"Africa","hc-middle-lon":-2.684,"hc-middle-lat":6.146}},{"type":"Polygon","arcs":[[-1116,1118,1119,1120,1121,-720,1122]],"id":"CI","properties":{"hc-group":"admin0","hc-key":"ci","hc-a2":"CI","name":"Ivory Coast","labelrank":"3","country-abbrev":"I.C.","subregion":"Western Africa","region-wb":"Sub-Saharan Africa","iso-a3":"CIV","iso-a2":"CI","woe-id":"23424854","continent":"Africa","hc-middle-lon":-5.569,"hc-middle-lat":7.418}},{"type":"Polygon","arcs":[[1123,-467,1124,1125,-841]],"id":"SI","properties":{"hc-group":"admin0","hc-key":"si","hc-a2":"SI","name":"Slovenia","labelrank":"6","country-abbrev":"Slo.","subregion":"Southern Europe","region-wb":"Europe & Central Asia","iso-a3":"SVN","iso-a2":"SI","woe-id":"23424945","continent":"Europe","hc-middle-lon":14.985,"hc-middle-lat":46.019}},{"type":"Polygon","arcs":[[1126,-1088,-1069,1127,-857,-1072]],"id":"GT","properties":{"hc-group":"admin0","hc-key":"gt","hc-a2":"GT","name":"Guatemala","labelrank":"3","country-abbrev":"Guat.","subregion":"Central America","region-wb":"Latin America & Caribbean","iso-a3":"GTM","iso-a2":"GT","woe-id":"23424834","continent":"North America","hc-middle-lon":-90.251,"hc-middle-lat":15.883}},{"type":"Polygon","arcs":[[1128,-844,1129,1130,-839]],"id":"BA","properties":{"hc-group":"admin0","hc-key":"ba","hc-a2":"BA","name":"Bosnia and Herzegovina","labelrank":"5","country-abbrev":"B.H.","subregion":"Southern Europe","region-wb":"Europe & Central Asia","iso-a3":"BIH","iso-a2":"BA","woe-id":"23424761","continent":"Europe","hc-middle-lon":17.917,"hc-middle-lat":44.393}},{"type":"Polygon","arcs":[[1131,1132,1133,1134,1135,1136,1137,-777,1138,1139]],"id":"JO","properties":{"hc-group":"admin0","hc-key":"jo","hc-a2":"JO","name":"Jordan","labelrank":"4","country-abbrev":"Jord.","subregion":"Western Asia","region-wb":"Middle East & North Africa","iso-a3":"JOR","iso-a2":"JO","woe-id":"23424860","continent":"Asia","hc-middle-lon":35.204,"hc-middle-lat":30.086}},{"type":"Polygon","arcs":[[-1137,1140,1141,1142,-816,1143]],"id":"SY","properties":{"hc-group":"admin0","hc-key":"sy","hc-a2":"SY","name":"Syria","labelrank":"3","country-abbrev":"Syria","subregion":"Western Asia","region-wb":"Middle East & North Africa","iso-a3":"SYR","iso-a2":"SY","woe-id":"23424956","continent":"Asia","hc-middle-lon":37.405,"hc-middle-lat":34.604}},{"type":"Polygon","arcs":[[1144,1145,-1135]],"id":"WE","properties":{"hc-group":"admin0","hc-key":"we","hc-a2":"WE","name":"West Bank","labelrank":"4","country-abbrev":"We. B.","subregion":"Western Asia","region-wb":"Middle East & North Africa","iso-a3":"WEB","iso-a2":"WE","woe-id":"-90","continent":"Asia","hc-middle-lon":35.21,"hc-middle-lat":31.917}},{"type":"Polygon","arcs":[[-1146,1146,-1133,1147,-1140,1148,1149,1150,1151,1152,-1141,-1136]],"id":"IL","properties":{"hc-group":"admin0","hc-key":"il","hc-a2":"IL","name":"Israel","labelrank":"4","country-abbrev":"Isr.","subregion":"Western Asia","region-wb":"Middle East & North Africa","iso-a3":"ISR","iso-a2":"IL","woe-id":"23424852","continent":"Asia","hc-middle-lon":35.35,"hc-middle-lat":32.956}},{"type":"Polygon","arcs":[[-1150,1153,1154,-1107,1155,1156,1157,1158,1159]],"id":"EG","properties":{"hc-group":"admin0","hc-key":"eg","hc-a2":"EG","name":"Egypt","labelrank":"2","country-abbrev":"Egypt","subregion":"Northern Africa","region-wb":"Middle East & North Africa","iso-a3":"EGY","iso-a2":"EG","woe-id":"23424802","continent":"Africa","hc-middle-lon":30.749,"hc-middle-lat":25.314}},{"type":"Polygon","arcs":[[1160,1161,1162,-1050,-964,1163,-962,1164,-753,-1046,-1059,1165]],"id":"ZM","properties":{"hc-group":"admin0","hc-key":"zm","hc-a2":"ZM","name":"Zambia","labelrank":"3","country-abbrev":"Zambia","subregion":"Eastern Africa","region-wb":"Sub-Saharan Africa","iso-a3":"ZMB","iso-a2":"ZM","woe-id":"23425003","continent":"Africa","hc-middle-lon":24.871,"hc-middle-lat":-14.832}},{"type":"Polygon","arcs":[[1166,-241]],"id":"MC","properties":{"hc-group":"admin0","hc-key":"mc","hc-a2":"MC","name":"Monaco","labelrank":"6","country-abbrev":"Mco.","subregion":"Western Europe","region-wb":"Europe & Central Asia","iso-a3":"MCO","iso-a2":"MC","woe-id":"23424892","continent":"Europe","hc-middle-lon":7.391,"hc-middle-lat":43.691}},{"type":"Polygon","arcs":[[1167,-378,1168,1169,1170,-773,-366]],"id":"UY","properties":{"hc-group":"admin0","hc-key":"uy","hc-a2":"UY","name":"Uruguay","labelrank":"4","country-abbrev":"Ury.","subregion":"South America","region-wb":"Latin America & Caribbean","iso-a3":"URY","iso-a2":"UY","woe-id":"23424979","continent":"South America","hc-middle-lon":-54.353,"hc-middle-lat":-34.312}},{"type":"Polygon","arcs":[[-756,1171,-975,1172,-973,-952]],"id":"RW","properties":{"hc-group":"admin0","hc-key":"rw","hc-a2":"RW","name":"Rwanda","labelrank":"3","country-abbrev":"Rwa.","subregion":"Eastern Africa","region-wb":"Sub-Saharan Africa","iso-a3":"RWA","iso-a2":"RW","woe-id":"23424937","continent":"Africa","hc-middle-lon":29.777,"hc-middle-lat":-2.023}},{"type":"MultiPolygon","arcs":[[[1173,-1039]],[[-1034,1174,-1037,-371,1175,-771,-400]]],"id":"BO","properties":{"hc-group":"admin0","hc-key":"bo","hc-a2":"BO","name":"Bolivia","labelrank":"3","country-abbrev":"Bolivia","subregion":"South America","region-wb":"Latin America & Caribbean","iso-a3":"BOL","iso-a2":"BO","woe-id":"23424762","continent":"South America","hc-middle-lon":-63.653,"hc-middle-lat":-17.504}},{"type":"Polygon","arcs":[[-1012,1176,-968,-1049,1177,-1089]],"id":"CG","properties":{"hc-group":"admin0","hc-key":"cg","hc-a2":"CG","name":"Republic of Congo","labelrank":"4","country-abbrev":"Rep. Congo","subregion":"Middle Africa","region-wb":"Sub-Saharan Africa","iso-a3":"COG","iso-a2":"CG","woe-id":"23424779","continent":"Africa","hc-middle-lon":12.218,"hc-middle-lat":-3.102}},{"type":"Polygon","arcs":[[1178,1179,-726,1180]],"id":"EH","properties":{"hc-group":"admin0","hc-key":"eh","hc-a2":"EH","name":"Western Sahara","labelrank":"7","country-abbrev":"W. Sah.","subregion":"Northern Africa","region-wb":"Middle East & North Africa","iso-a3":"ESH","iso-a2":"EH","woe-id":"23424990","continent":"Africa","hc-middle-lon":-13.62,"hc-middle-lat":22.759}},{"type":"Polygon","arcs":[[-843,1181,1182,1183,-981,1184,1185,-1130]],"id":"RS","properties":{"hc-group":"admin0","hc-key":"rs","hc-a2":"RS","name":"Republic of Serbia","labelrank":"5","country-abbrev":"Serb.","subregion":"Southern Europe","region-wb":"Europe & Central Asia","iso-a3":"SRB","iso-a2":"RS","woe-id":"-90","continent":"Europe","hc-middle-lon":20.642,"hc-middle-lat":44.143}},{"type":"Polygon","arcs":[[-1186,1186,-994,1187,1188,-992,1189,-840,-1131]],"id":"ME","properties":{"hc-group":"admin0","hc-key":"me","hc-a2":"ME","name":"Montenegro","labelrank":"6","country-abbrev":"Mont.","subregion":"Southern Europe","region-wb":"Europe & Central Asia","iso-a3":"MNE","iso-a2":"ME","woe-id":"20069817","continent":"Europe","hc-middle-lon":19.215,"hc-middle-lat":42.696}},{"type":"Polygon","arcs":[[-1021,1190,-1118,1191]],"id":"TG","properties":{"hc-group":"admin0","hc-key":"tg","hc-a2":"TG","name":"Togo","labelrank":"6","country-abbrev":"Togo","subregion":"Western Africa","region-wb":"Sub-Saharan Africa","iso-a3":"TGO","iso-a2":"TG","woe-id":"23424965","continent":"Africa","hc-middle-lon":1.203,"hc-middle-lat":7.056}},{"type":"Polygon","arcs":[[1192,-847,1193,-221,-216,-309]],"id":"MM","properties":{"hc-group":"admin0","hc-key":"mm","hc-a2":"MM","name":"Myanmar","labelrank":"3","country-abbrev":"Myan.","subregion":"South-Eastern Asia","region-wb":"East Asia & Pacific","iso-a3":"MMR","iso-a2":"MM","woe-id":"23424763","continent":"Asia","hc-middle-lon":93.772,"hc-middle-lat":19.587}},{"type":"Polygon","arcs":[[-1193,-308,1194,-1031,-848]],"id":"LA","properties":{"hc-group":"admin0","hc-key":"la","hc-a2":"LA","name":"Laos","labelrank":"4","country-abbrev":"Laos","subregion":"South-Eastern Asia","region-wb":"East Asia & Pacific","iso-a3":"LAO","iso-a2":"LA","woe-id":"23424872","continent":"Asia","hc-middle-lon":103.757,"hc-middle-lat":20.236}},{"type":"Polygon","arcs":[[-294,1195,-823,-1028,-738,-715]],"id":"AF","properties":{"hc-group":"admin0","hc-key":"af","hc-a2":"AF","name":"Afghanistan","labelrank":"3","country-abbrev":"Afg.","subregion":"Southern Asia","region-wb":"South Asia","iso-a3":"AFG","iso-a2":"AF","woe-id":"23424739","continent":"Asia","hc-middle-lon":65.883,"hc-middle-lat":33.671}},{"type":"Polygon","arcs":[[-210,1196,-292]],"id":"JK","properties":{"hc-group":"admin0","hc-key":"jk","hc-a2":"JK","name":"Siachen Glacier","labelrank":"5","country-abbrev":"Siachen","subregion":"Southern Asia","region-wb":"South Asia","iso-a3":"-99","iso-a2":"JK","woe-id":"23424928","continent":"Asia","hc-middle-lon":77.109,"hc-middle-lat":35.275}},{"type":"Polygon","arcs":[[-1197,-209,1197,1198,-824,-1196,-293]],"id":"PK","properties":{"hc-group":"admin0","hc-key":"pk","hc-a2":"PK","name":"Pakistan","labelrank":"2","country-abbrev":"Pak.","subregion":"Southern Asia","region-wb":"South Asia","iso-a3":"PAK","iso-a2":"PK","woe-id":"23424922","continent":"Asia","hc-middle-lon":65.483,"hc-middle-lat":27.32}},{"type":"Polygon","arcs":[[1199,-819,-523,-982,-1184,1200]],"id":"BG","properties":{"hc-group":"admin0","hc-key":"bg","hc-a2":"BG","name":"Bulgaria","labelrank":"4","country-abbrev":"Bulg.","subregion":"Eastern Europe","region-wb":"Europe & Central Asia","iso-a3":"BGR","iso-a2":"BG","woe-id":"23424771","continent":"Europe","hc-middle-lon":27.062,"hc-middle-lat":42.672}},{"type":"Polygon","arcs":[[-942,1201,-669,1202,1203,1204,1205,1206,1207],[1208]],"id":"UA","properties":{"hc-group":"admin0","hc-key":"ua","hc-a2":"UA","name":"Ukraine","labelrank":"3","country-abbrev":"Ukr.","subregion":"Eastern Europe","region-wb":"Europe & Central Asia","iso-a3":"UKR","iso-a2":"UA","woe-id":"23424976","continent":"Europe","hc-middle-lon":34.701,"hc-middle-lat":48.665}},{"type":"Polygon","arcs":[[-1204,1209,-1201,-1183,1210,-1206,1211]],"id":"RO","properties":{"hc-group":"admin0","hc-key":"ro","hc-a2":"RO","name":"Romania","labelrank":"3","country-abbrev":"Rom.","subregion":"Eastern Europe","region-wb":"Europe & Central Asia","iso-a3":"ROU","iso-a2":"RO","woe-id":"23424933","continent":"Europe","hc-middle-lon":26.511,"hc-middle-lat":45.927}},{"type":"Polygon","arcs":[[1212,-781]],"id":"QA","properties":{"hc-group":"admin0","hc-key":"qa","hc-a2":"QA","name":"Qatar","labelrank":"5","country-abbrev":"Qatar","subregion":"Western Asia","region-wb":"Middle East & North Africa","iso-a3":"QAT","iso-a2":"QA","woe-id":"23424930","continent":"Asia","hc-middle-lon":51.104,"hc-middle-lat":25.339}},{"type":"Polygon","arcs":[[-794,1213]],"id":"LI","properties":{"hc-group":"admin0","hc-key":"li","hc-a2":"LI","name":"Liechtenstein","labelrank":"6","country-abbrev":"Liech.","subregion":"Western Europe","region-wb":"Europe & Central Asia","iso-a3":"LIE","iso-a2":"LI","woe-id":"23424879","continent":"Europe","hc-middle-lon":9.543,"hc-middle-lat":47.112}},{"type":"Polygon","arcs":[[-1214,-793,1214,-867,1215,1216,1217,-1125,-466,-795]],"id":"AT","properties":{"hc-group":"admin0","hc-key":"at","hc-a2":"AT","name":"Austria","labelrank":"4","country-abbrev":"Aust.","subregion":"Western Europe","region-wb":"Europe & Central Asia","iso-a3":"AUT","iso-a2":"AT","woe-id":"23424750","continent":"Europe","hc-middle-lon":13.387,"hc-middle-lat":47.363}},{"type":"Polygon","arcs":[[-1217,1218,-943,-1208,1219]],"id":"SK","properties":{"hc-group":"admin0","hc-key":"sk","hc-a2":"SK","name":"Slovakia","labelrank":"6","country-abbrev":"Svk.","subregion":"Eastern Europe","region-wb":"Europe & Central Asia","iso-a3":"SVK","iso-a2":"SK","woe-id":"23424877","continent":"Europe","hc-middle-lon":21.268,"hc-middle-lat":49.031}},{"type":"Polygon","arcs":[[-1056,-1064]],"id":"SZ","properties":{"hc-group":"admin0","hc-key":"sz","hc-a2":"SZ","name":"Swaziland","labelrank":"4","country-abbrev":"Swz.","subregion":"Southern Africa","region-wb":"Sub-Saharan Africa","iso-a3":"SWZ","iso-a2":"SZ","woe-id":"23424993","continent":"Africa","hc-middle-lon":31.438,"hc-middle-lat":-26.467}},{"type":"Polygon","arcs":[[-1182,-842,-1126,-1218,-1220,-1207,-1211]],"id":"HU","properties":{"hc-group":"admin0","hc-key":"hu","hc-a2":"HU","name":"Hungary","labelrank":"5","country-abbrev":"Hun.","subregion":"Eastern Europe","region-wb":"Europe & Central Asia","iso-a3":"HUN","iso-a2":"HU","woe-id":"23424844","continent":"Europe","hc-middle-lon":17.908,"hc-middle-lat":46.863}},{"type":"Polygon","arcs":[[1220,-730,1221,1222,1223,1224,-1158,-1105,1225]],"id":"LY","properties":{"hc-group":"admin0","hc-key":"ly","hc-a2":"LY","name":"Libya","labelrank":"3","country-abbrev":"Libya","subregion":"Northern Africa","region-wb":"Middle East & North Africa","iso-a3":"LBY","iso-a2":"LY","woe-id":"23424882","continent":"Africa","hc-middle-lon":17.212,"hc-middle-lat":27.937}},{"type":"Polygon","arcs":[[-1221,1226,-1006,-1023,1227,-718,-731]],"id":"NE","properties":{"hc-group":"admin0","hc-key":"ne","hc-a2":"NE","name":"Niger","labelrank":"3","country-abbrev":"Niger","subregion":"Western Africa","region-wb":"Sub-Saharan Africa","iso-a3":"NER","iso-a2":"NE","woe-id":"23424906","continent":"Africa","hc-middle-lon":10.419,"hc-middle-lat":17.298}},{"type":"Polygon","arcs":[[-249,1228,-870]],"id":"LU","properties":{"hc-group":"admin0","hc-key":"lu","hc-a2":"LU","name":"Luxembourg","labelrank":"6","country-abbrev":"Lux.","subregion":"Western Europe","region-wb":"Europe & Central Asia","iso-a3":"LUX","iso-a2":"LU","woe-id":"23424881","continent":"Europe","hc-middle-lon":6.093,"hc-middle-lat":49.688}},{"type":"Polygon","arcs":[[-244,-459]],"id":"AD","properties":{"hc-group":"admin0","hc-key":"ad","hc-a2":"AD","name":"Andorra","labelrank":"6","country-abbrev":"And.","subregion":"Southern Europe","region-wb":"Europe & Central Asia","iso-a3":"AND","iso-a2":"AD","woe-id":"23424744","continent":"Europe","hc-middle-lon":1.597,"hc-middle-lat":42.508}},{"type":"Polygon","arcs":[[-1121,1229,1230,1231,1232]],"id":"LR","properties":{"hc-group":"admin0","hc-key":"lr","hc-a2":"LR","name":"Liberia","labelrank":"4","country-abbrev":"Liberia","subregion":"Western Africa","region-wb":"Sub-Saharan Africa","iso-a3":"LBR","iso-a2":"LR","woe-id":"23424876","continent":"Africa","hc-middle-lon":-7.613,"hc-middle-lat":5.444}},{"type":"Polygon","arcs":[[-1232,1233,1234]],"id":"SL","properties":{"hc-group":"admin0","hc-key":"sl","hc-a2":"SL","name":"Sierra Leone","labelrank":"4","country-abbrev":"S.L.","subregion":"Western Africa","region-wb":"Sub-Saharan Africa","iso-a3":"SLE","iso-a2":"SL","woe-id":"23424946","continent":"Africa","hc-middle-lon":-11.837,"hc-middle-lat":8.505}},{"type":"MultiPolygon","arcs":[[[1235,-806,1236,1237]],[[1238,-802]]],"id":"BN","properties":{"hc-group":"admin0","hc-key":"bn","hc-a2":"BN","name":"Brunei","labelrank":"6","country-abbrev":"Brunei","subregion":"South-Eastern Asia","region-wb":"East Asia & Pacific","iso-a3":"BRN","iso-a2":"BN","woe-id":"23424773","continent":"Asia","hc-middle-lon":114.563,"hc-middle-lat":4.472}},{"type":"Polygon","arcs":[[-725,-723,1239,1240,-1181]],"id":"MR","properties":{"hc-group":"admin0","hc-key":"mr","hc-a2":"MR","name":"Mauritania","labelrank":"3","country-abbrev":"Mrt.","subregion":"Western Africa","region-wb":"Sub-Saharan Africa","iso-a3":"MRT","iso-a2":"MR","woe-id":"23424896","continent":"Africa","hc-middle-lon":-9.464,"hc-middle-lat":19.453}},{"type":"Polygon","arcs":[[-1229,-248,1241,1242,-784,1243,-787,-871]],"id":"BE","properties":{"hc-group":"admin0","hc-key":"be","hc-a2":"BE","name":"Belgium","labelrank":"2","country-abbrev":"Belg.","subregion":"Western Europe","region-wb":"Europe & Central Asia","iso-a3":"BEL","iso-a2":"BE","woe-id":"23424757","continent":"Europe","hc-middle-lon":4.478,"hc-middle-lat":50.721}},{"type":"Polygon","arcs":[[1244,-859,-778,-1138,-1144,-815,-826]],"id":"IQ","properties":{"hc-group":"admin0","hc-key":"iq","hc-a2":"IQ","name":"Iraq","labelrank":"3","country-abbrev":"Iraq","subregion":"Western Asia","region-wb":"Middle East & North Africa","iso-a3":"IRQ","iso-a2":"IQ","woe-id":"23424855","continent":"Asia","hc-middle-lon":43.217,"hc-middle-lat":33.742}},{"type":"Polygon","arcs":[[1245,1246]],"id":"GM","properties":{"hc-group":"admin0","hc-key":"gm","hc-a2":"GM","name":"Gambia","labelrank":"6","country-abbrev":"Gambia","subregion":"Western Africa","region-wb":"Sub-Saharan Africa","iso-a3":"GMB","iso-a2":"GM","woe-id":"23424821","continent":"Africa","hc-middle-lon":-15.323,"hc-middle-lat":13.459}},{"type":"Polygon","arcs":[[1247,-453,1248,-727,-1180,1249,-455]],"id":"MA","properties":{"hc-group":"admin0","hc-key":"ma","hc-a2":"MA","name":"Morocco","labelrank":"3","country-abbrev":"Mor.","subregion":"Northern Africa","region-wb":"Middle East & North Africa","iso-a3":"MAR","iso-a2":"MA","woe-id":"23424893","continent":"Africa","hc-middle-lon":-7.435,"hc-middle-lat":32.948}},{"type":"Polygon","arcs":[[1250,1251,-1008,-1007,-1227,-1226,-1104,1252,-1010]],"id":"TD","properties":{"hc-group":"admin0","hc-key":"td","hc-a2":"TD","name":"Chad","labelrank":"3","country-abbrev":"Chad","subregion":"Middle Africa","region-wb":"Sub-Saharan Africa","iso-a3":"TCD","iso-a2":"TD","woe-id":"23424777","continent":"Africa","hc-middle-lon":18.373,"hc-middle-lat":13.458}},{"type":"Polygon","arcs":[[-1187,-1185,-980,-995]],"id":"KV","properties":{"hc-group":"admin0","hc-key":"kv","hc-a2":"KV","name":"Kosovo","labelrank":"6","country-abbrev":"Kos.","subregion":"Southern Europe","region-wb":"Europe & Central Asia","iso-a3":"-99","iso-a2":"KV","woe-id":"-90","continent":"Europe","hc-middle-lon":20.876,"hc-middle-lat":42.505}},{"type":"Polygon","arcs":[[1253,-1142,-1153]],"id":"LB","properties":{"hc-group":"admin0","hc-key":"lb","hc-a2":"LB","name":"Lebanon","labelrank":"5","country-abbrev":"Leb.","subregion":"Western Asia","region-wb":"Middle East & North Africa","iso-a3":"LBN","iso-a2":"LB","woe-id":"23424873","continent":"Asia","hc-middle-lon":35.701,"hc-middle-lat":33.837}},{"type":"Polygon","arcs":[[1254,-1112,-1095,1255]],"id":"SX","properties":{"hc-group":"admin0","hc-key":"sx","hc-a2":"SX","name":"Somaliland","labelrank":"5","country-abbrev":"Solnd.","subregion":"Eastern Africa","region-wb":"Sub-Saharan Africa","iso-a3":"-99","iso-a2":"SX","woe-id":"-99","continent":"Africa","hc-middle-lon":47.376,"hc-middle-lat":9.678}},{"type":"Polygon","arcs":[[-1094,1256,-1101,1257,1258,-1256]],"id":"DJ","properties":{"hc-group":"admin0","hc-key":"dj","hc-a2":"DJ","name":"Djibouti","labelrank":"5","country-abbrev":"Dji.","subregion":"Eastern Africa","region-wb":"Middle East & North Africa","iso-a3":"DJI","iso-a2":"DJ","woe-id":"23424797","continent":"Africa","hc-middle-lon":42.602,"hc-middle-lat":11.718}},{"type":"Polygon","arcs":[[-1258,-1100,-1111,1259]],"id":"ER","properties":{"hc-group":"admin0","hc-key":"er","hc-a2":"ER","name":"Eritrea","labelrank":"4","country-abbrev":"Erit.","subregion":"Eastern Africa","region-wb":"Sub-Saharan Africa","iso-a3":"ERI","iso-a2":"ER","woe-id":"23424806","continent":"Africa","hc-middle-lon":37.066,"hc-middle-lat":16.657}},{"type":"Polygon","arcs":[[-1172,-755,1260,-976]],"id":"BI","properties":{"hc-group":"admin0","hc-key":"bi","hc-a2":"BI","name":"Burundi","labelrank":"6","country-abbrev":"Bur.","subregion":"Eastern Africa","region-wb":"Sub-Saharan Africa","iso-a3":"BDI","iso-a2":"BI","woe-id":"23424774","continent":"Africa","hc-middle-lon":29.994,"hc-middle-lat":-3.28}},{"type":"Polygon","arcs":[[1261,-1247,1262,-1240,-722,1263,-836]],"id":"SN","properties":{"hc-group":"admin0","hc-key":"sn","hc-a2":"SN","name":"Senegal","labelrank":"3","country-abbrev":"Sen.","subregion":"Western Africa","region-wb":"Sub-Saharan Africa","iso-a3":"SEN","iso-a2":"SN","woe-id":"23424943","continent":"Africa","hc-middle-lon":-16.099,"hc-middle-lat":14.459}},{"type":"Polygon","arcs":[[-1264,-721,-1122,-1233,-1235,1264,-837]],"id":"GN","properties":{"hc-group":"admin0","hc-key":"gn","hc-a2":"GN","name":"Guinea","labelrank":"3","country-abbrev":"Gin.","subregion":"Western Africa","region-wb":"Sub-Saharan Africa","iso-a3":"GIN","iso-a2":"GN","woe-id":"23424835","continent":"Africa","hc-middle-lon":-13.095,"hc-middle-lat":9.825}},{"type":"Polygon","arcs":[[-1162,1265,-1166,-1058,-1063,1266]],"id":"ZW","properties":{"hc-group":"admin0","hc-key":"zw","hc-a2":"ZW","name":"Zimbabwe","labelrank":"3","country-abbrev":"Zimb.","subregion":"Eastern Africa","region-wb":"Sub-Saharan Africa","iso-a3":"ZWE","iso-a2":"ZW","woe-id":"23425004","continent":"Africa","hc-middle-lon":31.522,"hc-middle-lat":-18.459}},{"type":"Polygon","arcs":[[1267,-368,-772,-1176,-370]],"id":"PY","properties":{"hc-group":"admin0","hc-key":"py","hc-a2":"PY","name":"Paraguay","labelrank":"4","country-abbrev":"Para.","subregion":"South America","region-wb":"Latin America & Caribbean","iso-a3":"PRY","iso-a2":"PY","woe-id":"23424917","continent":"South America","hc-middle-lon":-59.56,"hc-middle-lat":-22.206}},{"type":"Polygon","arcs":[[-941,-950,1268,-670,-1202]],"id":"BY","properties":{"hc-group":"admin0","hc-key":"by","hc-a2":"BY","name":"Belarus","labelrank":"4","country-abbrev":"Bela.","subregion":"Eastern Europe","region-wb":"Europe & Central Asia","iso-a3":"BLR","iso-a2":"BY","woe-id":"23424765","continent":"Europe","hc-middle-lon":28.012,"hc-middle-lat":53.725}},{"type":"Polygon","arcs":[[-1269,-949,1269,-445,-671]],"id":"LV","properties":{"hc-group":"admin0","hc-key":"lv","hc-a2":"LV","name":"Latvia","labelrank":"5","country-abbrev":"Lat.","subregion":"Northern Europe","region-wb":"Europe & Central Asia","iso-a3":"LVA","iso-a2":"LV","woe-id":"23424874","continent":"Europe","hc-middle-lon":23.037,"hc-middle-lat":57.041}},{"type":"Polygon","arcs":[[-310,-214]],"id":"BT","properties":{"hc-group":"admin0","hc-key":"bt","hc-a2":"BT","name":"Bhutan","labelrank":"5","country-abbrev":"Bhutan","subregion":"Southern Asia","region-wb":"South Asia","iso-a3":"BTN","iso-a2":"BT","woe-id":"23424770","continent":"Asia","hc-middle-lon":90.273,"hc-middle-lat":27.518}},{"type":"Polygon","arcs":[[-1163,1270,-1061,1271,-1051]],"id":"NA","properties":{"hc-group":"admin0","hc-key":"na","hc-a2":"NA","name":"Namibia","labelrank":"3","country-abbrev":"Nam.","subregion":"Southern Africa","region-wb":"Sub-Saharan Africa","iso-a3":"NAM","iso-a2":"NA","woe-id":"23424987","continent":"Africa","hc-middle-lon":16.166,"hc-middle-lat":-21.435}},{"type":"Polygon","arcs":[[-1192,-1117,-1123,-719,-1228,-1022]],"id":"BF","properties":{"hc-group":"admin0","hc-key":"bf","hc-a2":"BF","name":"Burkina Faso","labelrank":"3","country-abbrev":"B.F.","subregion":"Western Africa","region-wb":"Sub-Saharan Africa","iso-a3":"BFA","iso-a2":"BF","woe-id":"23424978","continent":"Africa","hc-middle-lon":-0.442,"hc-middle-lat":12.793}},{"type":"Polygon","arcs":[[-970,1272,-1102,-1098,1273,-958]],"id":"SS","properties":{"hc-group":"admin0","hc-key":"ss","hc-a2":"SS","name":"South Sudan","labelrank":"3","country-abbrev":"S. Sud.","subregion":"Eastern Africa","region-wb":"Sub-Saharan Africa","iso-a3":"SSD","iso-a2":"SS","woe-id":"-99","continent":"Africa","hc-middle-lon":29.885,"hc-middle-lat":7.152}},{"type":"Polygon","arcs":[[-1177,-1011,-1253,-1103,-1273,-969]],"id":"CF","properties":{"hc-group":"admin0","hc-key":"cf","hc-a2":"CF","name":"Central African Republic","labelrank":"4","country-abbrev":"C.A.R.","subregion":"Middle Africa","region-wb":"Sub-Saharan Africa","iso-a3":"CAF","iso-a2":"CF","woe-id":"23424792","continent":"Africa","hc-middle-lon":20.503,"hc-middle-lat":6.977}},{"type":"Polygon","arcs":[[-1212,-1205]],"id":"MD","properties":{"hc-group":"admin0","hc-key":"md","hc-a2":"MD","name":"Moldova","labelrank":"6","country-abbrev":"Mda.","subregion":"Eastern Europe","region-wb":"Europe & Central Asia","iso-a3":"MDA","iso-a2":"MD","woe-id":"23424885","continent":"Europe","hc-middle-lon":28.37,"hc-middle-lat":47.228}},{"type":"Polygon","arcs":[[-1160,1274,-1151]],"id":"GZ","properties":{"hc-group":"admin0","hc-key":"gz","hc-a2":"GZ","name":"Gaza Strip","labelrank":"4","country-abbrev":"Gaz.","subregion":"Western Asia","region-wb":"Middle East & North Africa","iso-a3":"GAZ","iso-a2":"GZ","woe-id":"-90","continent":"Asia","hc-middle-lon":34.318,"hc-middle-lat":31.366}},{"type":"Polygon","arcs":[[1275,-761,1276,-959,-1274,-1097,-1114]],"id":"KE","properties":{"hc-group":"admin0","hc-key":"ke","hc-a2":"KE","name":"Kenya","labelrank":"2","country-abbrev":"Ken.","subregion":"Eastern Africa","region-wb":"Sub-Saharan Africa","iso-a3":"KEN","iso-a2":"KE","woe-id":"23424863","continent":"Africa","hc-middle-lon":40.802,"hc-middle-lat":-1.775}},{"type":"Polygon","arcs":[[-1267,-1062,-1271]],"id":"BW","properties":{"hc-group":"admin0","hc-key":"bw","hc-a2":"BW","name":"Botswana","labelrank":"4","country-abbrev":"Bwa.","subregion":"Southern Africa","region-wb":"Sub-Saharan Africa","iso-a3":"BWA","iso-a2":"BW","woe-id":"23424755","continent":"Africa","hc-middle-lon":24.532,"hc-middle-lat":-23.277}},{"type":"Polygon","arcs":[[-1219,-1216,-866,-944]],"id":"CZ","properties":{"hc-group":"admin0","hc-key":"cz","hc-a2":"CZ","name":"Czech Republic","labelrank":"5","country-abbrev":"Cz. Rep.","subregion":"Eastern Europe","region-wb":"Europe & Central Asia","iso-a3":"CZE","iso-a2":"CZ","woe-id":"23424810","continent":"Europe","hc-middle-lon":15.533,"hc-middle-lat":49.767}},{"type":"MultiPolygon","arcs":[[[1277,1278]],[[1279]],[[1280]]],"id":"PR","properties":{"hc-group":"admin0","hc-key":"pr","hc-a2":"PR","name":"Puerto Rico","labelrank":"5","country-abbrev":"P.R.","subregion":"Caribbean","region-wb":"Latin America & Caribbean","iso-a3":"PRI","iso-a2":"PR","woe-id":"23424935","continent":"North America","hc-middle-lon":-66.352,"hc-middle-lat":18.187}},{"type":"Polygon","arcs":[[1281,1282,-1222,-729,1283]],"id":"TN","properties":{"hc-group":"admin0","hc-key":"tn","hc-a2":"TN","name":"Tunisia","labelrank":"3","country-abbrev":"Tun.","subregion":"Northern Africa","region-wb":"Middle East & North Africa","iso-a3":"TUN","iso-a2":"TN","woe-id":"23424967","continent":"Africa","hc-middle-lon":9.183,"hc-middle-lat":36.656}},{"type":"Polygon","arcs":[[1284]],"id":"CU","properties":{"hc-group":"admin0","hc-key":"cu","hc-a2":"CU","name":"Cuba","labelrank":"3","country-abbrev":"Cuba","subregion":"Caribbean","region-wb":"Latin America & Caribbean","iso-a3":"CUB","iso-a2":"CU","woe-id":"23424793","continent":"North America","hc-middle-lon":-79.17,"hc-middle-lat":21.546}},{"type":"Polygon","arcs":[[1285,-1032,-1195,-307]],"id":"VN","properties":{"hc-group":"admin0","hc-key":"vn","hc-a2":"VN","name":"Vietnam","labelrank":"2","country-abbrev":"Viet.","subregion":"South-Eastern Asia","region-wb":"East Asia & Pacific","iso-a3":"VNM","iso-a2":"VN","woe-id":"23424984","continent":"Asia","hc-middle-lon":105.015,"hc-middle-lat":9.214}},{"type":"Polygon","arcs":[[1286]],"id":"MG","properties":{"hc-group":"admin0","hc-key":"mg","hc-a2":"MG","name":"Madagascar","labelrank":"3","country-abbrev":"Mad.","subregion":"Eastern Africa","region-wb":"Sub-Saharan Africa","iso-a3":"MDG","iso-a2":"MG","woe-id":"23424883","continent":"Africa","hc-middle-lon":46.45,"hc-middle-lat":-18.564}},{"type":"Polygon","arcs":[[1287,-1084,-374,-1075]],"id":"VE","properties":{"hc-group":"admin0","hc-key":"ve","hc-a2":"VE","name":"Venezuela","labelrank":"3","country-abbrev":"Ven.","subregion":"South America","region-wb":"Latin America & Caribbean","iso-a3":"VEN","iso-a2":"VE","woe-id":"23424982","continent":"South America","hc-middle-lon":-67.329,"hc-middle-lat":9.325}},{"type":"Polygon","arcs":[[1288]],"id":"IS","properties":{"hc-group":"admin0","hc-key":"is","hc-a2":"IS","name":"Iceland","labelrank":"3","country-abbrev":"Iceland","subregion":"Northern Europe","region-wb":"Europe & Central Asia","iso-a3":"ISL","iso-a2":"IS","woe-id":"23424845","continent":"Europe","hc-middle-lon":-19.021,"hc-middle-lat":64.909}},{"type":"Polygon","arcs":[[-212,-291]],"id":"NP","properties":{"hc-group":"admin0","hc-key":"np","hc-a2":"NP","name":"Nepal","labelrank":"3","country-abbrev":"Nepal","subregion":"Southern Asia","region-wb":"South Asia","iso-a3":"NPL","iso-a2":"NP","woe-id":"23424911","continent":"Asia","hc-middle-lon":84.175,"hc-middle-lat":28.136}},{"type":"Polygon","arcs":[[-376,-1083,1289,-262]],"id":"SR","properties":{"hc-group":"admin0","hc-key":"sr","hc-a2":"SR","name":"Suriname","labelrank":"4","country-abbrev":"Sur.","subregion":"South America","region-wb":"Latin America & Caribbean","iso-a3":"SUR","iso-a2":"SR","woe-id":"23424913","continent":"South America","hc-middle-lon":-54.314,"hc-middle-lat":5.583}},{"type":"Polygon","arcs":[[-892,-296,-717,-737],[-714],[-733],[-734]],"id":"KG","properties":{"hc-group":"admin0","hc-key":"kg","hc-a2":"KG","name":"Kyrgyzstan","labelrank":"4","country-abbrev":"Kgz.","subregion":"Central Asia","region-wb":"Europe & Central Asia","iso-a3":"KGZ","iso-a2":"KG","woe-id":"23424864","continent":"Asia","hc-middle-lon":74.574,"hc-middle-lat":41.44}}],"hc-recommended-transform":{"default":{"crs":"+proj=mill +lat_0=0 +lon_0=0 +x_0=0 +y_0=0 +R_A +datum=WGS84 +units=m +no_defs","scale":0.0000170830296554,"jsonres":15.5,"jsonmarginX":-999,"jsonmarginY":9851,"xoffset":-19816494.5204,"yoffset":12635908.1982}}}},"arcs":[[[3576,8899],[-31,-9],[-4,13],[-20,-6],[2,11],[23,3],[-6,4],[6,10],[-20,-7],[13,10],[15,0],[4,-13],[23,3],[5,13],[-9,1],[6,14],[0,12],[8,0],[8,-12],[9,6],[-8,19],[-12,-10],[2,39],[6,7],[10,-2],[-9,11],[8,8],[-19,-5],[-38,5],[-8,12],[-17,10],[-17,3],[-9,6],[-11,18],[17,8],[15,-6],[18,0],[9,-4],[25,-20],[25,-6],[3,14],[-12,-8],[-11,11],[11,-3],[2,10],[-19,0],[-8,4],[17,6],[16,-8],[-6,8],[-16,7],[-18,-4],[0,8],[8,8],[17,-8],[8,4],[-15,3],[3,6],[-19,-4],[-5,3],[19,13],[-5,3],[-19,-15],[-4,3],[3,5],[-6,-6],[-20,-4],[-8,-6],[-8,6],[10,14],[6,-12],[7,4],[5,14],[17,-7],[3,5],[10,6],[12,0],[-7,5],[-20,-11],[-16,4],[7,7],[27,6],[3,7],[-14,-7],[-12,7],[-22,-11],[-2,8],[13,9],[-11,4],[-10,-14],[-9,5],[6,-12],[-2,-7],[-19,-7],[-11,7],[-8,-4],[-11,17],[-6,4],[13,9],[-10,5],[7,12],[18,14],[-5,5],[-12,-11],[-4,5],[12,9],[-8,11],[13,0],[9,14],[-6,6],[9,3],[-7,11],[-12,-4],[-11,9],[14,14],[-8,1],[6,9],[-12,1],[-12,11],[11,13],[-11,6],[-14,0],[0,8],[26,-7],[-12,9],[3,5],[-11,3],[8,14],[-12,-7],[-21,-5],[28,14],[-12,3],[16,3],[-13,5],[10,3],[-35,0],[18,3],[11,9],[-19,6],[10,6],[-8,7],[-29,11],[5,6],[-20,16],[12,4],[-6,21],[-16,-3],[-6,14],[-11,-5],[2,7],[-9,1],[-6,7],[-16,-2],[-5,12],[-36,4],[-2,5],[-16,-5],[0,6],[-18,5],[-7,-13],[-8,-4],[-10,9],[-8,1],[-1,-11],[-18,4],[0,-11],[-15,6],[9,10],[-18,2],[-5,-13],[-15,13],[-11,-8],[24,-16],[-55,10],[0,4],[-33,18],[1,11],[-11,1],[18,10],[-21,7],[10,13],[-19,-13],[-16,7],[5,4],[-14,3],[4,11],[8,4],[32,4],[31,-6],[21,2],[25,-4],[9,1],[-38,5],[-5,-1],[-25,5],[20,7],[26,1],[18,-2],[3,4],[15,1],[-4,13],[-12,4],[-12,0],[-3,-6],[-9,-4],[-21,-2],[-9,11],[0,-10],[-16,-5],[-29,10],[21,8],[1,4],[-16,-6],[-17,3],[17,11],[-17,-6],[-18,-1],[2,9],[-11,-2],[-17,6],[-1,7],[-17,8],[7,9],[2,17],[18,3],[10,6],[22,-4],[1,8],[22,4],[1,4],[16,-1],[9,13],[27,7],[31,2],[4,3],[23,-3],[15,17],[15,12],[-7,24],[2,13],[20,4],[5,11],[-9,-9],[-23,-1],[-15,-6],[-16,8],[-17,-4],[-4,7],[-8,1],[0,12],[19,8],[2,4],[-1,2]],[[3148,9777],[17,5],[2,4],[15,0],[-3,5],[14,3],[10,16],[23,4],[10,7],[11,-14],[-6,14],[12,5],[21,-2],[18,-9],[17,8],[-10,13],[14,11],[-18,17],[5,5],[34,9],[12,-4],[22,-2],[4,-13],[27,-6],[19,-12],[-4,7],[-16,9],[-11,1],[-10,15],[-27,9],[23,7],[61,10],[5,-5],[9,8],[19,-2],[0,5],[22,4],[11,-4],[14,-15],[2,-15],[-8,-11],[-1,-14],[9,0],[-2,7],[18,15],[0,13],[24,-7],[18,-3],[31,-13],[10,-8],[0,8],[-16,5],[-15,12],[34,-6],[10,5],[-31,15],[-15,26],[58,-4],[8,-7],[42,-14],[34,-10],[2,-6],[22,-11],[10,-1],[15,5],[-18,9],[-2,5],[15,4],[-10,6],[6,8],[9,2],[17,-4],[10,1],[-16,5],[3,4],[-19,6],[-5,6],[-29,10],[-3,4],[102,-1],[10,-19],[3,10],[-8,7],[9,1],[22,-9],[15,-3],[5,-11],[7,-4],[2,10],[-7,3],[1,10],[-18,2],[-10,4],[-129,8],[-10,-3],[-17,4],[-7,6],[23,-4],[-6,4],[-14,2],[19,7],[26,-8],[48,-5],[-48,8],[-11,6],[10,3],[11,-4],[3,5],[24,-3],[25,-1],[-31,6],[30,0],[-10,4],[17,2],[15,-3],[39,-18],[35,-2],[12,-5],[11,-11],[3,6],[-16,13],[50,0],[-9,3],[-32,0],[-1,2],[52,5],[-20,0],[-8,4],[-21,0],[-4,11],[4,5],[24,-5],[-6,6],[13,5],[21,-5],[2,7],[41,0],[15,5],[10,0],[15,-10],[-5,8],[42,4],[5,-5],[46,3],[38,-6],[18,0],[-7,-4],[9,-3],[4,4],[77,-13],[-12,-7],[-130,-4],[-3,-3],[-36,-3],[-8,3],[-27,3],[25,-5],[-15,-5],[-69,-6],[4,-8],[13,7],[25,1],[9,-7],[3,9],[15,2],[34,1],[3,-4],[10,6],[35,8],[76,-5],[23,2],[37,5],[10,-3],[2,-8],[-10,-11],[-10,-5],[28,8],[13,-2],[6,-7],[4,5],[13,0],[10,-6],[5,3],[37,-12],[-2,-5],[-26,-9],[-3,-7],[-40,-4],[-166,-10],[-15,4],[-34,1],[37,-3],[10,-6],[-51,-9],[-28,-8],[2,-11],[16,-1],[12,11],[25,2],[28,6],[6,-4],[15,8],[35,4],[87,-5],[-2,-15],[-45,-11],[-10,-6],[8,-9],[22,11],[30,6],[21,7],[8,-2],[8,21],[50,5],[7,-8],[3,-14],[-7,-18],[-15,-16],[-7,-3],[-6,-8],[-7,-2],[-15,-15],[-11,-15],[15,8],[-1,4],[29,11],[16,12],[11,3],[7,8],[24,14],[-2,9],[23,-3],[-11,-18],[23,10],[12,-3],[20,-7],[10,2],[-7,14],[-10,0],[-13,7],[12,4],[20,-13],[17,5],[-1,8],[18,2],[1,4],[52,-2],[25,-6],[28,-6],[18,-13],[-22,-9],[-10,-11],[-23,-11],[-33,-2],[10,-7],[-3,-9],[-29,-4],[-2,-5],[-23,-1],[-23,2],[-11,4],[0,-5],[-17,-6],[-14,0],[-25,7],[-26,-9],[2,-6],[23,13],[41,-11],[20,2],[12,6],[12,-9],[18,-5],[-18,-13],[-19,-3],[-4,3],[-16,-4],[-45,7],[-20,-17],[-4,-10],[10,-15],[13,7],[9,-5],[-10,-23],[2,-5],[15,-3],[0,-9],[-17,-2],[-10,-7],[10,-16],[11,10],[-1,-11],[-6,-6],[-15,9],[-14,2],[-3,-5],[-11,0],[2,-11],[-11,-26],[-1,-13],[-9,-6],[3,-7],[8,5],[14,0],[4,11],[-6,3],[10,6],[3,-6],[-3,-14],[12,2],[8,-8],[10,0],[0,-11],[11,-9],[-11,-6],[-18,12],[-22,-3],[13,-8],[-3,-11],[20,-4],[8,-9],[11,-2],[-1,10],[15,-2],[6,-6],[1,-20],[-9,-17],[-12,11],[-10,-1],[-14,7],[-17,1],[-7,-5],[-27,1],[24,-3],[-24,-13],[-14,14],[-2,-8],[-12,-4],[11,-8],[6,5],[13,-8],[-1,-20],[5,-3],[18,6],[11,-6],[15,3],[8,-10],[-17,-9],[-47,0],[3,-3],[35,0],[18,-2],[17,-14],[-7,-4],[5,-9],[-1,-23],[-12,-6],[-8,14],[-14,-3],[-15,9],[-13,12],[-16,4],[18,-9],[9,-12],[8,-3],[13,-12],[-19,-1],[-16,-10],[8,-1],[10,8],[14,-2],[-4,-28],[16,1],[14,-7],[7,7],[6,-7],[18,9],[7,-6],[-14,-6],[-15,-20],[-23,0],[-4,13],[-26,2],[-14,-2],[-7,-9],[-5,-16],[-7,-2],[14,-5],[10,5],[25,-13],[12,-1],[-6,-9],[-2,-21],[-27,2],[-1,-6],[-21,-11],[-21,7],[-25,18],[-1,9],[12,0],[-13,7],[-10,-6],[-1,-14],[-13,5]],[[4309,9280],[5,-9],[-16,-1],[-11,-14],[-12,-2],[-10,7],[-9,0],[-14,10],[5,-10],[19,-5],[-6,-10],[-11,4],[-15,-1],[26,-5],[7,6],[12,1],[27,-9],[-3,-14],[9,2],[-3,-9],[9,-18],[-15,-7],[-22,-1],[21,-4],[17,4],[8,-8],[15,-5],[3,-6],[15,-7],[-3,-4],[20,-8],[-17,-13],[2,-5],[13,9],[4,-10],[3,8],[11,0],[-16,-12],[-1,-8],[4,-13],[7,16],[10,-2],[-2,-16],[6,-24],[-4,-9],[6,-7],[-7,-9],[9,-3],[-13,-10],[-2,8],[-11,-4],[-1,29],[-6,-9],[0,-20],[-19,0],[-16,12],[-8,13],[-2,20],[-11,15],[1,6],[-14,-4],[-12,15],[-8,4],[-25,-2],[-31,31],[-14,2],[-2,-5],[31,-16],[-9,-8],[27,-9],[27,0],[7,-6],[-3,-15],[-24,-15],[-11,-4],[-44,3],[14,-5],[-11,-23],[-24,-7],[-1,-6],[25,9],[2,-11],[42,8],[11,-6],[-10,-7],[-8,3],[-13,-11],[-12,-7],[-6,4],[-13,-3],[17,-6],[10,4],[9,-6],[2,12],[10,7],[14,-4],[28,15],[23,-11],[25,-9],[33,0],[8,2],[-8,-13],[-14,0],[-4,-15],[-8,7],[3,-15],[-10,-2],[-6,-8],[-8,1],[-9,-11],[-9,5],[3,-11],[-11,-5],[-5,-11],[-12,2],[5,-9],[-23,-19],[-12,0],[-14,-11],[-22,1],[0,-8],[-10,4],[-13,-13],[-8,5],[-7,-15],[-10,9],[-9,-1],[7,-10],[-33,-9],[-19,4],[0,10],[-8,2],[-12,26],[-4,-8],[10,-11],[6,-21],[-4,-15],[-6,2],[-27,-23],[1,-18],[-8,-16],[-12,-16],[5,-3],[-15,-16],[-2,6],[-6,-22],[-16,-10],[-10,4],[-1,-13],[-21,-19],[1,17],[-7,-19],[-6,-6],[-8,9],[-3,-6],[-17,20],[16,21],[-21,-8],[1,-21],[-13,-3],[9,-6],[-4,-13],[-7,3],[-26,-9],[-6,9],[-6,-12],[-7,-4],[17,-9],[-17,-12],[-4,-11],[-11,9],[-2,-7],[-9,4],[0,-16],[10,-12],[-5,15],[11,-6],[-2,-23],[6,-10],[-14,1],[3,-10],[-21,6],[3,-11],[23,-4],[1,-28],[-5,-3],[-18,8],[4,-8],[14,-2],[-2,-10],[-10,1],[1,-21],[-11,-13],[-7,-15],[-8,1],[0,-12],[-28,3],[19,-16],[-1,-6],[-16,6],[10,-12],[10,-2],[-2,-15],[6,-7],[-8,-6],[8,-11],[-13,-3],[7,-8],[-9,-5],[7,-9],[-8,-10],[3,-6],[-17,1],[15,-8],[-7,-1],[5,-12],[-5,-6],[2,-16],[-16,-10],[8,-18],[-1,-11]],[[3803,8309],[-23,8],[-3,15],[-3,-15],[5,-14],[-9,-9],[-4,10],[-14,3],[-12,10],[-1,18],[4,18],[-8,-15],[-11,16],[-11,7],[24,13],[4,8],[-18,-13],[10,13],[-5,11],[-9,-24],[-11,-10],[-39,5],[7,-8],[-9,-2],[-5,10],[15,13],[-14,13],[-20,4],[-4,10],[23,11],[-4,5],[-17,-11],[-7,11],[9,8],[-12,3],[1,16],[-11,1],[12,10],[-8,8],[-9,0],[-12,17],[5,31],[-7,2],[-11,18],[3,-14],[-8,11],[-9,28],[-7,9],[3,20],[-6,4],[31,11],[4,12],[-12,-12],[-17,-6],[-6,9],[11,-3],[2,17],[-9,-2],[7,12],[11,0],[6,-9],[1,15],[8,3],[5,-13],[4,13],[-15,6],[-10,29],[0,-12],[6,-11],[-9,-15],[-1,11],[-7,-3],[-10,-32],[-12,-12],[-1,39],[7,11],[9,3],[8,12],[-25,-17],[4,12],[-16,26],[3,4],[-8,17],[2,7],[-15,-3],[2,13],[-8,12],[20,16],[10,13],[9,5],[5,10],[34,27],[-7,-1],[-30,-25],[-4,-10],[-34,-29],[-8,1],[0,27],[12,17],[11,2],[14,11],[-13,-1],[-24,1],[-9,12],[3,7],[13,1],[35,12],[-49,-9],[2,13],[25,19],[14,5],[18,-8],[9,3],[25,-13],[-21,15],[27,9],[-12,6],[1,-7],[-13,-5],[-5,9],[9,7],[-14,-3],[6,-8],[-10,-9],[-18,9],[-13,-2],[-24,-21],[3,11],[-4,12],[15,5],[3,12],[-3,9],[17,-7],[-1,7],[18,-9],[20,1],[17,-11],[8,1],[-17,9],[-14,11],[3,6]],[[4309,9280],[-2,8],[-20,13],[17,-15],[5,-6]],[[3576,8899],[3,0],[-2,1],[4,7],[-14,0],[10,-7],[-1,-1]],[[3803,8309],[-16,-11],[-10,-4],[5,10],[-5,13],[26,-8]],[[3967,8711],[9,-1],[-7,-9],[-6,7],[-14,-4],[-2,8],[4,12],[6,3],[4,-15],[6,-1]],[[3585,9015],[9,-6],[-8,-8],[0,-12],[-8,-2],[-2,15],[9,13]],[[4232,9074],[-2,9],[31,2],[27,13],[7,-11],[3,-18],[-14,-4],[-10,-11],[0,9],[-11,-5],[-41,-7],[4,15],[6,8]],[[3453,9214],[-12,-1],[6,6],[10,0],[12,7],[5,-4],[-15,-18],[-6,10]],[[4356,9241],[37,-11],[-7,-8],[7,-9],[-21,1],[-5,9],[-9,4],[-38,3],[0,6],[21,1],[15,4]],[[4420,9339],[10,-2],[12,-17],[-32,-6],[-18,9],[2,11],[17,7],[9,-2]],[[4441,9373],[12,-1],[-11,-14],[-16,9],[2,12],[8,5],[9,-3],[-4,-8]],[[4507,9402],[-12,-5],[12,-11],[13,4],[-1,-9],[-21,2],[-22,-3],[1,21],[9,6],[5,-5],[7,7],[9,-7]],[[4483,9497],[-2,-9],[5,-41],[-9,18],[-6,20],[3,21],[9,-9]],[[3022,9555],[11,2],[18,-6],[-24,-1],[-17,-5],[-22,6],[10,4],[16,-4],[8,4]],[[4502,9667],[10,13],[4,-11],[-6,0],[-12,-15],[3,-3],[-7,-11],[-18,-17],[0,-25],[-6,-9],[0,11],[-14,14],[0,7],[7,-11],[3,12],[25,19],[11,26]],[[4520,9736],[-14,-16],[-18,-4],[-17,6],[-8,7],[22,10],[23,6],[12,-9]],[[4480,9748],[-25,-9],[2,10],[11,4],[12,-5]],[[4484,9869],[-12,0],[-15,12],[-1,8],[6,1],[9,-5],[13,-16]],[[3579,9881],[-25,1],[-30,8],[-3,10],[15,5],[8,-9],[35,-13],[0,-2]],[[3903,9954],[-21,5],[-6,6],[15,-1],[19,-3],[-7,-7]],[[3866,9965],[11,-6],[10,-1],[7,-6],[-23,4],[-21,10],[16,-1]],[[3883,9979],[14,-4],[8,-6],[18,-3],[-3,-4],[-25,5],[-6,5],[-16,1],[10,6]],[[4328,9204],[-7,19],[16,4],[22,-3],[11,-14],[22,-11],[0,-7],[-10,4],[-13,0],[3,-6],[17,-7],[-6,-10],[-7,1],[-16,13],[-32,17]],[[3700,9930],[15,0],[28,-7],[25,-13],[-18,-12],[9,-9],[-9,-3],[-10,9],[-40,13],[-9,11],[-14,8],[23,1],[0,2]],[[4355,9252],[-47,8],[33,-10],[19,-1],[3,-5],[-41,-6],[-35,12],[13,15],[22,1],[34,-12],[-1,-2]],[[3148,9778],[0,-1]],[[3148,9778],[0,0]],[[3148,9778],[-6,9],[11,-4],[-5,-5]],[[3476,9008],[5,11],[14,-4],[-14,8],[0,16],[-5,8],[-3,10],[16,-14],[15,-1],[18,-7],[15,-19],[20,-9],[5,-13],[-8,-11],[-40,-16],[-16,7],[-2,8],[23,-1],[-14,9],[-23,2],[-8,8],[11,5],[-9,3]],[[8269,5091],[0,0]],[[2780,5136],[0,0]],[[7221,4695],[4,12],[17,-31],[17,-63],[2,-27],[11,-37],[2,-41],[-6,-42],[-9,-17],[-21,-19],[-12,7],[-8,56],[-4,86],[6,51],[-1,14],[7,39],[-5,12]],[[265,2982],[-2,-2],[-2,-5],[-2,3],[6,4]],[[5314,7942],[14,-22],[-9,-2],[-13,12],[8,12]],[[5293,8002],[3,7],[1,-30],[8,-23],[-6,-29],[-11,12],[14,10],[-18,4],[-9,10],[-6,18],[19,9],[5,12]],[[5337,7942],[6,0],[-11,-19],[-5,14],[4,7],[-7,14],[-10,2],[-5,12],[1,14],[-5,12],[8,0],[12,12],[4,-15],[12,31],[10,-5],[-3,-9],[4,-22],[-7,0],[-5,-13],[7,-7],[-8,-8],[-2,-20]],[[5263,7932],[-17,7],[-5,-2]],[[5241,7937],[-1,40],[-15,9],[3,17],[5,6],[-7,17],[0,31],[12,2],[11,15],[9,-12],[-3,19],[17,15],[-24,-8],[0,-12],[-10,-16],[-8,12],[10,26],[22,3],[16,31],[17,12],[-5,-14],[4,-10],[13,-9],[-16,-8],[-6,-21],[3,-25],[17,-7],[-12,-26],[-4,14],[-5,-10],[1,-18],[-10,-5],[5,-5],[-15,-19],[5,-18],[-5,-7],[14,-14],[-8,2],[-8,-12]],[[4816,8470],[7,-4],[-9,-5],[3,-27],[-7,-22],[1,28],[-6,13],[-11,3],[7,13],[15,1]],[[9020,4968],[-3,-14],[-1,14],[6,15],[-2,-15]],[[9044,5083],[1,10],[3,5],[-1,-12],[-3,-3]],[[503,4427],[0,-2],[-1,0],[0,2],[1,0]],[[1331,8103],[-3,-9],[8,-3]],[[1336,8091],[-2,-12],[6,-5],[3,-15],[5,1],[41,-36],[3,-14]],[[1392,8010],[-5,-10],[6,-35],[-11,-26],[-8,-11],[-7,4],[-4,28],[5,10],[-1,27],[-8,19],[-15,-7],[-6,-28],[-8,19],[5,3],[5,30],[-16,27],[-2,12],[-19,29],[-9,0],[5,17],[-7,12],[-2,15],[-13,30],[-12,4],[-21,73],[-1,-25],[9,-42],[-3,-10],[-8,12],[-12,0],[2,12],[-8,25],[-3,-10],[-22,23],[1,-12],[11,-3],[13,-25],[2,-15],[-15,3],[-3,-8],[-27,28],[-17,34],[-26,16],[-19,16],[12,12],[-5,13],[-19,-13],[-8,0],[-23,11],[5,10],[-13,-3],[-30,11],[-31,-8],[-9,12],[-19,9],[5,28],[-8,-12],[-3,-14],[-12,10],[-14,1],[-14,-16],[0,16],[22,8],[-7,12],[-11,-4],[-9,20],[-33,-7],[-5,-6],[11,35],[-10,-19],[-2,8],[-7,-35],[5,9],[14,-37],[-10,-8],[-6,2],[-3,-15],[-12,-2],[-10,5],[-12,-8],[-3,-16],[-5,3],[-13,-18],[-16,-17],[-12,2],[-13,-8],[-3,13],[14,12],[13,21],[-13,-10],[-11,10],[12,29],[5,26],[-4,13],[9,5],[17,17],[12,-8],[6,4],[19,-7],[-25,19],[1,7],[-13,1],[-2,8],[-17,-22],[-11,-5],[-22,-37],[3,-6],[-10,-12],[1,-8],[-13,-29],[-18,-5],[-1,-13],[-12,-5],[-1,-25],[13,2],[12,-17],[-22,-25],[2,-6],[-9,-10],[-7,-17],[-13,0],[-9,-22],[-6,5],[-4,-17],[-8,2],[-14,-19],[5,0],[-5,-23],[-7,3],[-11,-19],[5,-15],[-8,-2],[-13,10],[-21,-24],[8,-3],[-13,-22],[-26,-13],[-6,4],[-23,-28],[-7,4],[-10,-13],[-6,2],[-7,-23],[-4,6],[-12,-4],[-7,16],[-6,-26],[-7,12],[0,-12],[-8,-9],[0,23],[19,17],[12,23],[10,14],[22,3],[8,-15],[0,12],[15,-4],[-10,12],[6,19],[18,23],[22,18],[8,-5],[-1,19],[11,20],[17,19],[2,39],[4,8],[-1,17],[12,18],[-1,12],[-29,-20],[-12,15],[4,18],[-13,-22],[3,-18],[-7,-7],[-15,35],[-9,-10],[-9,9],[-3,13],[-13,-15],[4,-3],[-6,-17],[-11,15],[-2,-10],[-23,0],[13,8],[-3,19],[-6,18],[9,16],[-17,44],[-3,20],[-2,-28],[-16,-10],[-15,-5],[-13,4],[-1,11],[-15,21],[-9,4],[-12,14],[21,19],[20,-3],[8,-13],[6,13],[-14,7],[-17,0],[-2,4],[-14,0],[6,7],[-13,14],[0,-11],[-15,24],[4,8],[-11,6],[11,7],[-8,9],[13,3],[-3,19],[16,28],[10,8],[-3,16],[8,20],[12,9],[11,-1],[12,-14],[7,1],[14,16],[9,20],[2,-9],[27,6],[12,17],[-5,36],[-13,12],[18,15],[-3,12],[-9,9],[-6,-10],[-18,-5],[-14,-15],[-15,-7],[-12,12],[-23,0],[-18,-9],[-32,10],[-9,9],[3,12],[-16,20],[12,-2],[11,11],[-35,9],[-19,13],[-1,5],[24,17],[5,-1],[9,13],[38,26],[24,11],[22,1],[-5,-28],[7,-9],[25,2],[3,-4],[13,1],[8,-6],[9,19],[16,-1],[-14,13],[-12,-6],[2,10],[-21,31],[8,4],[9,-13],[-2,-9],[13,-14],[11,6],[12,-12],[15,1],[1,11],[-19,10],[-16,-10],[-11,11],[3,19],[-3,7],[-16,-6],[-34,9],[-4,17],[-10,20],[-35,32],[-14,5],[-18,16],[10,15],[0,22],[15,-1],[37,6],[20,12],[14,21],[-1,19],[4,14],[13,17],[5,-2],[13,20],[4,-7],[25,7],[19,19],[4,-2]],[[559,9063],[-2,4],[12,11],[19,-1],[26,4],[23,17],[11,16],[33,-8],[1,-8],[-13,-7],[3,-10],[12,2],[11,19],[14,-9],[-1,-12],[14,-3],[7,7],[16,2],[30,-8],[-11,-18],[25,0],[-7,-8],[22,0],[23,4],[-2,-6],[27,7],[21,-7],[9,-8],[6,3],[10,-8],[19,-6],[35,2],[16,-12],[19,-2],[15,7],[21,3],[20,-8],[8,-11],[14,-3],[11,-12],[11,0]],[[1087,8996],[0,-669],[13,-8],[3,6],[12,-8],[10,12],[15,0],[-3,-20],[14,-13],[2,-10],[28,-36],[5,-25],[16,19],[7,0],[7,31],[24,14],[13,-18],[-2,-9],[19,-27],[5,-15],[10,-6],[13,-25],[33,-86]],[[559,9063],[1,-1],[-3,-17],[8,12],[-4,5],[-1,0],[1,1],[-2,0]],[[682,5447],[14,-19],[8,-28],[-19,-24],[-5,-17],[-6,10],[-5,49],[6,22],[-1,16],[8,-9]],[[621,5526],[-9,5],[-5,19],[9,9],[9,-28],[26,-12],[6,-16],[14,-9],[-9,-14],[-10,23],[-7,-14],[-5,28],[-19,9]],[[111,7732],[6,-2],[-23,-28],[-10,10],[-27,-6],[-3,15],[26,-6],[2,11],[14,-11],[14,7],[1,10]],[[209,7750],[-9,-13],[-15,-5],[-16,7],[-23,-6],[18,17],[1,11],[13,-22],[11,-2],[20,13]],[[337,7843],[5,-14],[-13,-9],[-5,-14],[-15,-15],[18,43],[10,9]],[[481,7909],[-15,19],[-7,-10],[-14,0],[-7,-12],[-13,-2],[-3,12],[11,21],[9,0],[9,11],[9,1],[6,-19],[7,-2],[8,-19]],[[546,7960],[-9,-5],[4,12],[14,10],[2,-17],[15,-4],[7,-14],[-17,11],[-5,-4],[-11,11]],[[1347,7967],[-3,-11],[-3,16],[6,12],[-1,21],[13,9],[6,-17],[0,-23],[-6,-16],[-6,7],[6,-26],[-12,7],[0,21]],[[1319,8038],[-11,3],[3,9],[17,-9],[-1,12],[12,-22],[-10,-21],[-12,16],[2,12]],[[763,8200],[8,7],[-4,-17],[11,-1],[0,-19],[-24,-10],[-12,5],[9,15],[8,0],[4,20]],[[910,8322],[12,5],[-15,-28],[-12,-10],[15,25],[0,8]],[[391,8332],[11,-7],[-1,-16],[5,-10],[-17,-8],[-13,3],[-16,12],[-7,11],[16,2],[2,6],[20,7]],[[390,7883],[14,12],[5,-9],[-21,-14],[-11,-18],[14,9],[-5,-12],[-33,-25],[-11,-2],[18,12],[5,36],[11,2],[0,-13],[14,22]],[[1276,8101],[-11,-12],[3,27],[-4,16],[-5,37],[17,1],[8,-23],[-2,-9],[-7,27],[1,-16],[7,-16],[0,-22],[-7,-10]],[[244,8565],[12,-5],[8,8],[10,2],[5,-16],[15,-9],[24,-3],[-3,-11],[-13,2],[-13,-16],[-2,11],[-11,11],[-25,11],[-9,-8],[-8,5],[-4,9],[4,20],[10,-11]],[[1292,8012],[-6,-2],[7,21],[-1,12],[12,-2],[3,-20],[9,-4],[18,-52],[4,-35],[-6,-7],[-9,30],[-12,-11],[8,-3],[-5,-16],[-11,30],[-11,9],[0,15],[10,11],[-11,12],[1,12]],[[2707,7053],[-5,8]