{"type":"Topology","objects":{"default":{"type":"GeometryCollection","geometries":[{"type":"MultiPolygon","arcs":[[[0]],[[1]]],"id":"FO","properties":{"hc-group":"admin0","hc-key":"fo","hc-a2":"FO","name":"Faroe Islands","labelrank":"6","country-abbrev":"Faeroe Is.","subregion":"Northern Europe","region-wb":"Europe & Central Asia","iso-a3":"FRO","iso-a2":"FO","woe-id":"23424816","continent":"Europe","hc-middle-lon":-6.984,"hc-middle-lat":62.073}},{"type":"Polygon","arcs":[[2]],"id":"UM","properties":{"hc-group":"admin0","hc-key":"um","hc-a2":"UM","name":"United States Minor Outlying Islands","labelrank":"5","country-abbrev":"U.S. MOI","subregion":"Seven seas (open ocean)","region-wb":"East Asia & Pacific","iso-a3":"UMI","iso-a2":"UM","woe-id":"28289407","continent":"North America","hc-middle-lon":-161.881,"hc-middle-lat":5.864}},{"type":"MultiPolygon","arcs":[[[3,4,5],[6]],[[7]],[[8]],[[9]],[[10]],[[11]],[[12]],[[13]],[[14]],[[15]],[[16]],[[17]],[[18]],[[19]],[[20]],[[21]],[[22]],[[23]],[[24]],[[25]],[[26]],[[27]],[[28]],[[29]],[[30]],[[31]],[[32]],[[33]],[[34]],[[35]],[[36]],[[37]],[[38]],[[39]],[[40]],[[41]],[[42]],[[43]],[[44]],[[45]],[[46]],[[47]],[[48]],[[49]],[[50]],[[51]],[[52]],[[53]],[[54]],[[55]],[[56,57]],[[58,59,60,61,62,63,64,65,66,67,68,69,70,71,72,73,74,75,76,77,78,79,80,81]],[[82]],[[83]],[[84]],[[85,86]],[[87]],[[88,88,88]],[[89]],[[90,91]],[[92]]],"id":"US","properties":{"hc-group":"admin0","hc-key":"us","hc-a2":"US","name":"United States of America","labelrank":"2","country-abbrev":"U.S.A.","subregion":"Northern America","region-wb":"North America","iso-a3":"USA","iso-a2":"US","woe-id":"23424977","continent":"North America","hc-middle-lon":-100.241,"hc-middle-lat":38.911}},{"type":"MultiPolygon","arcs":[[[93]],[[94]],[[95]],[[96]],[[97]],[[98]],[[99]],[[100]],[[101]]],"id":"JP","properties":{"hc-group":"admin0","hc-key":"jp","hc-a2":"JP","name":"Japan","labelrank":"2","country-abbrev":"Japan","subregion":"Eastern Asia","region-wb":"East Asia & Pacific","iso-a3":"JPN","iso-a2":"JP","woe-id":"23424856","continent":"Asia","hc-middle-lon":137.51,"hc-middle-lat":36.333}},{"type":"Polygon","arcs":[[102]],"id":"SC","properties":{"hc-group":"admin0","hc-key":"sc","hc-a2":"SC","name":"Seychelles","labelrank":"6","country-abbrev":"Syc.","subregion":"Eastern Africa","region-wb":"Sub-Saharan Africa","iso-a3":"SYC","iso-a2":"SC","woe-id":"23424941","continent":"Seven seas (open ocean)","hc-middle-lon":55.331,"hc-middle-lat":-4.581}},{"type":"MultiPolygon","arcs":[[[103]],[[104]],[[105]],[[106]]],"id":"NZ","properties":{"hc-group":"admin0","hc-key":"nz","hc-a2":"NZ","name":"New Zealand","labelrank":"2","country-abbrev":"N.Z.","subregion":"Australia and New Zealand","region-wb":"East Asia & Pacific","iso-a3":"NZL","iso-a2":"NZ","woe-id":"23424916","continent":"Oceania","hc-middle-lon":167.729,"hc-middle-lat":-44.77}},{"type":"MultiPolygon","arcs":[[[107]],[[108]],[[109]],[[110,111,112,113,114,115,116,117,118,119,120]]],"id":"IN","properties":{"hc-group":"admin0","hc-key":"in","hc-a2":"IN","name":"India","labelrank":"2","country-abbrev":"India","subregion":"Southern Asia","region-wb":"South Asia","iso-a3":"IND","iso-a2":"IN","woe-id":"23424848","continent":"Asia","hc-middle-lon":77.988,"hc-middle-lat":23.576}},{"type":"MultiPolygon","arcs":[[[121]],[[122,123]]],"id":"KR","properties":{"hc-group":"admin0","hc-key":"kr","hc-a2":"KR","name":"South Korea","labelrank":"2","country-abbrev":"S.K.","subregion":"Eastern Asia","region-wb":"East Asia & Pacific","iso-a3":"KOR","iso-a2":"KR","woe-id":"23424868","continent":"Asia","hc-middle-lon":127.348,"hc-middle-lat":36.397}},{"type":"MultiPolygon","arcs":[[[124]],[[125]],[[126]],[[127]],[[128]],[[129]],[[130]],[[131,132]],[[133,134,135,136,137,138,139,140,141,142,143,144,145,146],[147]],[[148,149,150]]],"id":"FR","properties":{"hc-group":"admin0","hc-key":"fr","hc-a2":"FR","name":"France","labelrank":"2","country-abbrev":"Fr.","subregion":"Western Europe","region-wb":"Europe & Central Asia","iso-a3":"FRA","iso-a2":"FR","woe-id":"-90","continent":"Europe","hc-middle-lon":3.731,"hc-middle-lat":46.79}},{"type":"Polygon","arcs":[[151]],"id":"FM","properties":{"hc-group":"admin0","hc-key":"fm","hc-a2":"FM","name":"Federated States of Micronesia","labelrank":"6","country-abbrev":"F.S.M.","subregion":"Micronesia","region-wb":"East Asia & Pacific","iso-a3":"FSM","iso-a2":"FM","woe-id":"23424815","continent":"Oceania","hc-middle-lon":158.084,"hc-middle-lat":6.864}},{"type":"MultiPolygon","arcs":[[[152]],[[153]]],"id":"CU","properties":{"hc-group":"admin0","hc-key":"cu","hc-a2":"CU","name":"Cuba","labelrank":"3","country-abbrev":"Cuba","subregion":"Caribbean","region-wb":"Latin America & Caribbean","iso-a3":"CUB","iso-a2":"CU","woe-id":"23424793","continent":"North America","hc-middle-lon":-77.539,"hc-middle-lat":21.028}},{"type":"MultiPolygon","arcs":[[[154]],[[155]],[[156]],[[-111,157,-120,158,159,160,161,162,163,164,165,166,167,168,169,170,171,172,173,174,175,-113,176]]],"id":"CN","properties":{"hc-group":"admin0","hc-key":"cn","hc-a2":"CN","name":"China","labelrank":"2","country-abbrev":"China","subregion":"Eastern Asia","region-wb":"East Asia & Pacific","iso-a3":"CHN","iso-a2":"CN","woe-id":"23424781","continent":"Asia","hc-middle-lon":99.17,"hc-middle-lat":35.327}},{"type":"MultiPolygon","arcs":[[[177]],[[178,179]]],"id":"PT","properties":{"hc-group":"admin0","hc-key":"pt","hc-a2":"PT","name":"Portugal","labelrank":"2","country-abbrev":"Port.","subregion":"Southern Europe","region-wb":"Europe & Central Asia","iso-a3":"PRT","iso-a2":"PT","woe-id":"23424925","continent":"Europe","hc-middle-lon":-7.993,"hc-middle-lat":39.495}},{"type":"Polygon","arcs":[[180]],"id":"SW","properties":{"hc-group":"admin0","hc-key":"sw","hc-a2":"SW","name":"Serranilla Bank","labelrank":"5","country-abbrev":"S.B.","subregion":"Caribbean","region-wb":"Latin America & Caribbean","iso-a3":"-99","iso-a2":"SW","woe-id":"-99","continent":"North America","hc-middle-lon":-78.545,"hc-middle-lat":15.846}},{"type":"Polygon","arcs":[[181]],"id":"SH","properties":{"hc-group":"admin0","hc-key":"sh","hc-a2":"SH","name":"Scarborough Reef","labelrank":"6","country-abbrev":"S.R.","subregion":"South-Eastern Asia","region-wb":"East Asia & Pacific","iso-a3":"-99","iso-a2":"SH","woe-id":"-99","continent":"Asia","hc-middle-lon":117.611,"hc-middle-lat":15.145}},{"type":"MultiPolygon","arcs":[[[182]],[[183]],[[184]],[[185,186,187,188,189,190,191,192,193,194,195,196,-150,197,198]]],"id":"BR","properties":{"hc-group":"admin0","hc-key":"br","hc-a2":"BR","name":"Brazil","labelrank":"2","country-abbrev":"Brazil","subregion":"South America","region-wb":"Latin America & Caribbean","iso-a3":"BRA","iso-a2":"BR","woe-id":"23424768","continent":"South America","hc-middle-lon":-52.772,"hc-middle-lat":-8.427}},{"type":"MultiPolygon","arcs":[[[199]],[[200]],[[201,202,203]]],"id":"EC","properties":{"hc-group":"admin0","hc-key":"ec","hc-a2":"EC","name":"Ecuador","labelrank":"3","country-abbrev":"Ecu.","subregion":"South America","region-wb":"Latin America & Caribbean","iso-a3":"ECU","iso-a2":"EC","woe-id":"23424801","continent":"South America","hc-middle-lon":-79.258,"hc-middle-lat":0.269}},{"type":"MultiPolygon","arcs":[[[204]],[[205]],[[206]],[[207]],[[208]],[[209]],[[210]],[[211]]],"id":"AU","properties":{"hc-group":"admin0","hc-key":"au","hc-a2":"AU","name":"Australia","labelrank":"2","country-abbrev":"Auz.","subregion":"Australia and New Zealand","region-wb":"East Asia & Pacific","iso-a3":"AUS","iso-a2":"AU","woe-id":"-90","continent":"Oceania","hc-middle-lon":135.162,"hc-middle-lat":-25.312}},{"type":"Polygon","arcs":[[212]],"id":"KI","properties":{"hc-group":"admin0","hc-key":"ki","hc-a2":"KI","name":"Kiribati","labelrank":"6","country-abbrev":"Kir.","subregion":"Micronesia","region-wb":"East Asia & Pacific","iso-a3":"KIR","iso-a2":"KI","woe-id":"23424867","continent":"Oceania","hc-middle-lon":-157.186,"hc-middle-lat":1.811}},{"type":"MultiPolygon","arcs":[[[213]],[[214]],[[215]],[[216]],[[217]],[[218]],[[219]],[[220]],[[221]],[[222]],[[223]],[[224]],[[225]],[[226]]],"id":"PH","properties":{"hc-group":"admin0","hc-key":"ph","hc-a2":"PH","name":"Philippines","labelrank":"2","country-abbrev":"Phil.","subregion":"South-Eastern Asia","region-wb":"East Asia & Pacific","iso-a3":"PHL","iso-a2":"PH","woe-id":"23424934","continent":"Asia","hc-middle-lon":120.974,"hc-middle-lat":16.838}},{"type":"MultiPolygon","arcs":[[[227]],[[228]],[[229]],[[230]],[[231]],[[232]],[[233]],[[234]],[[235,-60,236,-82,237,238,239,240,-62],[241]]],"id":"MX","properties":{"hc-group":"admin0","hc-key":"mx","hc-a2":"MX","name":"Mexico","labelrank":"2","country-abbrev":"Mex.","subregion":"Central America","region-wb":"Latin America & Caribbean","iso-a3":"MEX","iso-a2":"MX","woe-id":"23424900","continent":"North America","hc-middle-lon":-102.113,"hc-middle-lat":23.997}},{"type":"MultiPolygon","arcs":[[[242]],[[243]],[[244]],[[245]],[[-148]],[[246,-247,247]],[[248,249]],[[250,-180,251,-142,252,-140,253,254]]],"id":"ES","properties":{"hc-group":"admin0","hc-key":"es","hc-a2":"ES","name":"Spain","labelrank":"2","country-abbrev":"Sp.","subregion":"Southern Europe","region-wb":"Europe & Central Asia","iso-a3":"ESP","iso-a2":"ES","woe-id":"23424950","continent":"Europe","hc-middle-lon":-1.505,"hc-middle-lat":39.591}},{"type":"Polygon","arcs":[[255]],"id":"BU","properties":{"hc-group":"admin0","hc-key":"bu","hc-a2":"BU","name":"Bajo Nuevo Bank (Petrel Is.)","labelrank":"8","country-abbrev":null,"subregion":"Caribbean","region-wb":"Latin America & Caribbean","iso-a3":"-99","iso-a2":"BU","woe-id":"-99","continent":"North America","hc-middle-lon":-79.902,"hc-middle-lat":15.779}},{"type":"Polygon","arcs":[[256]],"id":"MV","properties":{"hc-group":"admin0","hc-key":"mv","hc-a2":"MV","name":"Maldives","labelrank":"5","country-abbrev":"Mald.","subregion":"Southern Asia","region-wb":"South Asia","iso-a3":"MDV","iso-a2":"MV","woe-id":"23424899","continent":"Seven seas (open ocean)","hc-middle-lon":73.328,"hc-middle-lat":5.45}},{"type":"Polygon","arcs":[[257]],"id":"SP","properties":{"hc-group":"admin0","hc-key":"sp","hc-a2":"SP","name":"Spratly Islands","labelrank":"6","country-abbrev":"Spratly Is.","subregion":"South-Eastern Asia","region-wb":"East Asia & Pacific","iso-a3":"SPI","iso-a2":"SP","woe-id":"23424921","continent":"Asia","hc-middle-lon":115.711,"hc-middle-lat":10.814}},{"type":"MultiPolygon","arcs":[[[258]],[[259]],[[260]],[[261]],[[262]],[[263]],[[264]],[[265]],[[266]],[[267]],[[268]],[[269]],[[270]],[[271]],[[272]],[[273]],[[274]],[[275]],[[276,277,278,279,280,281,282,283,284,285],[286,-287,287]],[[288,-255]],[[289,290]],[[291,292]],[[293]],[[294]],[[295,296]]],"id":"GB","properties":{"hc-group":"admin0","hc-key":"gb","hc-a2":"GB","name":"United Kingdom","labelrank":"2","country-abbrev":"U.K.","subregion":"Northern Europe","region-wb":"Europe & Central Asia","iso-a3":"GBR","iso-a2":"GB","woe-id":"-90","continent":"Europe","hc-middle-lon":-1.811,"hc-middle-lat":52.506}},{"type":"MultiPolygon","arcs":[[[297]],[[298]],[[299]],[[300]],[[301]],[[302]],[[303]],[[304]],[[305]],[[306]],[[307]],[[308]],[[309]],[[310,311,312,313,314,315,316,317,-318,318]]],"id":"GR","properties":{"hc-group":"admin0","hc-key":"gr","hc-a2":"GR","name":"Greece","labelrank":"3","country-abbrev":"Greece","subregion":"Southern Europe","region-wb":"Europe & Central Asia","iso-a3":"GRC","iso-a2":"GR","woe-id":"23424833","continent":"Europe","hc-middle-lon":22.519,"hc-middle-lat":38.745}},{"type":"Polygon","arcs":[[319]],"id":"AS","properties":{"hc-group":"admin0","hc-key":"as","hc-a2":"AS","name":"American Samoa","labelrank":"4","country-abbrev":"Am. Samoa","subregion":"Polynesia","region-wb":"East Asia & Pacific","iso-a3":"ASM","iso-a2":"AS","woe-id":"23424746","continent":"Oceania","hc-middle-lon":-170.52,"hc-middle-lat":-14.308}},{"type":"MultiPolygon","arcs":[[[320]],[[321]],[[322]],[[323]],[[324]],[[325]],[[326]],[[327]],[[328,329]]],"id":"DK","properties":{"hc-group":"admin0","hc-key":"dk","hc-a2":"DK","name":"Denmark","labelrank":"4","country-abbrev":"Den.","subregion":"Northern Europe","region-wb":"Europe & Central Asia","iso-a3":"DNK","iso-a2":"DK","woe-id":"23424796","continent":"Europe","hc-middle-lon":9.434,"hc-middle-lat":56.373}},{"type":"MultiPolygon","arcs":[[[330,331],[332],[333]],[[334]],[[335]],[[336]],[[337]],[[338]],[[339]],[[340]],[[341]],[[342]],[[343]],[[344]],[[345]],[[346]],[[347]],[[348]],[[349]],[[350]],[[351]],[[352]],[[353]],[[354]],[[355]],[[356]],[[357]],[[358]],[[359]],[[360]],[[361]],[[362]],[[363]],[[364]],[[365]],[[366]],[[367]],[[368]],[[369]],[[370]],[[371]],[[372]],[[373]],[[374]],[[375]],[[376]],[[377]],[[378]],[[379]],[[380]]],"id":"GL","properties":{"hc-group":"admin0","hc-key":"gl","hc-a2":"GL","name":"Greenland","labelrank":"3","country-abbrev":"Grlnd.","subregion":"Northern America","region-wb":"Europe & Central Asia","iso-a3":"GRL","iso-a2":"GL","woe-id":"23424828","continent":"North America","hc-middle-lon":-39.021,"hc-middle-lat":75.123}},{"type":"Polygon","arcs":[[381]],"id":"GU","properties":{"hc-group":"admin0","hc-key":"gu","hc-a2":"GU","name":"Guam","labelrank":"6","country-abbrev":"Guam","subregion":"Micronesia","region-wb":"East Asia & Pacific","iso-a3":"GUM","iso-a2":"GU","woe-id":"23424832","continent":"Oceania","hc-middle-lon":144.568,"hc-middle-lat":13.463}},{"type":"Polygon","arcs":[[382]],"id":"MP","properties":{"hc-group":"admin0","hc-key":"mp","hc-a2":"MP","name":"Northern Mariana Islands","labelrank":"6","country-abbrev":"N.M.I.","subregion":"Micronesia","region-wb":"East Asia & Pacific","iso-a3":"MNP","iso-a2":"MP","woe-id":"23424788","continent":"Oceania","hc-middle-lon":145.574,"hc-middle-lat":15.131}},{"type":"Polygon","arcs":[[383]],"id":"PR","properties":{"hc-group":"admin0","hc-key":"pr","hc-a2":"PR","name":"Puerto Rico","labelrank":"5","country-abbrev":"P.R.","subregion":"Caribbean","region-wb":"Latin America & Caribbean","iso-a3":"PRI","iso-a2":"PR","woe-id":"23424935","continent":"North America","hc-middle-lon":-66.197,"hc-middle-lat":18.188}},{"type":"Polygon","arcs":[[384]],"id":"VI","properties":{"hc-group":"admin0","hc-key":"vi","hc-a2":"VI","name":"United States Virgin Islands","labelrank":"6","country-abbrev":"V.I. (U.S.)","subregion":"Caribbean","region-wb":"Latin America & Caribbean","iso-a3":"VIR","iso-a2":"VI","woe-id":"23424985","continent":"North America","hc-middle-lon":-64.659,"hc-middle-lat":17.752}},{"type":"MultiPolygon","arcs":[[[385,386,387,-68,388,-66,389,-64,390,-58,391,392,-92,-5,393,394,395,-79,396,-77,397,-76,398,399],[400],[401],[402]],[[403,404],[405,406]],[[407]],[[408]],[[409]],[[410]],[[411]],[[412]],[[413]],[[414]],[[415]],[[416]],[[417]],[[418]],[[419]],[[420]],[[421]],[[422]],[[423]],[[424]],[[425]],[[426]],[[427]],[[428]],[[429]],[[430]],[[431]],[[432]],[[433]],[[434]],[[435]],[[436]],[[437]],[[438]],[[439]],[[440]],[[441]],[[442]],[[443]],[[444]],[[445]],[[446]],[[447]],[[448]],[[449]],[[450]],[[451]],[[452]],[[453]],[[454]],[[455]],[[456]],[[457]],[[458]],[[459]],[[460]],[[461]],[[462]],[[463]],[[464]],[[465]],[[466]],[[467]],[[468]],[[469]],[[470]],[[471]],[[472]],[[473]],[[474]],[[475]],[[476]],[[477]],[[478]],[[479]],[[480]],[[481]],[[482]],[[483]],[[484]],[[485]],[[486]],[[487]],[[488]],[[489]],[[490]],[[491]],[[492]],[[493]],[[494]],[[495]],[[496]],[[497]],[[498]],[[499]],[[500]],[[501]],[[502]],[[503]],[[504]],[[505]],[[506]],[[507]],[[508]],[[509]],[[510]],[[511]],[[512]],[[513]],[[514]],[[515]],[[516]],[[517]],[[518]],[[519]],[[520]],[[521]],[[522]],[[523]],[[524]],[[525]],[[526]],[[527]],[[528]],[[529]],[[530]],[[531]],[[532]],[[533]],[[534]],[[535]],[[536]],[[537]],[[538]],[[539]],[[540]],[[541]],[[542]],[[543]],[[544]],[[545]],[[546]],[[547]],[[548]],[[549]],[[550]],[[551]],[[552]],[[553]],[[554]],[[555]],[[556]],[[557]],[[558]],[[559]],[[560]],[[561]],[[562]],[[563]],[[564]],[[565]],[[566]],[[-74,567]],[[568]],[[569]],[[570]],[[571]],[[572]],[[573]],[[574]],[[575]],[[576]],[[577]],[[578]],[[579]],[[580]],[[581]],[[582]],[[583]],[[584]],[[585]],[[586]],[[587]],[[588]]],"id":"CA","properties":{"hc-group":"admin0","hc-key":"ca","hc-a2":"CA","name":"Canada","labelrank":"2","country-abbrev":"Can.","subregion":"Northern America","region-wb":"North America","iso-a3":"CAN","iso-a2":"CA","woe-id":"23424775","continent":"North America","hc-middle-lon":-116.116,"hc-middle-lat":60.714}},{"type":"Polygon","arcs":[[589]],"id":"ST","properties":{"hc-group":"admin0","hc-key":"st","hc-a2":"ST","name":"Sao Tome and Principe","labelrank":"6","country-abbrev":"S.T.P.","subregion":"Middle Africa","region-wb":"Sub-Saharan Africa","iso-a3":"STP","iso-a2":"ST","woe-id":"23424966","continent":"Africa","hc-middle-lon":6.606,"hc-middle-lat":0.235}},{"type":"MultiPolygon","arcs":[[[590]],[[591,592,593,594,595,596,597,598,599,600,601,602,603,604,605,606,607,608,609]]],"id":"TZ","properties":{"hc-group":"admin0","hc-key":"tz","hc-a2":"TZ","name":"United Republic of Tanzania","labelrank":"3","country-abbrev":"Tanz.","subregion":"Eastern Africa","region-wb":"Sub-Saharan Africa","iso-a3":"TZA","iso-a2":"TZ","woe-id":"23424973","continent":"Africa","hc-middle-lon":36.609,"hc-middle-lat":-7.543}},{"type":"MultiPolygon","arcs":[[[610,611]],[[612,613]],[[614,615,616,617,618,-188]]],"id":"AR","properties":{"hc-group":"admin0","hc-key":"ar","hc-a2":"AR","name":"Argentina","labelrank":"2","country-abbrev":"Arg.","subregion":"South America","region-wb":"Latin America & Caribbean","iso-a3":"ARG","iso-a2":"AR","woe-id":"23424747","continent":"South America","hc-middle-lon":-64.544,"hc-middle-lat":-31.663}},{"type":"MultiPolygon","arcs":[[[619]],[[620]]],"id":"CV","properties":{"hc-group":"admin0","hc-key":"cv","hc-a2":"CV","name":"Cape Verde","labelrank":"4","country-abbrev":"C.Vd.","subregion":"Western Africa","region-wb":"Sub-Saharan Africa","iso-a3":"CPV","iso-a2":"CV","woe-id":"23424794","continent":"Africa","hc-middle-lon":-25.106,"hc-middle-lat":16.926}},{"type":"Polygon","arcs":[[621]],"id":"DM","properties":{"hc-group":"admin0","hc-key":"dm","hc-a2":"DM","name":"Dominica","labelrank":"6","country-abbrev":"D'inca","subregion":"Caribbean","region-wb":"Latin America & Caribbean","iso-a3":"DMA","iso-a2":"DM","woe-id":"23424798","continent":"North America","hc-middle-lon":-61.285,"hc-middle-lat":15.391}},{"type":"MultiPolygon","arcs":[[[622]],[[623,-133]],[[624,625]],[[626,627,628],[629]]],"id":"NL","properties":{"hc-group":"admin0","hc-key":"nl","hc-a2":"NL","name":"Netherlands","labelrank":"5","country-abbrev":"Neth.","subregion":"Western Europe","region-wb":"Europe & Central Asia","iso-a3":"NLD","iso-a2":"NL","woe-id":"-90","continent":"Europe","hc-middle-lon":6.482,"hc-middle-lat":53.503}},{"type":"MultiPolygon","arcs":[[[630]],[[631,632,633]]],"id":"YE","properties":{"hc-group":"admin0","hc-key":"ye","hc-a2":"YE","name":"Yemen","labelrank":"3","country-abbrev":"Yem.","subregion":"Western Asia","region-wb":"Middle East & North Africa","iso-a3":"YEM","iso-a2":"YE","woe-id":"23425002","continent":"Asia","hc-middle-lon":46.668,"hc-middle-lat":14.267}},{"type":"Polygon","arcs":[[634]],"id":"JM","properties":{"hc-group":"admin0","hc-key":"jm","hc-a2":"JM","name":"Jamaica","labelrank":"4","country-abbrev":"Jam.","subregion":"Caribbean","region-wb":"Latin America & Caribbean","iso-a3":"JAM","iso-a2":"JM","woe-id":"23424858","continent":"North America","hc-middle-lon":-77.188,"hc-middle-lat":18.077}},{"type":"Polygon","arcs":[[635]],"id":"WS","properties":{"hc-group":"admin0","hc-key":"ws","hc-a2":"WS","name":"Samoa","labelrank":"4","country-abbrev":"Samoa","subregion":"Polynesia","region-wb":"East Asia & Pacific","iso-a3":"WSM","iso-a2":"WS","woe-id":"23424992","continent":"Oceania","hc-middle-lon":-171.938,"hc-middle-lat":-13.797}},{"type":"MultiPolygon","arcs":[[[636]],[[637,638]],[[-632,639,640,641]]],"id":"OM","properties":{"hc-group":"admin0","hc-key":"om","hc-a2":"OM","name":"Oman","labelrank":"4","country-abbrev":"Oman","subregion":"Western Asia","region-wb":"Middle East & North Africa","iso-a3":"OMN","iso-a2":"OM","woe-id":"23424898","continent":"Asia","hc-middle-lon":58.798,"hc-middle-lat":22.017}},{"type":"Polygon","arcs":[[642]],"id":"VC","properties":{"hc-group":"admin0","hc-key":"vc","hc-a2":"VC","name":"Saint Vincent and the Grenadines","labelrank":"6","country-abbrev":"St.V.G.","subregion":"Caribbean","region-wb":"Latin America & Caribbean","iso-a3":"VCT","iso-a2":"VC","woe-id":"23424981","continent":"North America","hc-middle-lon":-61.142,"hc-middle-lat":13.204}},{"type":"MultiPolygon","arcs":[[[643]],[[644,-316,645]],[[646,647,648,649,650,651,652]]],"id":"TR","properties":{"hc-group":"admin0","hc-key":"tr","hc-a2":"TR","name":"Turkey","labelrank":"2","country-abbrev":"Tur.","subregion":"Western Asia","region-wb":"Europe & Central Asia","iso-a3":"TUR","iso-a2":"TR","woe-id":"23424969","continent":"Asia","hc-middle-lon":32.145,"hc-middle-lat":39.091}},{"type":"MultiPolygon","arcs":[[[653]],[[654,655,656,-115]]],"id":"BD","properties":{"hc-group":"admin0","hc-key":"bd","hc-a2":"BD","name":"Bangladesh","labelrank":"3","country-abbrev":"Bang.","subregion":"Southern Asia","region-wb":"South Asia","iso-a3":"BGD","iso-a2":"BD","woe-id":"23424759","continent":"Asia","hc-middle-lon":91.848,"hc-middle-lat":23.206}},{"type":"MultiPolygon","arcs":[[[657]],[[658]],[[659]],[[660]],[[661]],[[662]]],"id":"SB","properties":{"hc-group":"admin0","hc-key":"sb","hc-a2":"SB","name":"Solomon Islands","labelrank":"3","country-abbrev":"S. Is.","subregion":"Melanesia","region-wb":"East Asia & Pacific","iso-a3":"SLB","iso-a2":"SB","woe-id":"23424766","continent":"Oceania","hc-middle-lon":159.999,"hc-middle-lat":-9.573}},{"type":"Polygon","arcs":[[663]],"id":"LC","properties":{"hc-group":"admin0","hc-key":"lc","hc-a2":"LC","name":"Saint Lucia","labelrank":"6","country-abbrev":"S.L.","subregion":"Caribbean","region-wb":"Latin America & Caribbean","iso-a3":"LCA","iso-a2":"LC","woe-id":"23424951","continent":"North America","hc-middle-lon":-60.9,"hc-middle-lat":13.92}},{"type":"Polygon","arcs":[[664]],"id":"NR","properties":{"hc-group":"admin0","hc-key":"nr","hc-a2":"NR","name":"Nauru","labelrank":"6","country-abbrev":"Nauru","subregion":"Micronesia","region-wb":"East Asia & Pacific","iso-a3":"NRU","iso-a2":"NR","woe-id":"23424912","continent":"Oceania","hc-middle-lon":166.753,"hc-middle-lat":-0.516}},{"type":"MultiPolygon","arcs":[[[665]],[[666]],[[667]],[[668]],[[669]],[[670]],[[671]],[[672]],[[673]],[[674]],[[675]],[[676]],[[677]],[[678]],[[679]],[[680]],[[681]],[[682]],[[683]],[[684]],[[685]],[[686]],[[687]],[[688]],[[689]],[[690]],[[691]],[[692]],[[693]],[[694]],[[695]],[[696]],[[697]],[[698]],[[699]],[[700]],[[701]],[[702,703,704,705]],[[706]],[[707]],[[708]],[[709]],[[710,711]]],"id":"NO","properties":{"hc-group":"admin0","hc-key":"no","hc-a2":"NO","name":"Norway","labelrank":"3","country-abbrev":"Nor.","subregion":"Northern Europe","region-wb":"Europe & Central Asia","iso-a3":"NOR","iso-a2":"NO","woe-id":"-90","continent":"Europe","hc-middle-lon":7.13,"hc-middle-lat":61.29}},{"type":"Polygon","arcs":[[712]],"id":"KN","properties":{"hc-group":"admin0","hc-key":"kn","hc-a2":"KN","name":"Saint Kitts and Nevis","labelrank":"6","country-abbrev":"St.K.N.","subregion":"Caribbean","region-wb":"Latin America & Caribbean","iso-a3":"KNA","iso-a2":"KN","woe-id":"23424940","continent":"North America","hc-middle-lon":-62.649,"hc-middle-lat":17.293}},{"type":"Polygon","arcs":[[713]],"id":"BH","properties":{"hc-group":"admin0","hc-key":"bh","hc-a2":"BH","name":"Bahrain","labelrank":"4","country-abbrev":"Bahr.","subregion":"Western Asia","region-wb":"Middle East & North Africa","iso-a3":"BHR","iso-a2":"BH","woe-id":"23424753","continent":"Asia","hc-middle-lon":50.481,"hc-middle-lat":25.995}},{"type":"Polygon","arcs":[[714]],"id":"TO","properties":{"hc-group":"admin0","hc-key":"to","hc-a2":"TO","name":"Tonga","labelrank":"4","country-abbrev":"Tongo","subregion":"Polynesia","region-wb":"East Asia & Pacific","iso-a3":"TON","iso-a2":"TO","woe-id":"23424964","continent":"Oceania","hc-middle-lon":-174.911,"hc-middle-lat":-21.176}},{"type":"MultiPolygon","arcs":[[[715]],[[716]],[[717]],[[718]],[[719]],[[720]],[[721]],[[722]],[[723]],[[724]],[[725,-704,726,727]]],"id":"FI","properties":{"hc-group":"admin0","hc-key":"fi","hc-a2":"FI","name":"Finland","labelrank":"3","country-abbrev":"Fin.","subregion":"Northern Europe","region-wb":"Europe & Central Asia","iso-a3":"FIN","iso-a2":"FI","woe-id":"23424812","continent":"Europe","hc-middle-lon":27.579,"hc-middle-lat":64.614}},{"type":"MultiPolygon","arcs":[[[728]],[[729]],[[730]],[[731]],[[732]],[[733]],[[734]],[[735]],[[736]],[[737]],[[738]],[[739]],[[740]],[[741]],[[742]],[[743]],[[744]],[[745]],[[746]],[[747]],[[748]],[[749]],[[750]],[[751]],[[752]],[[753]],[[754]],[[755]],[[756]],[[757]],[[758]],[[759]],[[760]],[[761]],[[762]],[[763,764,765,766]],[[767,768]],[[769,770]],[[771]],[[772]],[[773]],[[774]],[[775]],[[776]],[[777,778]],[[779]]],"id":"ID","properties":{"hc-group":"admin0","hc-key":"id","hc-a2":"ID","name":"Indonesia","labelrank":"2","country-abbrev":"Indo.","subregion":"South-Eastern Asia","region-wb":"East Asia & Pacific","iso-a3":"IDN","iso-a2":"ID","woe-id":"23424846","continent":"Asia","hc-middle-lon":112.378,"hc-middle-lat":-0.738}},{"type":"Polygon","arcs":[[780]],"id":"MU","properties":{"hc-group":"admin0","hc-key":"mu","hc-a2":"MU","name":"Mauritius","labelrank":"5","country-abbrev":"Mus.","subregion":"Eastern Africa","region-wb":"Sub-Saharan Africa","iso-a3":"MUS","iso-a2":"MU","woe-id":"23424894","continent":"Seven seas (open ocean)","hc-middle-lon":57.497,"hc-middle-lat":-20.284}},{"type":"MultiPolygon","arcs":[[[781]],[[782]],[[783]],[[784]],[[785]],[[786]],[[-726,787,-705]]],"id":"SE","properties":{"hc-group":"admin0","hc-key":"se","hc-a2":"SE","name":"Sweden","labelrank":"3","country-abbrev":"Swe.","subregion":"Northern Europe","region-wb":"Europe & Central Asia","iso-a3":"SWE","iso-a2":"SE","woe-id":"23424954","continent":"Europe","hc-middle-lon":18.936,"hc-middle-lat":65.333}},{"type":"Polygon","arcs":[[788]],"id":"TT","properties":{"hc-group":"admin0","hc-key":"tt","hc-a2":"TT","name":"Trinidad and Tobago","labelrank":"5","country-abbrev":"Tr.T.","subregion":"Caribbean","region-wb":"Latin America & Caribbean","iso-a3":"TTO","iso-a2":"TT","woe-id":"23424958","continent":"North America","hc-middle-lon":-61.277,"hc-middle-lat":10.45}},{"type":"MultiPolygon","arcs":[[[789]],[[790,-769]],[[791,792,793,-779,794,795]],[[796,797,798,799]]],"id":"MY","properties":{"hc-group":"admin0","hc-key":"my","hc-a2":"MY","name":"Malaysia","labelrank":"3","country-abbrev":"Malay.","subregion":"South-Eastern Asia","region-wb":"East Asia & Pacific","iso-a3":"MYS","iso-a2":"MY","woe-id":"23424901","continent":"Asia","hc-middle-lon":117.033,"hc-middle-lat":5.346}},{"type":"MultiPolygon","arcs":[[[800]],[[801]],[[802]],[[803]]],"id":"BS","properties":{"hc-group":"admin0","hc-key":"bs","hc-a2":"BS","name":"The Bahamas","labelrank":"4","country-abbrev":"Bhs.","subregion":"Caribbean","region-wb":"Latin America & Caribbean","iso-a3":"BHS","iso-a2":"BS","woe-id":"23424758","continent":"North America","hc-middle-lon":-77.142,"hc-middle-lat":25.88}},{"type":"Polygon","arcs":[[804]],"id":"PW","properties":{"hc-group":"admin0","hc-key":"pw","hc-a2":"PW","name":"Palau","labelrank":"6","country-abbrev":"Palau","subregion":"Micronesia","region-wb":"East Asia & Pacific","iso-a3":"PLW","iso-a2":"PW","woe-id":"23424927","continent":"Oceania","hc-middle-lon":134.401,"hc-middle-lat":7.478}},{"type":"MultiPolygon","arcs":[[[805]],[[-647,806,807,808,809,810,811,812,813,814]]],"id":"IR","properties":{"hc-group":"admin0","hc-key":"ir","hc-a2":"IR","name":"Iran","labelrank":"2","country-abbrev":"Iran","subregion":"Southern Asia","region-wb":"Middle East & North Africa","iso-a3":"IRN","iso-a2":"IR","woe-id":"23424851","continent":"Asia","hc-middle-lon":55.155,"hc-middle-lat":32.427}},{"type":"Polygon","arcs":[[815]],"id":"TV","properties":{"hc-group":"admin0","hc-key":"tv","hc-a2":"TV","name":"Tuvalu","labelrank":"6","country-abbrev":"Tuv.","subregion":"Polynesia","region-wb":"East Asia & Pacific","iso-a3":"TUV","iso-a2":"TV","woe-id":"23424970","continent":"Oceania","hc-middle-lon":179.016,"hc-middle-lat":-8.488}},{"type":"Polygon","arcs":[[816]],"id":"MH","properties":{"hc-group":"admin0","hc-key":"mh","hc-a2":"MH","name":"Marshall Islands","labelrank":"6","country-abbrev":"M. Is.","subregion":"Micronesia","region-wb":"East Asia & Pacific","iso-a3":"MHL","iso-a2":"MH","woe-id":"23424932","continent":"Oceania","hc-middle-lon":170.974,"hc-middle-lat":7.081}},{"type":"MultiPolygon","arcs":[[[817,818,-617,819,820],[821]],[[822]],[[823]],[[824]],[[825]],[[826]],[[827]],[[828]],[[829]],[[830]],[[831]],[[832]],[[833]],[[834]],[[835]],[[836]],[[837]],[[838]],[[-612,839,-614,840]],[[841]],[[842]],[[843]],[[844]],[[845,845,845]],[[846]],[[847]],[[848]],[[849]],[[850]]],"id":"CL","properties":{"hc-group":"admin0","hc-key":"cl","hc-a2":"CL","name":"Chile","labelrank":"2","country-abbrev":"Chile","subregion":"South America","region-wb":"Latin America & Caribbean","iso-a3":"CHL","iso-a2":"CL","woe-id":"23424782","continent":"South America","hc-middle-lon":-71.809,"hc-middle-lat":-53.598}},{"type":"MultiPolygon","arcs":[[[851]],[[-797,852,853,854,855,856]]],"id":"TH","properties":{"hc-group":"admin0","hc-key":"th","hc-a2":"TH","name":"Thailand","labelrank":"3","country-abbrev":"Thai.","subregion":"South-Eastern Asia","region-wb":"East Asia & Pacific","iso-a3":"THA","iso-a2":"TH","woe-id":"23424960","continent":"Asia","hc-middle-lon":99.94,"hc-middle-lat":7.579}},{"type":"Polygon","arcs":[[857]],"id":"GD","properties":{"hc-group":"admin0","hc-key":"gd","hc-a2":"GD","name":"Grenada","labelrank":"6","country-abbrev":"Gren.","subregion":"Caribbean","region-wb":"Latin America & Caribbean","iso-a3":"GRD","iso-a2":"GD","woe-id":"23424826","continent":"North America","hc-middle-lon":-61.617,"hc-middle-lat":12.112}},{"type":"MultiPolygon","arcs":[[[858]],[[859]],[[860]],[[861]],[[862,863,864,865,866,867,868,869,870]]],"id":"EE","properties":{"hc-group":"admin0","hc-key":"ee","hc-a2":"EE","name":"Estonia","labelrank":"6","country-abbrev":"Est.","subregion":"Northern Europe","region-wb":"Europe & Central Asia","iso-a3":"EST","iso-a2":"EE","woe-id":"23424805","continent":"Europe","hc-middle-lon":24.026,"hc-middle-lat":58.721}},{"type":"Polygon","arcs":[[871]],"id":"AG","properties":{"hc-group":"admin0","hc-key":"ag","hc-a2":"AG","name":"Antigua and Barbuda","labelrank":"6","country-abbrev":"Ant.B.","subregion":"Caribbean","region-wb":"Latin America & Caribbean","iso-a3":"ATG","iso-a2":"AG","woe-id":"23424737","continent":"North America","hc-middle-lon":-61.718,"hc-middle-lat":17.045}},{"type":"Polygon","arcs":[[872]],"id":"BB","properties":{"hc-group":"admin0","hc-key":"bb","hc-a2":"BB","name":"Barbados","labelrank":"5","country-abbrev":"Barb.","subregion":"Caribbean","region-wb":"Latin America & Caribbean","iso-a3":"BRB","iso-a2":"BB","woe-id":"23424754","continent":"North America","hc-middle-lon":-59.508,"hc-middle-lat":13.155}},{"type":"MultiPolygon","arcs":[[[873]],[[874]],[[-136,875,876,877,878],[879],[880]]],"id":"IT","properties":{"hc-group":"admin0","hc-key":"it","hc-a2":"IT","name":"Italy","labelrank":"2","country-abbrev":"Italy","subregion":"Southern Europe","region-wb":"Europe & Central Asia","iso-a3":"ITA","iso-a2":"IT","woe-id":"23424853","continent":"Europe","hc-middle-lon":16.937,"hc-middle-lat":40.699}},{"type":"Polygon","arcs":[[881]],"id":"MT","properties":{"hc-group":"admin0","hc-key":"mt","hc-a2":"MT","name":"Malta","labelrank":"5","country-abbrev":"Malta","subregion":"Southern Europe","region-wb":"Middle East & North Africa","iso-a3":"MLT","iso-a2":"MT","woe-id":"23424897","continent":"Europe","hc-middle-lon":14.391,"hc-middle-lat":35.863}},{"type":"MultiPolygon","arcs":[[[882]],[[883]],[[884]],[[885]],[[-770,886]],[[887]],[[888]]],"id":"PG","properties":{"hc-group":"admin0","hc-key":"pg","hc-a2":"PG","name":"Papua New Guinea","labelrank":"2","country-abbrev":"P.N.G.","subregion":"Melanesia","region-wb":"East Asia & Pacific","iso-a3":"PNG","iso-a2":"PG","woe-id":"23424926","continent":"Oceania","hc-middle-lon":142.341,"hc-middle-lat":-6.211}},{"type":"MultiPolygon","arcs":[[[889]],[[890,890,890]],[[-329,891,892,893,894,895,896,897,898,-146,899,900,-627,901]]],"id":"DE","properties":{"hc-group":"admin0","hc-key":"de","hc-a2":"DE","name":"Germany","labelrank":"2","country-abbrev":"Ger.","subregion":"Western Europe","region-wb":"Europe & Central Asia","iso-a3":"DEU","iso-a2":"DE","woe-id":"23424829","continent":"Europe","hc-middle-lon":10.639,"hc-middle-lat":52.265}},{"type":"MultiPolygon","arcs":[[[902]],[[903]],[[904]],[[905]],[[906]]],"id":"VU","properties":{"hc-group":"admin0","hc-key":"vu","hc-a2":"VU","name":"Vanuatu","labelrank":"4","country-abbrev":"Van.","subregion":"Melanesia","region-wb":"East Asia & Pacific","iso-a3":"VUT","iso-a2":"VU","woe-id":"23424907","continent":"Oceania","hc-middle-lon":166.678,"hc-middle-lat":-15.123}},{"type":"MultiPolygon","arcs":[[[907]],[[908,909,910]]],"id":"GQ","properties":{"hc-group":"admin0","hc-key":"gq","hc-a2":"GQ","name":"Equatorial Guinea","labelrank":"4","country-abbrev":"Eq. G.","subregion":"Middle Africa","region-wb":"Sub-Saharan Africa","iso-a3":"GNQ","iso-a2":"GQ","woe-id":"23424804","continent":"Africa","hc-middle-lon":10.371,"hc-middle-lat":1.595}},{"type":"MultiPolygon","arcs":[[[286,-287,287]],[[911,-286,912]],[[-278,913,-279]],[[914,-291,915,916,917,918,-281]]],"id":"CY","properties":{"hc-group":"admin0","hc-key":"cy","hc-a2":"CY","name":"Cyprus","labelrank":"5","country-abbrev":"Cyp.","subregion":"Western Asia","region-wb":"Europe & Central Asia","iso-a3":"CYP","iso-a2":"CY","woe-id":"-90","continent":"Asia","hc-middle-lon":32.956,"hc-middle-lat":34.86}},{"type":"Polygon","arcs":[[919]],"id":"KM","properties":{"hc-group":"admin0","hc-key":"km","hc-a2":"KM","name":"Comoros","labelrank":"6","country-abbrev":"Com.","subregion":"Eastern Africa","region-wb":"Sub-Saharan Africa","iso-a3":"COM","iso-a2":"KM","woe-id":"23424786","continent":"Africa","hc-middle-lon":43.276,"hc-middle-lat":-11.637}},{"type":"MultiPolygon","arcs":[[[920]],[[921]]],"id":"FJ","properties":{"hc-group":"admin0","hc-key":"fj","hc-a2":"FJ","name":"Fiji","labelrank":"6","country-abbrev":"Fiji","subregion":"Melanesia","region-wb":"East Asia & Pacific","iso-a3":"FJI","iso-a2":"FJ","woe-id":"23424813","continent":"Oceania","hc-middle-lon":178.12,"hc-middle-lat":-17.762}},{"type":"MultiPolygon","arcs":[[[922,-171,923,-169,924,-165,925,926,927,928,929,930,931,932,-864,933,-871,934,-869,935,-867,936,-727,-703,937,938,939],[940],[941]],[[942]],[[943]],[[944]],[[945]],[[946]],[[947]],[[948]],[[949]],[[950]],[[951]],[[952]],[[953]],[[954]],[[955]],[[956]],[[957]],[[958]],[[959]],[[960]],[[961]],[[962]],[[963]],[[964]],[[965]],[[966]],[[967]],[[968]],[[969]],[[970]],[[971]],[[972]],[[973]],[[974]],[[975]],[[976]],[[977]],[[978]],[[979]],[[980]],[[981]],[[982]],[[983]],[[984]],[[985]],[[986]],[[987]],[[988]],[[989]],[[990]],[[991]],[[992]],[[993]],[[994]],[[995]],[[996]],[[997]],[[998]],[[999]],[[1000]],[[1001]],[[1002]],[[1003]],[[1004]],[[1005]],[[1006]],[[1007]],[[1008]],[[1009]],[[1010]],[[1011,1012,1013,1014,1015,1016,1017]],[[1018,-1019,1019]],[[1020]],[[1021]],[[1022]],[[1023]],[[1024]],[[1025]],[[1026]],[[1027]],[[1028]],[[1029]],[[1030]],[[1031]]],"id":"RU","properties":{"hc-group":"admin0","hc-key":"ru","hc-a2":"RU","name":"Russia","labelrank":"2","country-abbrev":"Rus.","subregion":"Eastern Europe","region-wb":"Europe & Central Asia","iso-a3":"RUS","iso-a2":"RU","woe-id":"23424936","continent":"Europe","hc-middle-lon":118.476,"hc-middle-lat":62.18}},{"type":"MultiPolygon","arcs":[[[1032,-604,1033,1034,1035,1036,1037,1038,1039,1040]],[[605,-606,1041]]],"id":"UG","properties":{"hc-group":"admin0","hc-key":"ug","hc-a2":"UG","name":"Uganda","labelrank":"3","country-abbrev":"Uga.","subregion":"Eastern Africa","region-wb":"Sub-Saharan Africa","iso-a3":"UGA","iso-a2":"UG","woe-id":"23424974","continent":"Africa","hc-middle-lon":30.375,"hc-middle-lat":1.151}},{"type":"Polygon","arcs":[[879]],"id":"VA","properties":{"hc-group":"admin0","hc-key":"va","hc-a2":"VA","name":"Vatican","labelrank":"6","country-abbrev":"Vat.","subregion":"Southern Europe","region-wb":"Europe & Central Asia","iso-a3":"VAT","iso-a2":"VA","woe-id":"23424986","continent":"Europe","hc-middle-lon":12.442,"hc-middle-lat":41.855}},{"type":"Polygon","arcs":[[-881]],"id":"SM","properties":{"hc-group":"admin0","hc-key":"sm","hc-a2":"SM","name":"San Marino","labelrank":"6","country-abbrev":"S.M.","subregion":"Southern Europe","region-wb":"Europe & Central Asia","iso-a3":"SMR","iso-a2":"SM","woe-id":"23424947","continent":"Europe","hc-middle-lon":12.423,"hc-middle-lat":43.898}},{"type":"MultiPolygon","arcs":[[[1042]],[[1043]],[[1044,1045]],[[1046,1047,1048,-926,-164,1049,1050,1051]]],"id":"KZ","properties":{"hc-group":"admin0","hc-key":"kz","hc-a2":"KZ","name":"Kazakhstan","labelrank":"3","country-abbrev":"Kaz.","subregion":"Central Asia","region-wb":"Europe & Central Asia","iso-a3":"KAZ","iso-a2":"KZ","woe-id":"-90","continent":"Asia","hc-middle-lon":70.087,"hc-middle-lat":48.726}},{"type":"MultiPolygon","arcs":[[[1052]],[[1053]],[[-653,1054,-807]],[[1055,-809,1056,1057,-928],[1058]]],"id":"AZ","properties":{"hc-group":"admin0","hc-key":"az","hc-a2":"AZ","name":"Azerbaijan","labelrank":"5","country-abbrev":"Aze.","subregion":"Western Asia","region-wb":"Europe & Central Asia","iso-a3":"AZE","iso-a2":"AZ","woe-id":"23424741","continent":"Asia","hc-middle-lon":48.634,"hc-middle-lat":41.339}},{"type":"MultiPolygon","arcs":[[[-1059]],[[-808,-1055,-652,1059,-1057],[-1053],[1053]]],"id":"AM","properties":{"hc-group":"admin0","hc-key":"am","hc-a2":"AM","name":"Armenia","labelrank":"6","country-abbrev":"Arm.","subregion":"Western Asia","region-wb":"Europe & Central Asia","iso-a3":"ARM","iso-a2":"AM","woe-id":"23424743","continent":"Asia","hc-middle-lon":43.698,"hc-middle-lat":40.97}},{"type":"MultiPolygon","arcs":[[[1060]],[[1061]],[[-162,1062,1063,1064]]],"id":"TJ","properties":{"hc-group":"admin0","hc-key":"tj","hc-a2":"TJ","name":"Tajikistan","labelrank":"4","country-abbrev":"Tjk.","subregion":"Central Asia","region-wb":"Europe & Central Asia","iso-a3":"TJK","iso-a2":"TJ","woe-id":"23424961","continent":"Asia","hc-middle-lon":71.011,"hc-middle-lat":38.835}},{"type":"Polygon","arcs":[[1065]],"id":"LS","properties":{"hc-group":"admin0","hc-key":"ls","hc-a2":"LS","name":"Lesotho","labelrank":"6","country-abbrev":"Les.","subregion":"Southern Africa","region-wb":"Sub-Saharan Africa","iso-a3":"LSO","iso-a2":"LS","woe-id":"23424880","continent":"Africa","hc-middle-lon":28.177,"hc-middle-lat":-29.541}},{"type":"MultiPolygon","arcs":[[[1066]],[[1067]],[[1068,-1051,1069,-1064,1070,1071,1072,1073,-1047,1074,-1046],[-1061]]],"id":"UZ","properties":{"hc-group":"admin0","hc-key":"uz","hc-a2":"UZ","name":"Uzbekistan","labelrank":"3","country-abbrev":"Uzb.","subregion":"Central Asia","region-wb":"Europe & Central Asia","iso-a3":"UZB","iso-a2":"UZ","woe-id":"23424980","continent":"Asia","hc-middle-lon":63.782,"hc-middle-lat":41.149}},{"type":"Polygon","arcs":[[1075,1076,1077,1078,-250,1079,246]],"id":"MA","properties":{"hc-group":"admin0","hc-key":"ma","hc-a2":"MA","name":"Morocco","labelrank":"3","country-abbrev":"Mor.","subregion":"Northern Africa","region-wb":"Middle East & North Africa","iso-a3":"MAR","iso-a2":"MA","woe-id":"23424893","continent":"Africa","hc-middle-lon":-7.438,"hc-middle-lat":32.949}},{"type":"Polygon","arcs":[[-202,1080,1081,1082,1083,-194,1084]],"id":"CO","properties":{"hc-group":"admin0","hc-key":"co","hc-a2":"CO","name":"Colombia","labelrank":"2","country-abbrev":"Col.","subregion":"South America","region-wb":"Latin America & Caribbean","iso-a3":"COL","iso-a2":"CO","woe-id":"23424787","continent":"South America","hc-middle-lon":-72.742,"hc-middle-lat":3.458}},{"type":"MultiPolygon","arcs":[[[1085,-764]],[[1086,-766]]],"id":"TL","properties":{"hc-group":"admin0","hc-key":"tl","hc-a2":"TL","name":"East Timor","labelrank":"5","country-abbrev":"T.L.","subregion":"South-Eastern Asia","region-wb":"East Asia & Pacific","iso-a3":"TLS","iso-a2":"TL","woe-id":"23424968","continent":"Asia","hc-middle-lon":125.96,"hc-middle-lat":-8.663}},{"type":"Polygon","arcs":[[1087,-856,1088,1089]],"id":"KH","properties":{"hc-group":"admin0","hc-key":"kh","hc-a2":"KH","name":"Cambodia","labelrank":"3","country-abbrev":"Camb.","subregion":"South-Eastern Asia","region-wb":"East Asia & Pacific","iso-a3":"KHM","iso-a2":"KH","woe-id":"23424776","continent":"Asia","hc-middle-lon":106.521,"hc-middle-lat":12.592}},{"type":"Polygon","arcs":[[1090,1091,1092,1093,-640,-634,1094,1095,1096,1097]],"id":"SA","properties":{"hc-group":"admin0","hc-key":"sa","hc-a2":"SA","name":"Saudi Arabia","labelrank":"2","country-abbrev":"Saud.","subregion":"Western Asia","region-wb":"Middle East & North Africa","iso-a3":"SAU","iso-a2":"SA","woe-id":"23424938","continent":"Asia","hc-middle-lon":43.572,"hc-middle-lat":24.379}},{"type":"Polygon","arcs":[[-160,1098,-118,1099,-813,1100]],"id":"PK","properties":{"hc-group":"admin0","hc-key":"pk","hc-a2":"PK","name":"Pakistan","labelrank":"2","country-abbrev":"Pak.","subregion":"Southern Asia","region-wb":"South Asia","iso-a3":"PAK","iso-a2":"PK","woe-id":"23424922","continent":"Asia","hc-middle-lon":65.479,"hc-middle-lat":27.228}},{"type":"Polygon","arcs":[[1101,-641,-1094,1102,-639],[-637]],"id":"AE","properties":{"hc-group":"admin0","hc-key":"ae","hc-a2":"AE","name":"United Arab Emirates","labelrank":"4","country-abbrev":"U.A.E.","subregion":"Western Asia","region-wb":"Middle East & North Africa","iso-a3":"ARE","iso-a2":"AE","woe-id":"23424738","continent":"Asia","hc-middle-lon":54.347,"hc-middle-lat":23.832}},{"type":"Polygon","arcs":[[-608,1103,-1041,1104,1105,1106,1107]],"id":"KE","properties":{"hc-group":"admin0","hc-key":"ke","hc-a2":"KE","name":"Kenya","labelrank":"2","country-abbrev":"Ken.","subregion":"Eastern Africa","region-wb":"Sub-Saharan Africa","iso-a3":"KEN","iso-a2":"KE","woe-id":"23424863","continent":"Africa","hc-middle-lon":40.799,"hc-middle-lat":-1.773}},{"type":"Polygon","arcs":[[1108,1109,1110,1111,-818,1112,-203,-1085,-193,1113]],"id":"PE","properties":{"hc-group":"admin0","hc-key":"pe","hc-a2":"PE","name":"Peru","labelrank":"2","country-abbrev":"Peru","subregion":"South America","region-wb":"Latin America & Caribbean","iso-a3":"PER","iso-a2":"PE","woe-id":"23424919","continent":"South America","hc-middle-lon":-72.655,"hc-middle-lat":-12.9}},{"type":"Polygon","arcs":[[1114,1115,1116,1117,1118]],"id":"DO","properties":{"hc-group":"admin0","hc-key":"do","hc-a2":"DO","name":"Dominican Republic","labelrank":"5","country-abbrev":"Dom. Rep.","subregion":"Caribbean","region-wb":"Latin America & Caribbean","iso-a3":"DOM","iso-a2":"DO","woe-id":"23424800","continent":"North America","hc-middle-lon":-70.171,"hc-middle-lat":18.955}},{"type":"MultiPolygon","arcs":[[[1114,-1115,1119]],[[-1117,1120,-1119,1121]]],"id":"HT","properties":{"hc-group":"admin0","hc-key":"ht","hc-a2":"HT","name":"Haiti","labelrank":"5","country-abbrev":"Haiti","subregion":"Caribbean","region-wb":"Latin America & Caribbean","iso-a3":"HTI","iso-a2":"HT","woe-id":"23424839","continent":"North America","hc-middle-lon":-73.808,"hc-middle-lat":18.186}},{"type":"MultiPolygon","arcs":[[[1122,1123,1124]],[[1125,1126,1127,1128]]],"id":"AO","properties":{"hc-group":"admin0","hc-key":"ao","hc-a2":"AO","name":"Angola","labelrank":"3","country-abbrev":"Ang.","subregion":"Middle Africa","region-wb":"Sub-Saharan Africa","iso-a3":"AGO","iso-a2":"AO","woe-id":"23424745","continent":"Africa","hc-middle-lon":17.887,"hc-middle-lat":-13.559}},{"type":"Polygon","arcs":[[1129,-610,1130,1131,1132,1133,1134,1135,1136]],"id":"MZ","properties":{"hc-group":"admin0","hc-key":"mz","hc-a2":"MZ","name":"Mozambique","labelrank":"3","country-abbrev":"Moz.","subregion":"Eastern Africa","region-wb":"Sub-Saharan Africa","iso-a3":"MOZ","iso-a2":"MZ","woe-id":"23424902","continent":"Africa","hc-middle-lon":36.026,"hc-middle-lat":-17.288}},{"type":"Polygon","arcs":[[1137,-1082,1138,1139]],"id":"PA","properties":{"hc-group":"admin0","hc-key":"pa","hc-a2":"PA","name":"Panama","labelrank":"4","country-abbrev":"Pan.","subregion":"Central America","region-wb":"Latin America & Caribbean","iso-a3":"PAN","iso-a2":"PA","woe-id":"23424924","continent":"North America","hc-middle-lon":-81.665,"hc-middle-lat":8.395}},{"type":"Polygon","arcs":[[1140,-1140,1141,1142]],"id":"CR","properties":{"hc-group":"admin0","hc-key":"cr","hc-a2":"CR","name":"Costa Rica","labelrank":"5","country-abbrev":"C.R.","subregion":"Central America","region-wb":"Latin America & Caribbean","iso-a3":"CRI","iso-a2":"CR","woe-id":"23424791","continent":"North America","hc-middle-lon":-85.302,"hc-middle-lat":10.903}},{"type":"Polygon","arcs":[[1143,1144,1145]],"id":"SV","properties":{"hc-group":"admin0","hc-key":"sv","hc-a2":"SV","name":"El Salvador","labelrank":"6","country-abbrev":"El. S.","subregion":"Central America","region-wb":"Latin America & Caribbean","iso-a3":"SLV","iso-a2":"SV","woe-id":"23424807","continent":"North America","hc-middle-lon":-88.808,"hc-middle-lat":13.774}},{"type":"MultiPolygon","arcs":[[[-819,-1112,1146,-1114,-192,1147,-618]],[[1148,-1110]]],"id":"BO","properties":{"hc-group":"admin0","hc-key":"bo","hc-a2":"BO","name":"Bolivia","labelrank":"3","country-abbrev":"Bolivia","subregion":"South America","region-wb":"Latin America & Caribbean","iso-a3":"BOL","iso-a2":"BO","woe-id":"23424762","continent":"South America","hc-middle-lon":-63.776,"hc-middle-lat":-17.541}},{"type":"MultiPolygon","arcs":[[[1149,1150,1151]],[[1152,1153,1154,1155,1156]]],"id":"HR","properties":{"hc-group":"admin0","hc-key":"hr","hc-a2":"HR","name":"Croatia","labelrank":"6","country-abbrev":"Cro.","subregion":"Southern Europe","region-wb":"Europe & Central Asia","iso-a3":"HRV","iso-a2":"HR","woe-id":"23424843","continent":"Europe","hc-middle-lon":15.49,"hc-middle-lat":44.063}},{"type":"Polygon","arcs":[[-239,1157,1158]],"id":"BZ","properties":{"hc-group":"admin0","hc-key":"bz","hc-a2":"BZ","name":"Belize","labelrank":"6","country-abbrev":"Belize","subregion":"Central America","region-wb":"Latin America & Caribbean","iso-a3":"BLZ","iso-a2":"BZ","woe-id":"23424760","continent":"North America","hc-middle-lon":-88.643,"hc-middle-lat":17.175}},{"type":"Polygon","arcs":[[-1132,1159,1160,1161,1162,-1134,1163],[-1066]],"id":"ZA","properties":{"hc-group":"admin0","hc-key":"za","hc-a2":"ZA","name":"South Africa","labelrank":"2","country-abbrev":"S.Af.","subregion":"Southern Africa","region-wb":"Sub-Saharan Africa","iso-a3":"ZAF","iso-a2":"ZA","woe-id":"23424942","continent":"Africa","hc-middle-lon":22.378,"hc-middle-lat":-31.083}},{"type":"Polygon","arcs":[[1164,1165,1166,1167,1168,1169,1170]],"id":"LY","properties":{"hc-group":"admin0","hc-key":"ly","hc-a2":"LY","name":"Libya","labelrank":"3","country-abbrev":"Libya","subregion":"Northern Africa","region-wb":"Middle East & North Africa","iso-a3":"LBY","iso-a2":"LY","woe-id":"23424882","continent":"Africa","hc-middle-lon":17.209,"hc-middle-lat":27.938}},{"type":"Polygon","arcs":[[-1165,1171,1172,1173,1174,1175,1176,1177,1178,1179,1180,1181,1182]],"id":"SD","properties":{"hc-group":"admin0","hc-key":"sd","hc-a2":"SD","name":"Sudan","labelrank":"3","country-abbrev":"Sudan","subregion":"Northern Africa","region-wb":"Sub-Saharan Africa","iso-a3":"SDN","iso-a2":"SD","woe-id":"-90","continent":"Africa","hc-middle-lon":30.168,"hc-middle-lat":15.631}},{"type":"Polygon","arcs":[[1183,1184,1185,1186,-1127,1187,-1125,1188,1189,1190,-1039,1191,-1037,1192,-1035,1193,1194,1195,1196]],"id":"CD","properties":{"hc-group":"admin0","hc-key":"cd","hc-a2":"CD","name":"Democratic Republic of the Congo","labelrank":"2","country-abbrev":"D.R.C.","subregion":"Middle Africa","region-wb":"Sub-Saharan Africa","iso-a3":"COD","iso-a2":"CD","woe-id":"23424780","continent":"Africa","hc-middle-lon":23.244,"hc-middle-lat":-2.56}},{"type":"Polygon","arcs":[[1197,-1098,1198]],"id":"KW","properties":{"hc-group":"admin0","hc-key":"kw","hc-a2":"KW","name":"Kuwait","labelrank":"6","country-abbrev":"Kwt.","subregion":"Western Asia","region-wb":"Middle East & North Africa","iso-a3":"KWT","iso-a2":"KW","woe-id":"23424870","continent":"Asia","hc-middle-lon":47.704,"hc-middle-lat":29.279}},{"type":"Polygon","arcs":[[-1179,1199,1200,1201]],"id":"ER","properties":{"hc-group":"admin0","hc-key":"er","hc-a2":"ER","name":"Eritrea","labelrank":"4","country-abbrev":"Erit.","subregion":"Eastern Africa","region-wb":"Sub-Saharan Africa","iso-a3":"ERI","iso-a2":"ER","woe-id":"23424806","continent":"Africa","hc-middle-lon":37.062,"hc-middle-lat":16.625}},{"type":"Polygon","arcs":[[-293,1202]],"id":"IE","properties":{"hc-group":"admin0","hc-key":"ie","hc-a2":"IE","name":"Ireland","labelrank":"3","country-abbrev":"Ire.","subregion":"Northern Europe","region-wb":"Europe & Central Asia","iso-a3":"IRL","iso-a2":"IE","woe-id":"23424803","continent":"Europe","hc-middle-lon":-8.487,"hc-middle-lat":53.339}},{"type":"Polygon","arcs":[[1203,-124,1204,-172,-923]],"id":"KP","properties":{"hc-group":"admin0","hc-key":"kp","hc-a2":"KP","name":"North Korea","labelrank":"3","country-abbrev":"N.K.","subregion":"Eastern Asia","region-wb":"East Asia & Pacific","iso-a3":"PRK","iso-a2":"KP","woe-id":"23424865","continent":"Asia","hc-middle-lon":126.383,"hc-middle-lat":39.355}},{"type":"Polygon","arcs":[[1205,-195,-1084,1206]],"id":"VE","properties":{"hc-group":"admin0","hc-key":"ve","hc-a2":"VE","name":"Venezuela","labelrank":"3","country-abbrev":"Ven.","subregion":"South America","region-wb":"Latin America & Caribbean","iso-a3":"VEN","iso-a2":"VE","woe-id":"23424982","continent":"South America","hc-middle-lon":-67.35,"hc-middle-lat":9.327}},{"type":"Polygon","arcs":[[-1206,1207,1208,1209,-196]],"id":"GY","properties":{"hc-group":"admin0","hc-key":"gy","hc-a2":"GY","name":"Guyana","labelrank":"4","country-abbrev":"Guy.","subregion":"South America","region-wb":"Latin America & Caribbean","iso-a3":"GUY","iso-a2":"GY","woe-id":"23424836","continent":"South America","hc-middle-lon":-59.406,"hc-middle-lat":6.494}},{"type":"Polygon","arcs":[[1210,1211,1212,-1146,1213]],"id":"HN","properties":{"hc-group":"admin0","hc-key":"hn","hc-a2":"HN","name":"Honduras","labelrank":"5","country-abbrev":"Hond.","subregion":"Central America","region-wb":"Latin America & Caribbean","iso-a3":"HND","iso-a2":"HN","woe-id":"23424841","continent":"North America","hc-middle-lon":-84.834,"hc-middle-lat":15.679}},{"type":"Polygon","arcs":[[-655,-114,-176,1214,-854,1215]],"id":"MM","properties":{"hc-group":"admin0","hc-key":"mm","hc-a2":"MM","name":"Myanmar","labelrank":"3","country-abbrev":"Myan.","subregion":"South-Eastern Asia","region-wb":"East Asia & Pacific","iso-a3":"MMR","iso-a2":"MM","woe-id":"23424763","continent":"Asia","hc-middle-lon":93.773,"hc-middle-lat":19.524}},{"type":"Polygon","arcs":[[-909,1216,1217,1218]],"id":"GA","properties":{"hc-group":"admin0","hc-key":"ga","hc-a2":"GA","name":"Gabon","labelrank":"4","country-abbrev":"Gabon","subregion":"Middle Africa","region-wb":"Sub-Saharan Africa","iso-a3":"GAB","iso-a2":"GA","woe-id":"23424822","continent":"Africa","hc-middle-lon":10.649,"hc-middle-lat":-1.557}},{"type":"Polygon","arcs":[[1219,-1212,1220,-1143]],"id":"NI","properties":{"hc-group":"admin0","hc-key":"ni","hc-a2":"NI","name":"Nicaragua","labelrank":"5","country-abbrev":"Nic.","subregion":"Central America","region-wb":"Latin America & Caribbean","iso-a3":"NIC","iso-a2":"NI","woe-id":"23424915","continent":"North America","hc-middle-lon":-83.746,"hc-middle-lat":12.912}},{"type":"MultiPolygon","arcs":[[[1221,1221,1221]],[[593,-594,1222]],[[595,-596,1223]],[[1224,1224,1224]],[[-599,1225,-1137,1226]]],"id":"MW","properties":{"hc-group":"admin0","hc-key":"mw","hc-a2":"MW","name":"Malawi","labelrank":"6","country-abbrev":"Mal.","subregion":"Eastern Africa","region-wb":"Sub-Saharan Africa","iso-a3":"MWI","iso-a2":"MW","woe-id":"23424889","continent":"Africa","hc-middle-lon":33.412,"hc-middle-lat":-11.81}},{"type":"Polygon","arcs":[[1227,1228,1229,1230]],"id":"SX","properties":{"hc-group":"admin0","hc-key":"sx","hc-a2":"SX","name":"Somaliland","labelrank":"5","country-abbrev":"Solnd.","subregion":"Eastern Africa","region-wb":"Sub-Saharan Africa","iso-a3":"-99","iso-a2":"SX","woe-id":"-99","continent":"Africa","hc-middle-lon":47.372,"hc-middle-lat":9.663}},{"type":"Polygon","arcs":[[1231,-1072,1232,-811,1233,-1048,-1074]],"id":"TM","properties":{"hc-group":"admin0","hc-key":"tm","hc-a2":"TM","name":"Turkmenistan","labelrank":"4","country-abbrev":"Turkm.","subregion":"Central Asia","region-wb":"Europe & Central Asia","iso-a3":"TKM","iso-a2":"TM","woe-id":"23424972","continent":"Asia","hc-middle-lon":57.735,"hc-middle-lat":39.682}},{"type":"Polygon","arcs":[[1234,-1185,1235,-600,-1227,-1136,1236,1237,1238,1239,-1128,-1187]],"id":"ZM","properties":{"hc-group":"admin0","hc-key":"zm","hc-a2":"ZM","name":"Zambia","labelrank":"3","country-abbrev":"Zambia","subregion":"Eastern Africa","region-wb":"Sub-Saharan Africa","iso-a3":"ZMB","iso-a2":"ZM","woe-id":"23425003","continent":"Africa","hc-middle-lon":24.868,"hc-middle-lat":-14.83}},{"type":"MultiPolygon","arcs":[[[-284,-283,1240,1241,1242]],[[1243,-1244,1244]]],"id":"NC","properties":{"hc-group":"admin0","hc-key":"nc","hc-a2":"NC","name":"Northern Cyprus","labelrank":"6","country-abbrev":"N. Cy.","subregion":"Western Asia","region-wb":"Europe & Central Asia","iso-a3":"-99","iso-a2":null,"woe-id":"-90","continent":"Asia","hc-middle-lon":33.661,"hc-middle-lat":35.224}},{"type":"Polygon","arcs":[[1245,1246,1247,1248,1249]],"id":"MR","properties":{"hc-group":"admin0","hc-key":"mr","hc-a2":"MR","name":"Mauritania","labelrank":"3","country-abbrev":"Mrt.","subregion":"Western Africa","region-wb":"Sub-Saharan Africa","iso-a3":"MRT","iso-a2":"MR","woe-id":"23424896","continent":"Africa","hc-middle-lon":-9.467,"hc-middle-lat":19.434}},{"type":"Polygon","arcs":[[-1246,1250,-1077,1251,1252,-1168,1253,1254]],"id":"DZ","properties":{"hc-group":"admin0","hc-key":"dz","hc-a2":"DZ","name":"Algeria","labelrank":"3","country-abbrev":"Alg.","subregion":"Northern Africa","region-wb":"Middle East & North Africa","iso-a3":"DZA","iso-a2":"DZ","woe-id":"23424740","continent":"Africa","hc-middle-lon":4.336,"hc-middle-lat":28.425}},{"type":"MultiPolygon","arcs":[[[1255,1256,1257,1258,-1017]],[[1259,-1015]]],"id":"LT","properties":{"hc-group":"admin0","hc-key":"lt","hc-a2":"LT","name":"Lithuania","labelrank":"5","country-abbrev":"Lith.","subregion":"Northern Europe","region-wb":"Europe & Central Asia","iso-a3":"LTU","iso-a2":"LT","woe-id":"23424875","continent":"Europe","hc-middle-lon":22.349,"hc-middle-lat":56.082}},{"type":"Polygon","arcs":[[1260,1261,-1230,1262,-1106,1263,-1180,-1202,1264]],"id":"ET","properties":{"hc-group":"admin0","hc-key":"et","hc-a2":"ET","name":"Ethiopia","labelrank":"2","country-abbrev":"Eth.","subregion":"Eastern Africa","region-wb":"Sub-Saharan Africa","iso-a3":"ETH","iso-a2":"ET","woe-id":"23424808","continent":"Africa","hc-middle-lon":39.7,"hc-middle-lat":8.255}},{"type":"Polygon","arcs":[[-1263,-1229,1265,-1107]],"id":"SO","properties":{"hc-group":"admin0","hc-key":"so","hc-a2":"SO","name":"Somalia","labelrank":"6","country-abbrev":"Som.","subregion":"Eastern Africa","region-wb":"Sub-Saharan Africa","iso-a3":"SOM","iso-a2":"SO","woe-id":"-90","continent":"Africa","hc-middle-lon":44.928,"hc-middle-lat":1.883}},{"type":"Polygon","arcs":[[1266,1267,1268,1269,1270,1271]],"id":"GH","properties":{"hc-group":"admin0","hc-key":"gh","hc-a2":"GH","name":"Ghana","labelrank":"3","country-abbrev":"Ghana","subregion":"Western Africa","region-wb":"Sub-Saharan Africa","iso-a3":"GHA","iso-a2":"GH","woe-id":"23424824","continent":"Africa","hc-middle-lon":-2.658,"hc-middle-lat":6.212}},{"type":"Polygon","arcs":[[1272,-878,1273,1274,-1156]],"id":"SI","properties":{"hc-group":"admin0","hc-key":"si","hc-a2":"SI","name":"Slovenia","labelrank":"6","country-abbrev":"Slo.","subregion":"Southern Europe","region-wb":"Europe & Central Asia","iso-a3":"SVN","iso-a2":"SI","woe-id":"23424945","continent":"Europe","hc-middle-lon":14.999,"hc-middle-lat":46.005}},{"type":"Polygon","arcs":[[1275,-1214,-1145,1276,-240,-1159]],"id":"GT","properties":{"hc-group":"admin0","hc-key":"gt","hc-a2":"GT","name":"Guatemala","labelrank":"3","country-abbrev":"Guat.","subregion":"Central America","region-wb":"Latin America & Caribbean","iso-a3":"GTM","iso-a2":"GT","woe-id":"23424834","continent":"North America","hc-middle-lon":-91.221,"hc-middle-lat":14.572}},{"type":"Polygon","arcs":[[1277,-1154,1278,1279,-1151]],"id":"BA","properties":{"hc-group":"admin0","hc-key":"ba","hc-a2":"BA","name":"Bosnia and Herzegovina","labelrank":"5","country-abbrev":"B.H.","subregion":"Southern Europe","region-wb":"Europe & Central Asia","iso-a3":"BIH","iso-a2":"BA","woe-id":"23424761","continent":"Europe","hc-middle-lon":17.876,"hc-middle-lat":44.394}},{"type":"Polygon","arcs":[[1280,1281,1282,1283,1284,1285,-1096,1286,1287]],"id":"JO","properties":{"hc-group":"admin0","hc-key":"jo","hc-a2":"JO","name":"Jordan","labelrank":"4","country-abbrev":"Jord.","subregion":"Western Asia","region-wb":"Middle East & North Africa","iso-a3":"JOR","iso-a2":"JO","woe-id":"23424860","continent":"Asia","hc-middle-lon":35.2,"hc-middle-lat":30.081}},{"type":"Polygon","arcs":[[1288,-138]],"id":"MC","properties":{"hc-group":"admin0","hc-key":"mc","hc-a2":"MC","name":"Monaco","labelrank":"6","country-abbrev":"Mco.","subregion":"Western Europe","region-wb":"Europe & Central Asia","iso-a3":"MCO","iso-a2":"MC","woe-id":"23424892","continent":"Europe","hc-middle-lon":7.387,"hc-middle-lat":43.692}},{"type":"MultiPolygon","arcs":[[[1289,1289,1289]],[[1290,1291,1292,1293,1294,1295,1296,1297,-312,1298,-319,317,1299,1300]],[[1301,-1302,1302]]],"id":"AL","properties":{"hc-group":"admin0","hc-key":"al","hc-a2":"AL","name":"Albania","labelrank":"6","country-abbrev":"Alb.","subregion":"Southern Europe","region-wb":"Europe & Central Asia","iso-a3":"ALB","iso-a2":"AL","woe-id":"23424742","continent":"Europe","hc-middle-lon":19.974,"hc-middle-lat":41.115}},{"type":"Polygon","arcs":[[1303,-199,1304,-615,-187]],"id":"UY","properties":{"hc-group":"admin0","hc-key":"uy","hc-a2":"UY","name":"Uruguay","labelrank":"4","country-abbrev":"Ury.","subregion":"South America","region-wb":"Latin America & Caribbean","iso-a3":"URY","iso-a2":"UY","woe-id":"23424979","continent":"South America","hc-middle-lon":-54.469,"hc-middle-lat":-34.426}},{"type":"MultiPolygon","arcs":[[[-913,-285,-1243]],[[1243,1305,-917]],[[-1241,-282,-919]]],"id":"CNM","properties":{"hc-group":"admin0","hc-key":"cnm","hc-a2":"CN","name":"Cyprus No Mans Area","labelrank":"9","country-abbrev":null,"subregion":"Western Asia","region-wb":"Europe & Central Asia","iso-a3":"-99","iso-a2":null,"woe-id":"-99","continent":"Asia","hc-middle-lon":33.486,"hc-middle-lat":35.059}},{"type":"Polygon","arcs":[[1306,-166,-925,-168]],"id":"MN","properties":{"hc-group":"admin0","hc-key":"mn","hc-a2":"MN","name":"Mongolia","labelrank":"3","country-abbrev":"Mong.","subregion":"Eastern Asia","region-wb":"East Asia & Pacific","iso-a3":"MNG","iso-a2":"MN","woe-id":"23424887","continent":"Asia","hc-middle-lon":103.397,"hc-middle-lat":46.746}},{"type":"Polygon","arcs":[[-1196,1307,-1194,-1034,-603,1308]],"id":"RW","properties":{"hc-group":"admin0","hc-key":"rw","hc-a2":"RW","name":"Rwanda","labelrank":"3","country-abbrev":"Rwa.","subregion":"Eastern Africa","region-wb":"Sub-Saharan Africa","iso-a3":"RWA","iso-a2":"RW","woe-id":"23424937","continent":"Africa","hc-middle-lon":29.773,"hc-middle-lat":-2.039}},{"type":"MultiPolygon","arcs":[[[-1217,-911,1309,1310,1311,1312,1313,1314,1315]],[[1316,1317]]],"id":"CM","properties":{"hc-group":"admin0","hc-key":"cm","hc-a2":"CM","name":"Cameroon","labelrank":"3","country-abbrev":"Cam.","subregion":"Middle Africa","region-wb":"Sub-Saharan Africa","iso-a3":"CMR","iso-a2":"CM","woe-id":"23424785","continent":"Africa","hc-middle-lon":10.577,"hc-middle-lat":5.497}},{"type":"Polygon","arcs":[[-1316,1318,-1189,-1124,1319,-1218]],"id":"CG","properties":{"hc-group":"admin0","hc-key":"cg","hc-a2":"CG","name":"Republic of Congo","labelrank":"4","country-abbrev":"Rep. Congo","subregion":"Middle Africa","region-wb":"Sub-Saharan Africa","iso-a3":"COG","iso-a2":"CG","woe-id":"23424779","continent":"Africa","hc-middle-lon":12.215,"hc-middle-lat":-3.1}},{"type":"Polygon","arcs":[[1320,-1078,-1251,-1250]],"id":"EH","properties":{"hc-group":"admin0","hc-key":"eh","hc-a2":"EH","name":"Western Sahara","labelrank":"7","country-abbrev":"W. Sah.","subregion":"Northern Africa","region-wb":"Middle East & North Africa","iso-a3":"ESH","iso-a2":"EH","woe-id":"23424990","continent":"Africa","hc-middle-lon":-13.623,"hc-middle-lat":22.76}},{"type":"Polygon","arcs":[[-1153,1321,1322,1323,1324,1325,1326,-1279]],"id":"RS","properties":{"hc-group":"admin0","hc-key":"rs","hc-a2":"RS","name":"Republic of Serbia","labelrank":"5","country-abbrev":"Serb.","subregion":"Southern Europe","region-wb":"Europe & Central Asia","iso-a3":"SRB","iso-a2":"RS","woe-id":"-90","continent":"Europe","hc-middle-lon":20.668,"hc-middle-lat":44.144}},{"type":"Polygon","arcs":[[-1292,1327,1301,1328,-1301,1329,-1152,-1280,-1327,1330]],"id":"ME","properties":{"hc-group":"admin0","hc-key":"me","hc-a2":"ME","name":"Montenegro","labelrank":"6","country-abbrev":"Mont.","subregion":"Southern Europe","region-wb":"Europe & Central Asia","iso-a3":"MNE","iso-a2":"ME","woe-id":"20069817","continent":"Europe","hc-middle-lon":19.211,"hc-middle-lat":42.697}},{"type":"Polygon","arcs":[[1331,1332,1333,1334,1335]],"id":"BJ","properties":{"hc-group":"admin0","hc-key":"bj","hc-a2":"BJ","name":"Benin","labelrank":"5","country-abbrev":"Benin","subregion":"Western Africa","region-wb":"Sub-Saharan Africa","iso-a3":"BEN","iso-a2":"BJ","woe-id":"23424764","continent":"Africa","hc-middle-lon":2.512,"hc-middle-lat":9.31}},{"type":"Polygon","arcs":[[-1336,1336,1337,-1311,1338]],"id":"NG","properties":{"hc-group":"admin0","hc-key":"ng","hc-a2":"NG","name":"Nigeria","labelrank":"2","country-abbrev":"Nigeria","subregion":"Western Africa","region-wb":"Sub-Saharan Africa","iso-a3":"NGA","iso-a2":"NG","woe-id":"23424908","continent":"Africa","hc-middle-lon":8.66,"hc-middle-lat":10.723}},{"type":"Polygon","arcs":[[-1333,1339,-1272,1340]],"id":"TG","properties":{"hc-group":"admin0","hc-key":"tg","hc-a2":"TG","name":"Togo","labelrank":"6","country-abbrev":"Togo","subregion":"Western Africa","region-wb":"Sub-Saharan Africa","iso-a3":"TGO","iso-a2":"TG","woe-id":"23424965","continent":"Africa","hc-middle-lon":1.2,"hc-middle-lat":7.058}},{"type":"Polygon","arcs":[[-161,-1101,-812,-1233,-1071,-1063]],"id":"AF","properties":{"hc-group":"admin0","hc-key":"af","hc-a2":"AF","name":"Afghanistan","labelrank":"3","country-abbrev":"Afg.","subregion":"Southern Asia","region-wb":"South Asia","iso-a3":"AFG","iso-a2":"AF","woe-id":"23424739","continent":"Asia","hc-middle-lon":65.879,"hc-middle-lat":33.687}},{"type":"Polygon","arcs":[[1341,1342,1343,-931,1344,1345,1346,1347,1348],[1349],[1350]],"id":"UA","properties":{"hc-group":"admin0","hc-key":"ua","hc-a2":"UA","name":"Ukraine","labelrank":"3","country-abbrev":"Ukr.","subregion":"Eastern Europe","region-wb":"Europe & Central Asia","iso-a3":"UKR","iso-a2":"UA","woe-id":"23424976","continent":"Europe","hc-middle-lon":34.697,"hc-middle-lat":48.666}},{"type":"Polygon","arcs":[[-1342,1351,1352,1353,1354]],"id":"SK","properties":{"hc-group":"admin0","hc-key":"sk","hc-a2":"SK","name":"Slovakia","labelrank":"6","country-abbrev":"Svk.","subregion":"Eastern Europe","region-wb":"Europe & Central Asia","iso-a3":"SVK","iso-a2":"SK","woe-id":"23424877","continent":"Europe","hc-middle-lon":21.264,"hc-middle-lat":49.031}},{"type":"Polygon","arcs":[[-119,-1099,-159]],"id":"JK","properties":{"hc-group":"admin0","hc-key":"jk","hc-a2":"JK","name":"Siachen Glacier","labelrank":"5","country-abbrev":"Siachen","subregion":"Southern Asia","region-wb":"South Asia","iso-a3":"-99","iso-a2":"JK","woe-id":"23424928","continent":"Asia","hc-middle-lon":77.104,"hc-middle-lat":35.276}},{"type":"Polygon","arcs":[[1355,-646,-315,1356,-1324,1357]],"id":"BG","properties":{"hc-group":"admin0","hc-key":"bg","hc-a2":"BG","name":"Bulgaria","labelrank":"4","country-abbrev":"Bulg.","subregion":"Eastern Europe","region-wb":"Europe & Central Asia","iso-a3":"BGR","iso-a2":"BG","woe-id":"23424771","continent":"Europe","hc-middle-lon":27.059,"hc-middle-lat":42.673}},{"type":"Polygon","arcs":[[1358,-1092]],"id":"QA","properties":{"hc-group":"admin0","hc-key":"qa","hc-a2":"QA","name":"Qatar","labelrank":"5","country-abbrev":"Qatar","subregion":"Western Asia","region-wb":"Middle East & North Africa","iso-a3":"QAT","iso-a2":"QA","woe-id":"23424930","continent":"Asia","hc-middle-lon":51.134,"hc-middle-lat":25.341}},{"type":"Polygon","arcs":[[1359,1360]],"id":"LI","properties":{"hc-group":"admin0","hc-key":"li","hc-a2":"LI","name":"Liechtenstein","labelrank":"6","country-abbrev":"Liech.","subregion":"Western Europe","region-wb":"Europe & Central Asia","iso-a3":"LIE","iso-a2":"LI","woe-id":"23424879","continent":"Europe","hc-middle-lon":9.54,"hc-middle-lat":47.113}},{"type":"Polygon","arcs":[[-1360,1361,1362,-897,1363,-1353,1364,-1274,-877,1365]],"id":"AT","properties":{"hc-group":"admin0","hc-key":"at","hc-a2":"AT","name":"Austria","labelrank":"4","country-abbrev":"Aust.","subregion":"Western Europe","region-wb":"Europe & Central Asia","iso-a3":"AUT","iso-a2":"AT","woe-id":"23424750","continent":"Europe","hc-middle-lon":13.4,"hc-middle-lat":47.353}},{"type":"Polygon","arcs":[[-1133,-1164]],"id":"SZ","properties":{"hc-group":"admin0","hc-key":"sz","hc-a2":"SZ","name":"Eswatini","labelrank":"4","country-abbrev":"Swz.","subregion":"Southern Africa","region-wb":"Sub-Saharan Africa","iso-a3":"SWZ","iso-a2":"SZ","woe-id":"23424993","continent":"Africa","hc-middle-lon":31.45,"hc-middle-lat":-26.496}},{"type":"Polygon","arcs":[[-1349,1366,-1322,-1157,-1275,-1365,-1352]],"id":"HU","properties":{"hc-group":"admin0","hc-key":"hu","hc-a2":"HU","name":"Hungary","labelrank":"5","country-abbrev":"Hun.","subregion":"Eastern Europe","region-wb":"Europe & Central Asia","iso-a3":"HUN","iso-a2":"HU","woe-id":"23424844","continent":"Europe","hc-middle-lon":17.904,"hc-middle-lat":46.864}},{"type":"Polygon","arcs":[[-1367,-1348,1367,-1346,1368,-1358,-1323]],"id":"RO","properties":{"hc-group":"admin0","hc-key":"ro","hc-a2":"RO","name":"Romania","labelrank":"3","country-abbrev":"Rom.","subregion":"Eastern Europe","region-wb":"Europe & Central Asia","iso-a3":"ROU","iso-a2":"RO","woe-id":"23424933","continent":"Europe","hc-middle-lon":26.53,"hc-middle-lat":45.928}},{"type":"Polygon","arcs":[[-145,1369,-900]],"id":"LU","properties":{"hc-group":"admin0","hc-key":"lu","hc-a2":"LU","name":"Luxembourg","labelrank":"6","country-abbrev":"Lux.","subregion":"Western Europe","region-wb":"Europe & Central Asia","iso-a3":"LUX","iso-a2":"LU","woe-id":"23424881","continent":"Europe","hc-middle-lon":6.107,"hc-middle-lat":49.689}},{"type":"Polygon","arcs":[[-141,-253]],"id":"AD","properties":{"hc-group":"admin0","hc-key":"ad","hc-a2":"AD","name":"Andorra","labelrank":"6","country-abbrev":"And.","subregion":"Southern Europe","region-wb":"Europe & Central Asia","iso-a3":"AND","iso-a2":"AD","woe-id":"23424744","continent":"Europe","hc-middle-lon":1.594,"hc-middle-lat":42.514}},{"type":"MultiPolygon","arcs":[[[1370,1371,1372,1373,-1270,1374,1375],[1376]],[[1377,-1268]]],"id":"CI","properties":{"hc-group":"admin0","hc-key":"ci","hc-a2":"CI","name":"Ivory Coast","labelrank":"3","country-abbrev":"I.C.","subregion":"Western Africa","region-wb":"Sub-Saharan Africa","iso-a3":"CIV","iso-a2":"CI","woe-id":"23424854","continent":"Africa","hc-middle-lon":-5.694,"hc-middle-lat":5.766}},{"type":"Polygon","arcs":[[-1371,1378,1379,1380]],"id":"LR","properties":{"hc-group":"admin0","hc-key":"lr","hc-a2":"LR","name":"Liberia","labelrank":"4","country-abbrev":"Liberia","subregion":"Western Africa","region-wb":"Sub-Saharan Africa","iso-a3":"LBR","iso-a2":"LR","woe-id":"23424876","continent":"Africa","hc-middle-lon":-7.648,"hc-middle-lat":5.437}},{"type":"MultiPolygon","arcs":[[[1381,-793]],[[1382,-796]]],"id":"BN","properties":{"hc-group":"admin0","hc-key":"bn","hc-a2":"BN","name":"Brunei","labelrank":"6","country-abbrev":"Brunei","subregion":"South-Eastern Asia","region-wb":"East Asia & Pacific","iso-a3":"BRN","iso-a2":"BN","woe-id":"23424773","continent":"Asia","hc-middle-lon":114.554,"hc-middle-lat":4.464}},{"type":"Polygon","arcs":[[-1370,-144,1383,-626,1384,-628,-901]],"id":"BE","properties":{"hc-group":"admin0","hc-key":"be","hc-a2":"BE","name":"Belgium","labelrank":"2","country-abbrev":"Belg.","subregion":"Western Europe","region-wb":"Europe & Central Asia","iso-a3":"BEL","iso-a2":"BE","woe-id":"23424757","continent":"Europe","hc-middle-lon":4.475,"hc-middle-lat":50.702}},{"type":"Polygon","arcs":[[1385,-1199,-1097,-1286,1386,-648,-815]],"id":"IQ","properties":{"hc-group":"admin0","hc-key":"iq","hc-a2":"IQ","name":"Iraq","labelrank":"3","country-abbrev":"Iraq","subregion":"Western Asia","region-wb":"Middle East & North Africa","iso-a3":"IRQ","iso-a2":"IQ","woe-id":"23424855","continent":"Asia","hc-middle-lon":43.213,"hc-middle-lat":33.744}},{"type":"Polygon","arcs":[[-1060,-651,1387,-929,-1058]],"id":"GE","properties":{"hc-group":"admin0","hc-key":"ge","hc-a2":"GE","name":"Georgia","labelrank":"5","country-abbrev":"Geo.","subregion":"Western Asia","region-wb":"Europe & Central Asia","iso-a3":"GEO","iso-a2":"GE","woe-id":"23424823","continent":"Asia","hc-middle-lon":41.627,"hc-middle-lat":42.391}},{"type":"Polygon","arcs":[[1388,1389]],"id":"GM","properties":{"hc-group":"admin0","hc-key":"gm","hc-a2":"GM","name":"Gambia","labelrank":"6","country-abbrev":"Gambia","subregion":"Western Africa","region-wb":"Sub-Saharan Africa","iso-a3":"GMB","iso-a2":"GM","woe-id":"23424821","continent":"Africa","hc-middle-lon":-15.326,"hc-middle-lat":13.45}},{"type":"Polygon","arcs":[[1390,-1362,-1361,-1366,-876,-135,1391,-147,-899]],"id":"CH","properties":{"hc-group":"admin0","hc-key":"ch","hc-a2":"CH","name":"Switzerland","labelrank":"4","country-abbrev":"Switz.","subregion":"Western Europe","region-wb":"Europe & Central Asia","iso-a3":"CHE","iso-a2":"CH","woe-id":"23424957","continent":"Europe","hc-middle-lon":9.859,"hc-middle-lat":46.729}},{"type":"Polygon","arcs":[[1392,1393,-1312,-1338,1394,-1166,-1183,1395,-1314]],"id":"TD","properties":{"hc-group":"admin0","hc-key":"td","hc-a2":"TD","name":"Chad","labelrank":"3","country-abbrev":"Chad","subregion":"Middle Africa","region-wb":"Sub-Saharan Africa","iso-a3":"TCD","iso-a2":"TD","woe-id":"23424777","continent":"Africa","hc-middle-lon":18.369,"hc-middle-lat":13.459}},{"type":"Polygon","arcs":[[-1293,-1331,-1326,1396]],"id":"KV","properties":{"hc-group":"admin0","hc-key":"kv","hc-a2":"KV","name":"Kosovo","labelrank":"6","country-abbrev":"Kos.","subregion":"Southern Europe","region-wb":"Europe & Central Asia","iso-a3":"-99","iso-a2":"KV","woe-id":"-90","continent":"Europe","hc-middle-lon":20.856,"hc-middle-lat":42.492}},{"type":"Polygon","arcs":[[1397,1398,1399]],"id":"LB","properties":{"hc-group":"admin0","hc-key":"lb","hc-a2":"LB","name":"Lebanon","labelrank":"5","country-abbrev":"Leb.","subregion":"Western Asia","region-wb":"Middle East & North Africa","iso-a3":"LBN","iso-a2":"LB","woe-id":"23424873","continent":"Asia","hc-middle-lon":35.712,"hc-middle-lat":33.807}},{"type":"Polygon","arcs":[[-1262,1400,-1265,-1201,1401,-1231]],"id":"DJ","properties":{"hc-group":"admin0","hc-key":"dj","hc-a2":"DJ","name":"Djibouti","labelrank":"5","country-abbrev":"Dji.","subregion":"Eastern Africa","region-wb":"Middle East & North Africa","iso-a3":"DJI","iso-a2":"DJ","woe-id":"23424797","continent":"Africa","hc-middle-lon":42.602,"hc-middle-lat":11.72}},{"type":"Polygon","arcs":[[1402,-1197,-1309,-602]],"id":"BI","properties":{"hc-group":"admin0","hc-key":"bi","hc-a2":"BI","name":"Burundi","labelrank":"6","country-abbrev":"Bur.","subregion":"Eastern Africa","region-wb":"Sub-Saharan Africa","iso-a3":"BDI","iso-a2":"BI","woe-id":"23424774","continent":"Africa","hc-middle-lon":30.005,"hc-middle-lat":-3.302}},{"type":"Polygon","arcs":[[-1210,1403,1404,-151,-197]],"id":"SR","properties":{"hc-group":"admin0","hc-key":"sr","hc-a2":"SR","name":"Suriname","labelrank":"4","country-abbrev":"Sur.","subregion":"South America","region-wb":"Latin America & Caribbean","iso-a3":"SUR","iso-a2":"SR","woe-id":"23424913","continent":"South America","hc-middle-lon":-54.313,"hc-middle-lat":5.585}},{"type":"Polygon","arcs":[[1405,-1400,1406,-1284,1407,-1282,1408,-1288,1409,1410]],"id":"IL","properties":{"hc-group":"admin0","hc-key":"il","hc-a2":"IL","name":"Israel","labelrank":"4","country-abbrev":"Isr.","subregion":"Western Asia","region-wb":"Middle East & North Africa","iso-a3":"ISR","iso-a2":"IL","woe-id":"23424852","continent":"Asia","hc-middle-lon":35.308,"hc-middle-lat":32.996}},{"type":"Polygon","arcs":[[-1373,1411,1412,-1247,-1255,1413,1414]],"id":"ML","properties":{"hc-group":"admin0","hc-key":"ml","hc-a2":"ML","name":"Mali","labelrank":"3","country-abbrev":"Mali","subregion":"Western Africa","region-wb":"Sub-Saharan Africa","iso-a3":"MLI","iso-a2":"ML","woe-id":"23424891","continent":"Africa","hc-middle-lon":-2.528,"hc-middle-lat":19.432}},{"type":"Polygon","arcs":[[1415,-1390,1416,-1248,-1413,1417,1418]],"id":"SN","properties":{"hc-group":"admin0","hc-key":"sn","hc-a2":"SN","name":"Senegal","labelrank":"3","country-abbrev":"Sen.","subregion":"Western Africa","region-wb":"Sub-Saharan Africa","iso-a3":"SEN","iso-a2":"SN","woe-id":"23424943","continent":"Africa","hc-middle-lon":-16.101,"hc-middle-lat":14.461}},{"type":"Polygon","arcs":[[-1419,1419,1420]],"id":"GW","properties":{"hc-group":"admin0","hc-key":"gw","hc-a2":"GW","name":"Guinea Bissau","labelrank":"6","country-abbrev":"GnB.","subregion":"Western Africa","region-wb":"Sub-Saharan Africa","iso-a3":"GNB","iso-a2":"GW","woe-id":"23424929","continent":"Africa","hc-middle-lon":-15.069,"hc-middle-lat":11.809}},{"type":"Polygon","arcs":[[-1418,-1412,-1372,-1381,1421,1422,-1420]],"id":"GN","properties":{"hc-group":"admin0","hc-key":"gn","hc-a2":"GN","name":"Guinea","labelrank":"3","country-abbrev":"Gin.","subregion":"Western Africa","region-wb":"Sub-Saharan Africa","iso-a3":"GIN","iso-a2":"GN","woe-id":"23424835","continent":"Africa","hc-middle-lon":-13.089,"hc-middle-lat":9.772}},{"type":"Polygon","arcs":[[-1239,1423,-1237,-1135,-1163,1424]],"id":"ZW","properties":{"hc-group":"admin0","hc-key":"zw","hc-a2":"ZW","name":"Zimbabwe","labelrank":"3","country-abbrev":"Zimb.","subregion":"Eastern Africa","region-wb":"Sub-Saharan Africa","iso-a3":"ZWE","iso-a2":"ZW","woe-id":"23425004","continent":"Africa","hc-middle-lon":28.632,"hc-middle-lat":-19.88}},{"type":"Polygon","arcs":[[1425,-1018,-1259,1426,-1343,-1355,1427,-895,1428,-893,1429,-1013]],"id":"PL","properties":{"hc-group":"admin0","hc-key":"pl","hc-a2":"PL","name":"Poland","labelrank":"3","country-abbrev":"Pol.","subregion":"Eastern Europe","region-wb":"Europe & Central Asia","iso-a3":"POL","iso-a2":"PL","woe-id":"23424923","continent":"Europe","hc-middle-lon":19.209,"hc-middle-lat":53.251}},{"type":"MultiPolygon","arcs":[[[1430,1430,1430]],[[-1357,-314,1431,-1296,1432,-1294,-1397,-1325]]],"id":"MK","properties":{"hc-group":"admin0","hc-key":"mk","hc-a2":"MK","name":"North Macedonia","labelrank":"6","country-abbrev":"Mkd.","subregion":"Southern Europe","region-wb":"Europe & Central Asia","iso-a3":"MKD","iso-a2":"MK","woe-id":"23424890","continent":"Europe","hc-middle-lon":21.704,"hc-middle-lat":41.557}},{"type":"Polygon","arcs":[[1433,-189,-619,-1148,-191]],"id":"PY","properties":{"hc-group":"admin0","hc-key":"py","hc-a2":"PY","name":"Paraguay","labelrank":"4","country-abbrev":"Para.","subregion":"South America","region-wb":"Latin America & Caribbean","iso-a3":"PRY","iso-a2":"PY","woe-id":"23424917","continent":"South America","hc-middle-lon":-58.477,"hc-middle-lat":-23.369}},{"type":"Polygon","arcs":[[-1427,-1258,1434,-932,-1344]],"id":"BY","properties":{"hc-group":"admin0","hc-key":"by","hc-a2":"BY","name":"Belarus","labelrank":"4","country-abbrev":"Bela.","subregion":"Eastern Europe","region-wb":"Europe & Central Asia","iso-a3":"BLR","iso-a2":"BY","woe-id":"23424765","continent":"Europe","hc-middle-lon":28.008,"hc-middle-lat":53.738}},{"type":"Polygon","arcs":[[-1435,-1257,1435,-865,-933]],"id":"LV","properties":{"hc-group":"admin0","hc-key":"lv","hc-a2":"LV","name":"Latvia","labelrank":"5","country-abbrev":"Lat.","subregion":"Northern Europe","region-wb":"Europe & Central Asia","iso-a3":"LVA","iso-a2":"LV","woe-id":"23424874","continent":"Europe","hc-middle-lon":23.053,"hc-middle-lat":57.042}},{"type":"Polygon","arcs":[[-1407,-1399,1436,-649,-1387,-1285]],"id":"SY","properties":{"hc-group":"admin0","hc-key":"sy","hc-a2":"SY","name":"Syria","labelrank":"3","country-abbrev":"Syria","subregion":"Western Asia","region-wb":"Middle East & North Africa","iso-a3":"SYR","iso-a2":"SY","woe-id":"23424956","continent":"Asia","hc-middle-lon":37.401,"hc-middle-lat":34.605}},{"type":"Polygon","arcs":[[-1341,-1271,-1374,-1415,1437,-1334]],"id":"BF","properties":{"hc-group":"admin0","hc-key":"bf","hc-a2":"BF","name":"Burkina Faso","labelrank":"3","country-abbrev":"B.F.","subregion":"Western Africa","region-wb":"Sub-Saharan Africa","iso-a3":"BFA","iso-a2":"BF","woe-id":"23424978","continent":"Africa","hc-middle-lon":-0.445,"hc-middle-lat":12.738}},{"type":"Polygon","arcs":[[-1438,-1414,-1254,-1167,-1395,-1337,-1335]],"id":"NE","properties":{"hc-group":"admin0","hc-key":"ne","hc-a2":"NE","name":"Niger","labelrank":"3","country-abbrev":"Niger","subregion":"Western Africa","region-wb":"Sub-Saharan Africa","iso-a3":"NER","iso-a2":"NE","woe-id":"23424906","continent":"Africa","hc-middle-lon":10.258,"hc-middle-lat":17.3}},{"type":"Polygon","arcs":[[-1240,1438,-1161,1439,-1129]],"id":"NA","properties":{"hc-group":"admin0","hc-key":"na","hc-a2":"NA","name":"Namibia","labelrank":"3","country-abbrev":"Nam.","subregion":"Southern Africa","region-wb":"Sub-Saharan Africa","iso-a3":"NAM","iso-a2":"NA","woe-id":"23424987","continent":"Africa","hc-middle-lon":16.163,"hc-middle-lat":-21.445}},{"type":"Polygon","arcs":[[-1169,-1253,1440]],"id":"TN","properties":{"hc-group":"admin0","hc-key":"tn","hc-a2":"TN","name":"Tunisia","labelrank":"3","country-abbrev":"Tun.","subregion":"Northern Africa","region-wb":"Middle East & North Africa","iso-a3":"TUN","iso-a2":"TN","woe-id":"23424967","continent":"Africa","hc-middle-lon":9.179,"hc-middle-lat":36.684}},{"type":"Polygon","arcs":[[-1070,-1050,-163,-1065],[-1062],[-1067],[-1068]],"id":"KG","properties":{"hc-group":"admin0","hc-key":"kg","hc-a2":"KG","name":"Kyrgyzstan","labelrank":"4","country-abbrev":"Kgz.","subregion":"Central Asia","region-wb":"Europe & Central Asia","iso-a3":"KGZ","iso-a2":"KG","woe-id":"23424864","continent":"Asia","hc-middle-lon":74.535,"hc-middle-lat":41.443}},{"type":"Polygon","arcs":[[-1368,-1347]],"id":"MD","properties":{"hc-group":"admin0","hc-key":"md","hc-a2":"MD","name":"Moldova","labelrank":"6","country-abbrev":"Mda.","subregion":"Eastern Europe","region-wb":"Europe & Central Asia","iso-a3":"MDA","iso-a2":"MD","woe-id":"23424885","continent":"Europe","hc-middle-lon":28.423,"hc-middle-lat":47.199}},{"type":"Polygon","arcs":[[-1040,-1191,1441,-1181,-1264,-1105]],"id":"SS","properties":{"hc-group":"admin0","hc-key":"ss","hc-a2":"SS","name":"South Sudan","labelrank":"3","country-abbrev":"S. Sud.","subregion":"Eastern Africa","region-wb":"Sub-Saharan Africa","iso-a3":"SSD","iso-a2":"SS","woe-id":"-99","continent":"Africa","hc-middle-lon":29.898,"hc-middle-lat":7.154}},{"type":"Polygon","arcs":[[-1182,-1442,-1190,-1319,-1315,-1396]],"id":"CF","properties":{"hc-group":"admin0","hc-key":"cf","hc-a2":"CF","name":"Central African Republic","labelrank":"4","country-abbrev":"C.A.R.","subregion":"Middle Africa","region-wb":"Sub-Saharan Africa","iso-a3":"CAF","iso-a2":"CF","woe-id":"23424792","continent":"Africa","hc-middle-lon":20.499,"hc-middle-lat":6.979}},{"type":"Polygon","arcs":[[-1425,-1162,-1439]],"id":"BW","properties":{"hc-group":"admin0","hc-key":"bw","hc-a2":"BW","name":"Botswana","labelrank":"4","country-abbrev":"Bwa.","subregion":"Southern Africa","region-wb":"Sub-Saharan Africa","iso-a3":"BWA","iso-a2":"BW","woe-id":"23424755","continent":"Africa","hc-middle-lon":24.528,"hc-middle-lat":-23.274}},{"type":"Polygon","arcs":[[1442,-799]],"id":"SG","properties":{"hc-group":"admin0","hc-key":"sg","hc-a2":"SG","name":"Singapore","labelrank":"6","country-abbrev":"Sing.","subregion":"South-Eastern Asia","region-wb":"East Asia & Pacific","iso-a3":"SGP","iso-a2":"SG","woe-id":"23424948","continent":"Asia","hc-middle-lon":103.702,"hc-middle-lat":1.333}},{"type":"Polygon","arcs":[[1443,-1090,1444,-174]],"id":"VN","properties":{"hc-group":"admin0","hc-key":"vn","hc-a2":"VN","name":"Vietnam","labelrank":"2","country-abbrev":"Viet.","subregion":"South-Eastern Asia","region-wb":"East Asia & Pacific","iso-a3":"VNM","iso-a2":"VN","woe-id":"23424984","continent":"Asia","hc-middle-lon":106.329,"hc-middle-lat":10.415}},{"type":"Polygon","arcs":[[1445,-1422,-1380]],"id":"SL","properties":{"hc-group":"admin0","hc-key":"sl","hc-a2":"SL","name":"Sierra Leone","labelrank":"4","country-abbrev":"S.L.","subregion":"Western Africa","region-wb":"Sub-Saharan Africa","iso-a3":"SLE","iso-a2":"SL","woe-id":"23424946","continent":"Africa","hc-middle-lon":-11.84,"hc-middle-lat":8.507}},{"type":"Polygon","arcs":[[1446]],"id":"MG","properties":{"hc-group":"admin0","hc-key":"mg","hc-a2":"MG","name":"Madagascar","labelrank":"3","country-abbrev":"Mad.","subregion":"Eastern Africa","region-wb":"Sub-Saharan Africa","iso-a3":"MDG","iso-a2":"MG","woe-id":"23424883","continent":"Africa","hc-middle-lon":46.446,"hc-middle-lat":-18.562}},{"type":"Polygon","arcs":[[1447]],"id":"IS","properties":{"hc-group":"admin0","hc-key":"is","hc-a2":"IS","name":"Iceland","labelrank":"3","country-abbrev":"Iceland","subregion":"Northern Europe","region-wb":"Europe & Central Asia","iso-a3":"ISL","iso-a2":"IS","woe-id":"23424845","continent":"Europe","hc-middle-lon":-19.006,"hc-middle-lat":64.909}},{"type":"Polygon","arcs":[[1448,1449,1175,1450,1451,1172,1452,-1171,1453,-1411]],"id":"EG","properties":{"hc-group":"admin0","hc-key":"eg","hc-a2":"EG","name":"Egypt","labelrank":"2","country-abbrev":"Egypt","subregion":"Northern Africa","region-wb":"Middle East & North Africa","iso-a3":"EGY","iso-a2":"EG","woe-id":"23424802","continent":"Africa","hc-middle-lon":30.762,"hc-middle-lat":25.315}},{"type":"Polygon","arcs":[[1454]],"id":"LK","properties":{"hc-group":"admin0","hc-key":"lk","hc-a2":"LK","name":"Sri Lanka","labelrank":"3","country-abbrev":"Sri L.","subregion":"Southern Asia","region-wb":"South Asia","iso-a3":"LKA","iso-a2":"LK","woe-id":"23424778","continent":"Asia","hc-middle-lon":80.874,"hc-middle-lat":6.281}},{"type":"Polygon","arcs":[[-158,-121]],"id":"NP","properties":{"hc-group":"admin0","hc-key":"np","hc-a2":"NP","name":"Nepal","labelrank":"3","country-abbrev":"Nepal","subregion":"Southern Asia","region-wb":"South Asia","iso-a3":"NPL","iso-a2":"NP","woe-id":"23424911","continent":"Asia","hc-middle-lon":84.17,"hc-middle-lat":28.11}},{"type":"Polygon","arcs":[[-175,-1445,-1089,-855,-1215]],"id":"LA","properties":{"hc-group":"admin0","hc-key":"la","hc-a2":"LA","name":"Laos","labelrank":"4","country-abbrev":"Laos","subregion":"South-Eastern Asia","region-wb":"East Asia & Pacific","iso-a3":"LAO","iso-a2":"LA","woe-id":"23424872","continent":"Asia","hc-middle-lon":103.769,"hc-middle-lat":20.237}},{"type":"Polygon","arcs":[[-1428,-1354,-1364,-896]],"id":"CZ","properties":{"hc-group":"admin0","hc-key":"cz","hc-a2":"CZ","name":"Czech Republic","labelrank":"5","country-abbrev":"Cz. Rep.","subregion":"Eastern Europe","region-wb":"Europe & Central Asia","iso-a3":"CZE","iso-a2":"CZ","woe-id":"23424810","continent":"Europe","hc-middle-lon":15.445,"hc-middle-lat":49.768}},{"type":"Polygon","arcs":[[-112,-177]],"id":"BT","properties":{"hc-group":"admin0","hc-key":"bt","hc-a2":"BT","name":"Bhutan","labelrank":"5","country-abbrev":"Bhutan","subregion":"Southern Asia","region-wb":"South Asia","iso-a3":"BTN","iso-a2":"BT","woe-id":"23424770","continent":"Asia","hc-middle-lon":90.284,"hc-middle-lat":27.52}}],"hc-recommended-transform":{"default":{"crs":"+proj=mill +lat_0=0 +lon_0=0 +x_0=0 +y_0=0 +R_A +datum=WGS84 +units=m +no_defs","scale":0.0000170833333518,"jsonres":15.5,"jsonmarginX":-999,"jsonmarginY":9851,"xoffset":-19816494.5204,"yoffset":12635908.1982}}}},"arcs":[[[481315,841782],[-377,-476],[94,2851],[471,-316],[-188,-2059]],[[481598,846519],[377,1098],[377,-941],[-943,-1258],[-94,-945],[-754,1103],[-566,-630],[-1225,630],[1131,472],[189,942],[1508,-471]],[[50288,442646],[-94,0],[94,0]],[[43030,836994],[-1979,2081],[0,-959],[-660,640],[0,958],[-848,797],[377,795],[-943,0],[0,952],[943,317],[-849,950],[1320,316],[-377,1105],[1225,2984],[1508,1406],[-282,1557],[754,2016],[1225,927],[1037,-154],[1225,-1392],[660,155],[1414,1545],[565,1079],[-942,1076],[1885,-615],[-377,-461],[2733,615],[1131,1687],[-471,3656],[-1414,1212],[0,604],[1037,0],[848,905],[-283,1353],[-848,750],[-660,-1050],[-754,150],[-1319,-902],[-1131,-1206],[-566,-1210],[-94,1210],[-1131,1055],[-471,-452],[1036,-603],[-282,-756],[-1131,1209],[-2357,0],[-1791,-906],[-3204,1056],[-849,904],[283,1202],[-848,599],[-754,1346],[1225,-150],[471,1044],[566,0],[-2168,744],[-1319,148],[-1791,1187],[0,888],[2168,1475],[282,-295],[849,589],[282,882],[4053,2633],[1603,873],[1225,291],[1508,0],[-565,-2625],[754,-1172],[1508,0],[1036,293],[283,-440],[1320,147],[942,-441],[754,1760],[1603,-147],[-377,731],[-1037,584],[-1225,-438],[188,875],[-942,1599],[-755,435],[-377,1013],[849,433],[848,-1301],[-188,-725],[565,-1017],[754,-582],[1131,582],[1131,-1166],[1508,146],[95,1020],[-1886,1017],[-754,-290],[-942,-727],[-1037,1162],[0,869],[566,1445],[-849,144],[-1225,-433],[189,1153],[-660,-864],[-3111,576],[-282,1867],[-943,1857],[-3582,3122],[-1319,565],[-1037,1126],[-943,422],[754,702],[377,840],[0,2231],[1509,-139],[3675,556],[2074,1247],[1320,2070],[-95,1920],[377,1229],[1320,1767],[566,-135],[1225,2028],[94,-1215],[660,541],[848,0],[1320,674],[1885,1883],[660,-134],[-472,-1883],[660,404],[0,1479],[-660,402],[1226,1071],[1413,400],[-754,-534],[1226,0],[2639,401],[1319,800],[943,930],[1131,1590],[566,396],[471,-660],[2262,-530],[188,-796],[-754,-664],[-754,-133],[566,-933],[942,133],[95,667],[942,665],[189,664],[1414,-797],[-283,-932],[377,-400],[1225,-267],[660,667],[1602,266],[2734,-533],[282,-267],[-754,-802],[-377,-1072],[2545,0],[-754,-807],[1508,0],[660,-539],[94,539],[1037,404],[1225,0],[-188,-539],[1508,673],[1791,269],[754,-942],[848,0],[754,-808],[660,269],[1037,-404],[-94,-406],[1885,-541],[754,271],[2733,-135],[1602,-1221],[1980,-135],[2356,814],[1225,135],[1980,-814],[848,-1088],[1320,-273],[1131,-819],[1131,-410]],[[108726,899671],[0,-67031],[1225,-648],[377,648],[1131,-811],[943,973],[1602,162],[-283,-1947],[1320,-1303],[283,-979],[2733,-3610],[566,-2477],[1036,1158]],[[119659,823806],[377,-992],[943,-497],[1319,-2492],[0,-1167],[-754,-334],[-565,334],[-283,-836],[-565,1170],[-660,0],[-1508,1665],[-943,2157],[-754,1157],[-2545,1648],[-1885,1642],[1131,1147],[-471,1306],[283,1140],[-849,-1629],[-1131,-817],[-1036,0],[-2357,1306],[189,978],[-754,-489],[-849,489],[-2262,650],[-3487,-650],[-1414,-1141],[848,1141],[660,162],[-660,813],[-848,162],[-1037,811],[377,1133],[94,1613],[-942,-1775],[-94,-809],[-1226,971],[-1036,0],[848,1613],[-754,161],[-943,-483],[660,805],[-1791,-322],[1603,965],[-377,322],[-849,-482],[-848,160],[660,2084],[-849,-1121],[-1131,160],[472,-962],[-1131,321],[-943,-482],[-188,-1287],[-472,966],[-94,-966],[848,-2099],[472,970],[188,-808],[-848,-1134],[-943,1134],[0,-1134],[1131,-1137],[-377,-814],[-942,1464],[-189,-1301],[-1319,-326],[-943,489],[-188,-978],[-283,978],[-660,-1304],[-377,978],[0,-2123],[-471,818],[-283,-981],[-2828,-2462],[-282,-659],[-754,329],[-1320,-824],[-189,1318],[849,1150],[1319,820],[472,1309],[-1320,-981],[-1037,818],[377,1957],[849,1300],[377,2427],[-377,1128],[942,644],[1697,1765],[1131,-962],[565,481],[1980,-641],[-1320,801],[-1885,1919],[-754,479],[-1320,-1117],[-377,-800],[-848,-320],[-2356,-3700],[282,-808],[-1036,-1134],[-849,0],[943,-812],[-377,-1465],[-1508,-326],[660,-326],[-95,-817],[-754,-491],[-377,1144],[-848,-2620],[-943,-329],[-282,-2471],[1319,165],[1131,-992],[-282,-1326],[-755,-831],[-565,0],[-566,-998],[283,-834],[-942,-2007],[-660,-503],[-1225,0],[-189,-840],[-660,-505],[-188,-842],[-2262,-1688],[-943,-1355],[566,170],[0,-1018],[-566,-1361],[-660,510],[-1131,-2046],[-377,-1711],[-1225,1027],[-943,-685],[660,0],[94,-1888],[-377,1203],[-1036,0],[-377,-1031],[754,-344],[-849,-1378],[-565,0],[94,-1036],[-471,-692],[-660,519],[-1037,-865],[-377,-1214],[-94,1214],[-566,346],[-1979,-2603],[-1037,174],[-942,-1219],[-660,175],[-94,-872],[-566,-1399],[-471,700],[-1131,-525],[283,-1226],[-472,-351],[-754,1402],[-377,-876],[-1037,1401],[283,-1401],[-660,-877],[-94,2278],[1979,1920],[1132,2086],[1131,1386],[1131,519],[1131,-173],[565,-1559],[0,1213],[1508,-346],[-942,1038],[565,2069],[1791,2232],[754,343],[1414,1539],[848,-513],[-94,1876],[1037,2039],[1508,1861],[471,3869],[283,837],[0,1670],[1225,1830],[-94,1161],[-2922,-1992],[-1131,1660],[283,1820],[-1131,-2649],[188,-1497],[-94,-833],[-660,166],[-1508,3490],[-377,166],[-471,-1160],[-377,829],[-754,496],[-94,827],[-1320,-1489],[377,-332],[-566,-1660],[-471,-167],[0,998],[566,332],[-283,995],[-1131,-1161],[0,-499],[-1131,-665],[-283,665],[471,831],[-282,1821],[-660,1815],[942,1643],[-1696,4409],[-283,1946],[-471,-648],[377,-811],[-189,-1300],[-660,0],[-942,-978],[-1414,-490],[-1414,327],[0,1141],[-1037,1300],[-1413,1135],[-1226,1455],[1226,1128],[-95,644],[1037,803]],[[43030,836994],[0,-160],[0,-482],[1131,-161],[377,-966],[377,805],[472,-322],[94,-966],[1037,1127],[-1226,804],[754,161],[-659,641],[-377,-802],[-1697,0],[-283,161],[94,160],[-94,0]],[[68196,544801],[1414,-1882],[0,-941],[754,-1885],[-471,-943],[-1414,-1416],[-471,-1652],[-566,944],[-94,2360],[-471,2592],[659,2118],[-188,1410],[848,-705]],[[65557,547854],[189,1642],[-566,938],[1225,234],[660,-1875],[-1508,-939]],[[64615,550434],[-95,-1407],[-471,2812],[-471,702],[1508,-468],[-471,-1639]],[[61787,555347],[754,-2104],[-1320,0],[-471,1870],[848,934],[189,-700]],[[57640,559779],[282,-466],[-377,-2099],[-942,933],[188,1166],[849,466]],[[309111,716248],[-188,797],[660,398],[0,-1195],[-472,0]],[[310242,717045],[-188,994],[283,794],[471,-397],[-566,-1391]],[[158775,747970],[377,-570],[-942,760],[94,760],[471,-950]],[[159058,749488],[283,-189],[-283,-569],[-471,379],[471,379]],[[6554,770903],[-1131,1278],[754,365],[848,-730],[0,-548],[942,366],[660,730],[-188,-1096],[-1885,-365]],[[10984,773639],[659,-364],[-377,-911],[-2262,-2010],[94,1462],[1509,183],[377,1640]],[[17770,774003],[1414,-364],[-1603,-182],[-565,728],[-1037,-182],[-188,-546],[-1132,0],[1509,1092],[0,1270],[565,182],[1037,-1998]],[[33699,784455],[565,-357],[-94,-1073],[-1225,-895],[-566,-1436],[-1319,-1260],[942,2875],[566,-179],[188,1611],[943,714]],[[40297,788369],[-660,-710],[-660,710],[1414,1239],[1791,-1594],[-754,0],[-471,886],[-660,-531]],[[131630,794010],[282,0],[-94,-1053],[-377,1053],[189,0]],[[45575,795061],[471,0],[660,-1928],[-754,-1231],[-1414,0],[-660,-1058],[-1225,-529],[-471,1410],[754,704],[471,1406],[848,0],[1320,1226]],[[131441,795936],[377,-875],[-188,-350],[-377,175],[188,1050]],[[130687,795936],[377,-1575],[754,-1932],[-1319,1756],[-95,2100],[283,-349]],[[135494,795586],[-94,-875],[-660,0],[189,1923],[565,-1048]],[[57263,796460],[0,-1399],[-377,175],[-1131,874],[1508,350]],[[130122,796983],[94,-698],[-471,-175],[0,873],[377,0]],[[54529,796983],[472,523],[0,-1046],[-566,-874],[-754,0],[-94,1397],[471,523],[471,-523]],[[134175,797680],[471,-872],[-283,-1047],[-283,1571],[95,348]],[[129179,797854],[566,348],[-95,-870],[-565,-698],[94,1220]],[[130122,797854],[-95,-174],[-377,696],[472,0],[0,-522]],[[135871,801497],[754,-2252],[-94,-1739],[-660,-1570],[-565,524],[377,1394],[-660,-1046],[-848,1220],[848,1911],[-189,1212],[1037,346]],[[128614,801151],[377,1209],[1131,518],[-283,-863],[-1225,-864]],[[132289,803223],[1132,-690],[-566,-1382],[-471,1209],[-472,-172],[-188,1207],[471,860],[94,-1032]],[[131912,804942],[0,-1031],[-659,-344],[-472,688],[283,859],[848,-172]],[[133232,804427],[660,-1032],[-377,-690],[-849,1034],[0,1718],[566,-1030]],[[131253,807511],[942,-1540],[-660,-514],[-471,0],[189,2054]],[[123807,810746],[-189,-1700],[-566,-170],[283,1361],[-283,1018],[755,-509]],[[121639,816315],[-283,-1176],[-283,504],[189,1175],[377,-503]],[[127105,818157],[283,-669],[-942,334],[94,836],[565,-501]],[[76302,820158],[848,499],[-282,-1832],[942,167],[471,-1170],[-471,-669],[-471,836],[-94,-1004],[-1885,-1006],[-1131,671],[848,1507],[942,0],[-282,1001],[565,1000]],[[90723,832154],[754,162],[0,810],[754,-324],[-1508,-2762],[0,-489],[-1037,-653],[377,1631],[943,975],[-283,650]],[[39071,833288],[1132,-648],[-95,-1623],[472,-651],[-1697,-1141],[-1320,326],[-1508,1141],[-754,1137],[1603,163],[1131,1296],[1036,0]],[[94399,833611],[-1225,-1295],[-377,972],[282,647],[2357,807],[-1037,-1131]],[[256517,740325],[-1414,-1733],[-471,-1350],[-565,1736],[565,962],[1037,770],[848,-385]],[[254349,745686],[-377,-954],[-1319,-1338],[-283,574],[1979,1718]],[[258685,725549],[-283,-1772],[-659,-1973],[-283,987],[377,1381],[848,1377]],[[262738,728687],[0,-1175],[-377,-196],[189,1175],[188,196]],[[268111,730641],[94,-977],[-754,0],[283,782],[377,195]],[[299780,695030],[94,-615],[-848,-1026],[-1319,-822],[-3017,-1234],[189,1440],[1225,1232],[2357,205],[754,1025],[565,-205]],[[38789,787304],[-1037,-1779],[1319,890],[-1413,-2317],[-2357,-1431],[-1131,-179],[1980,1253],[0,1071],[659,713],[-754,890],[377,711],[1131,356],[95,-1244],[659,1244],[472,-178]],[[123430,811594],[848,1353],[660,-507],[848,-1524],[660,-3918],[-189,-3948],[-1037,2579],[283,342],[-471,1882],[-660,0],[-94,682],[565,681],[-565,511],[188,1019],[-565,0],[-471,848]],[[123430,811594],[-849,1184],[-283,1182],[-848,1010],[283,1177],[-283,671],[1225,502],[377,837],[2545,-1842],[-94,-1513],[-848,-168],[-1697,1513],[943,-1177],[471,-842],[1225,337],[283,-2025],[-660,-169],[-1979,2194],[566,-1349],[-377,-1522]],[[125503,818157],[0,835],[660,-1672],[1414,-167],[848,-2351],[-188,-842],[-566,2187],[-377,671],[0,-1848],[1037,-1516],[-94,-2199],[-566,508],[0,-1357],[-1225,-1360],[0,1530],[377,1187],[-472,1522],[-377,3700],[-471,1172]],[[29552,854761],[2262,-462],[-283,-1081],[-1319,155],[-1320,-1548],[-189,1084],[-1131,1081],[-1319,925],[-1131,154],[-849,-770],[-848,462],[-377,923],[377,1993],[660,-1379],[1508,-153],[848,766],[943,153],[565,-613],[0,-921],[1603,-769]],[[158587,751570],[-189,-189],[0,189]],[[158398,751570],[189,0]],[[224753,590894],[-94,2731],[-660,682]],[[223999,594307],[-188,3858],[-943,1585],[-565,2487],[-566,903],[-1131,6077],[-1037,2467]],[[219569,611684],[-282,448],[-189,448]],[[219098,612580],[-471,1342],[-1980,224],[-565,670],[-1037,-1118],[-565,-3359],[-754,-2020],[-377,0],[-1414,2020],[-754,448],[-1226,2240],[-471,2012],[0,1786],[-565,2673],[-1320,2000],[-1791,3990],[-471,443],[-471,1989],[-472,220],[-4712,0],[0,-3094],[-7918,0],[-10462,8378],[283,1536],[-6598,-1316]],[[174987,633644],[-377,1097],[-189,3066],[-565,1529],[-1697,3052],[-471,-436],[-189,-1961],[-471,436],[377,2614],[-377,1304],[-754,-217],[-1131,1085],[-1414,-1303],[-1037,-434],[-565,869],[1319,217],[-94,2603],[-1602,216],[-566,1082],[0,3886],[-659,646],[-95,1506],[-1036,1503],[-1037,3640],[-660,1069],[-189,1919],[472,1702],[-377,1275],[-754,212],[-566,1273],[-283,4229],[1131,-2323],[-1131,4640],[0,-2106],[-1131,1475],[283,421],[-848,2521],[-1697,3559],[-283,2920],[189,1664],[-189,1867],[-1413,3104],[-189,1238],[848,4112],[95,3071],[-377,3871],[-566,2435],[0,2428],[-377,1210],[1131,7622],[189,6752],[471,5119],[-189,4692],[660,-194],[754,779],[-1696,-195],[0,2720],[188,-1358],[283,2134],[-566,0],[0,1161],[849,386],[-1037,580],[-660,5000],[-660,1149],[-188,1909],[377,1524],[1508,-1524],[2168,-381],[754,-573],[754,382],[660,-2294],[-189,-2687],[283,769],[377,3257],[283,191],[-472,2289],[-565,571],[-377,-1142],[1037,-1909],[-566,191],[-565,1718],[471,1142],[-189,190],[566,1520],[-848,1894],[0,756]],[[159341,751570],[15307,0],[15307,0],[15307,0],[15306,0],[15307,0],[0,2639],[943,-377],[377,-3586],[471,-758],[1791,-379],[283,-949],[1414,760],[1696,-570],[754,-2282],[943,761],[942,-1715],[754,-382],[1414,1336],[472,-954],[1790,191],[566,-955],[943,191]],[[251428,744541],[-1414,-1338],[-1226,-766],[-1319,-1535],[-1414,-2695],[-1602,-2319],[377,-775],[2073,1162],[660,773],[1225,0],[-754,-580],[189,-1355],[848,-776],[1037,776],[660,968],[1131,194],[1225,1160],[848,1543],[566,-1736],[0,-1354],[565,967],[1697,-774],[754,-2132],[1131,0],[1037,-388],[1225,1552],[1697,0],[1602,581],[-283,-1745],[1603,-582]],[[265566,733367],[1037,582],[0,-1360]],[[266603,732589],[-472,-974],[1037,-1365],[-377,-390],[-1697,781],[-282,-1563],[-754,1172],[-1508,586],[-283,-781],[-1603,-195],[-377,-1173],[-942,-783],[377,1565],[-1131,-1369],[0,1369],[-1602,-5101],[-189,-1379],[-565,-395],[-566,-2769],[754,792],[377,1187],[848,-198],[-659,-3567],[188,-596],[-660,-2191],[95,-1598],[-566,-3005],[377,-3420],[-188,-3639],[754,-3657],[754,-1019],[754,204],[1036,1426],[754,2843],[472,3237],[0,1814],[-943,4616],[283,1200],[-189,2194],[660,1988],[0,2379],[566,1582],[660,197],[565,1774],[-94,-2366],[660,395],[94,2168],[1131,1180],[-283,1767],[848,1175],[566,195],[1320,-2351],[1602,-982],[565,-1969],[-377,-591],[472,-2174],[-189,-2577],[-471,-597],[-189,-1393],[-754,-597],[-94,-2197],[566,-400],[565,600],[660,1997],[942,597],[660,-996],[377,-4603],[377,-1809]],[[271315,708840],[-282,-2620],[-378,-808]],[[270655,705412],[-471,808],[-188,-1820],[-566,-810]],[[269430,703590],[-471,-2639],[-566,-1425],[2640,-2449],[1319,817],[1037,204],[848,1428],[2734,2034],[2450,2840],[943,1214],[754,2018],[-94,604]],[[281024,708236],[-472,1208]],[[280552,709444],[0,1205]],[[280552,710649],[1037,602],[1697,201],[1508,-1003],[2356,602],[754,1403],[660,400],[-94,1999],[-377,1993],[471,597]],[[288564,717443],[0,198]],[[288564,717641],[1131,1787]],[[289695,719428],[1414,2574],[1037,987],[471,0]],[[292617,722989],[8954,0],[566,2167],[1319,589],[1508,3529],[-94,1367],[660,2531],[188,1941],[2168,5404],[471,-192],[377,-1733],[1603,1348],[377,-192],[1131,-1927],[0,-7961],[0,-1369]],[[311845,728491],[377,-1175],[660,0]],[[312882,727316],[-95,-2357],[754,-787]],[[313541,724172],[566,-2566],[-848,-1187],[-660,0],[-943,-792],[-565,-1389],[-94,992],[-660,0],[-472,-1589],[-848,795],[189,1191],[-660,-794],[-189,-2385],[-848,-797],[-1319,-1997],[-95,999],[-1037,-999],[95,-1000],[-1037,-1804],[-566,-2815],[0,-1411],[566,-606],[-1320,-2226],[849,-608],[565,-3047],[754,-611],[943,814],[0,-1222],[-1226,-204],[-377,-1837],[-848,-818],[0,1227],[566,2040],[-849,-1224],[-1413,-612],[-377,-2045],[-95,1227],[-1225,-818],[0,614],[-2356,-614],[-1980,-1639],[-1131,-1848],[-565,-2264],[659,-207],[-282,-4757],[-472,-1661],[-471,208],[0,-1248],[-1508,-3128],[189,1461],[-660,417],[-1131,2082],[377,-3124],[848,-1881],[0,-3563],[-660,-2946],[-471,-422],[-1037,-3381],[-188,1692],[848,2743],[-660,210],[377,842],[-848,841],[-754,1680],[848,629],[-848,1466],[565,836],[-377,2088],[849,3121],[-1226,-2704],[-377,-3550],[0,-2515],[566,-2313],[-1414,1473],[1602,-2526],[-188,-2109],[-660,0],[848,-1269],[-659,-1270],[659,-1060],[-471,-1061],[-66