{"type":"Topology","objects":{"default":{"type":"GeometryCollection","geometries":[{"type":"MultiPolygon","arcs":[[[0,1,2,3],[4],[5]],[[6]],[[7]],[[8]],[[9]],[[10]],[[11]],[[12]],[[13]],[[14]],[[15]],[[16]],[[17]],[[18]],[[19]],[[20]],[[21]],[[22]],[[23]],[[24]],[[25]],[[26]],[[27]],[[28,-29,29]],[[30]],[[31]]],"id":"GL","properties":{"hc-group":"admin0","hc-key":"gl","hc-a2":"GL","name":"Greenland","labelrank":"3","country-abbrev":"Grlnd.","subregion":"Northern America","region-wb":"Europe & Central Asia","iso-a3":"GRL","iso-a2":"GL","woe-id":"23424828","continent":"North America","hc-middle-lon":-40.247,"hc-middle-lat":76.037}},{"type":"Polygon","arcs":[[32]],"id":"SH","properties":{"hc-group":"admin0","hc-key":"sh","hc-a2":"SH","name":"Scarborough Reef","labelrank":"6","country-abbrev":"S.R.","subregion":"South-Eastern Asia","region-wb":"East Asia & Pacific","iso-a3":"-99","iso-a2":"SH","woe-id":"-99","continent":"Asia","hc-middle-lon":117.616,"hc-middle-lat":15.144}},{"type":"Polygon","arcs":[[33]],"id":"BU","properties":{"hc-group":"admin0","hc-key":"bu","hc-a2":"BU","name":"Bajo Nuevo Bank (Petrel Is.)","labelrank":"8","country-abbrev":null,"subregion":"Caribbean","region-wb":"Latin America & Caribbean","iso-a3":"-99","iso-a2":"BU","woe-id":"-99","continent":"North America","hc-middle-lon":-79.901,"hc-middle-lat":15.777}},{"type":"Polygon","arcs":[[34]],"id":"LK","properties":{"hc-group":"admin0","hc-key":"lk","hc-a2":"LK","name":"Sri Lanka","labelrank":"3","country-abbrev":"Sri L.","subregion":"Southern Asia","region-wb":"South Asia","iso-a3":"LKA","iso-a2":"LK","woe-id":"23424778","continent":"Asia","hc-middle-lon":81.085,"hc-middle-lat":6.434}},{"type":"Polygon","arcs":[[35]],"id":"AS","properties":{"hc-group":"admin0","hc-key":"as","hc-a2":"AS","name":"American Samoa","labelrank":"4","country-abbrev":"Am. Samoa","subregion":"Polynesia","region-wb":"East Asia & Pacific","iso-a3":"ASM","iso-a2":"AS","woe-id":"23424746","continent":"Oceania","hc-middle-lon":-170.52,"hc-middle-lat":-14.31}},{"type":"MultiPolygon","arcs":[[[36]],[[37]],[[38]],[[39,40]]],"id":"DK","properties":{"hc-group":"admin0","hc-key":"dk","hc-a2":"DK","name":"Denmark","labelrank":"4","country-abbrev":"Den.","subregion":"Northern Europe","region-wb":"Europe & Central Asia","iso-a3":"DNK","iso-a2":"DK","woe-id":"23424796","continent":"Europe","hc-middle-lon":9.443,"hc-middle-lat":56.345}},{"type":"Polygon","arcs":[[41]],"id":"FO","properties":{"hc-group":"admin0","hc-key":"fo","hc-a2":"FO","name":"Faroe Islands","labelrank":"6","country-abbrev":"Faeroe Is.","subregion":"Northern Europe","region-wb":"Europe & Central Asia","iso-a3":"FRO","iso-a2":"FO","woe-id":"23424816","continent":"Europe","hc-middle-lon":-6.888,"hc-middle-lat":62.172}},{"type":"Polygon","arcs":[[42]],"id":"GU","properties":{"hc-group":"admin0","hc-key":"gu","hc-a2":"GU","name":"Guam","labelrank":"6","country-abbrev":"Guam","subregion":"Micronesia","region-wb":"East Asia & Pacific","iso-a3":"GUM","iso-a2":"GU","woe-id":"23424832","continent":"Oceania","hc-middle-lon":144.585,"hc-middle-lat":13.458}},{"type":"Polygon","arcs":[[43]],"id":"MP","properties":{"hc-group":"admin0","hc-key":"mp","hc-a2":"MP","name":"Northern Mariana Islands","labelrank":"6","country-abbrev":"N.M.I.","subregion":"Micronesia","region-wb":"East Asia & Pacific","iso-a3":"MNP","iso-a2":"MP","woe-id":"23424788","continent":"Oceania","hc-middle-lon":145.574,"hc-middle-lat":15.144}},{"type":"Polygon","arcs":[[44]],"id":"UM","properties":{"hc-group":"admin0","hc-key":"um","hc-a2":"UM","name":"United States Minor Outlying Islands","labelrank":"5","country-abbrev":"U.S. MOI","subregion":"Seven seas (open ocean)","region-wb":"East Asia & Pacific","iso-a3":"UMI","iso-a2":"UM","woe-id":"28289407","continent":"North America","hc-middle-lon":-161.883,"hc-middle-lat":5.879}},{"type":"MultiPolygon","arcs":[[[45,46,47,48,49],[50]],[[51]],[[52]],[[53]],[[54]],[[55]],[[56]],[[57]],[[58]],[[59]],[[60]],[[61]],[[62]],[[63]],[[64]],[[65]],[[66]],[[67,68,69,70,71,72,73,74,75,76,77,78,79,80,81,82,83,84,85,86,87,88,89]],[[90,91]],[[92]],[[93]],[[94]]],"id":"US","properties":{"hc-group":"admin0","hc-key":"us","hc-a2":"US","name":"United States of America","labelrank":"2","country-abbrev":"U.S.A.","subregion":"Northern America","region-wb":"North America","iso-a3":"USA","iso-a2":"US","woe-id":"23424977","continent":"North America","hc-middle-lon":-100.192,"hc-middle-lat":39.464}},{"type":"Polygon","arcs":[[95]],"id":"VI","properties":{"hc-group":"admin0","hc-key":"vi","hc-a2":"VI","name":"United States Virgin Islands","labelrank":"6","country-abbrev":"V.I. (U.S.)","subregion":"Caribbean","region-wb":"Latin America & Caribbean","iso-a3":"VIR","iso-a2":"VI","woe-id":"23424985","continent":"North America","hc-middle-lon":-64.651,"hc-middle-lat":17.719}},{"type":"MultiPolygon","arcs":[[[-74,96,-73,97,-71,98,-69,99,-90,100,-88,101,-86,102,-92,103,-47,104,-50,105,106,-78,107,-76,108],[109,110]],[[111],[112]],[[113],[114]],[[115]],[[116]],[[117]],[[118]],[[119]],[[120]],[[121]],[[122]],[[123]],[[124]],[[125]],[[126]],[[127]],[[128]],[[129]],[[130]],[[131]],[[132]],[[133]],[[134]],[[135]],[[136]],[[137]],[[138]],[[139]],[[140]],[[141]],[[142]],[[143]],[[144]],[[145]],[[146]],[[147]],[[148]],[[149]],[[150]],[[151]],[[152]],[[153]],[[154]],[[155]],[[156]],[[157]],[[158]],[[159]],[[160]],[[161]],[[162]],[[163]],[[164]],[[165]],[[166]],[[167]],[[168]],[[169]],[[170]],[[171]],[[172]],[[173]],[[174]],[[175]],[[176]],[[177]],[[178]],[[179]],[[180]]],"id":"CA","properties":{"hc-group":"admin0","hc-key":"ca","hc-a2":"CA","name":"Canada","labelrank":"2","country-abbrev":"Can.","subregion":"Northern America","region-wb":"North America","iso-a3":"CAN","iso-a2":"CA","woe-id":"23424775","continent":"North America","hc-middle-lon":-116.997,"hc-middle-lat":60.32}},{"type":"Polygon","arcs":[[181]],"id":"ST","properties":{"hc-group":"admin0","hc-key":"st","hc-a2":"ST","name":"Sao Tome and Principe","labelrank":"6","country-abbrev":"S.T.P.","subregion":"Middle Africa","region-wb":"Sub-Saharan Africa","iso-a3":"STP","iso-a2":"ST","woe-id":"23424966","continent":"Africa","hc-middle-lon":6.609,"hc-middle-lat":0.233}},{"type":"MultiPolygon","arcs":[[[182]],[[183]],[[184]],[[185]]],"id":"JP","properties":{"hc-group":"admin0","hc-key":"jp","hc-a2":"JP","name":"Japan","labelrank":"2","country-abbrev":"Japan","subregion":"Eastern Asia","region-wb":"East Asia & Pacific","iso-a3":"JPN","iso-a2":"JP","woe-id":"23424856","continent":"Asia","hc-middle-lon":139.872,"hc-middle-lat":38.088}},{"type":"Polygon","arcs":[[186]],"id":"CV","properties":{"hc-group":"admin0","hc-key":"cv","hc-a2":"CV","name":"Cape Verde","labelrank":"4","country-abbrev":"C.Vd.","subregion":"Western Africa","region-wb":"Sub-Saharan Africa","iso-a3":"CPV","iso-a2":"CV","woe-id":"23424794","continent":"Africa","hc-middle-lon":-23.872,"hc-middle-lat":15.075}},{"type":"Polygon","arcs":[[187]],"id":"DM","properties":{"hc-group":"admin0","hc-key":"dm","hc-a2":"DM","name":"Dominica","labelrank":"6","country-abbrev":"D'inca","subregion":"Caribbean","region-wb":"Latin America & Caribbean","iso-a3":"DMA","iso-a2":"DM","woe-id":"23424798","continent":"North America","hc-middle-lon":-61.34,"hc-middle-lat":15.381}},{"type":"Polygon","arcs":[[188]],"id":"SC","properties":{"hc-group":"admin0","hc-key":"sc","hc-a2":"SC","name":"Seychelles","labelrank":"6","country-abbrev":"Syc.","subregion":"Eastern Africa","region-wb":"Sub-Saharan Africa","iso-a3":"SYC","iso-a2":"SC","woe-id":"23424941","continent":"Seven seas (open ocean)","hc-middle-lon":55.411,"hc-middle-lat":-4.66}},{"type":"MultiPolygon","arcs":[[[189]],[[190]],[[191]]],"id":"NZ","properties":{"hc-group":"admin0","hc-key":"nz","hc-a2":"NZ","name":"New Zealand","labelrank":"2","country-abbrev":"N.Z.","subregion":"Australia and New Zealand","region-wb":"East Asia & Pacific","iso-a3":"NZL","iso-a2":"NZ","woe-id":"23424916","continent":"Oceania","hc-middle-lon":169.44,"hc-middle-lat":-44.772}},{"type":"MultiPolygon","arcs":[[[192]],[[193,194,195]]],"id":"YE","properties":{"hc-group":"admin0","hc-key":"ye","hc-a2":"YE","name":"Yemen","labelrank":"3","country-abbrev":"Yem.","subregion":"Western Asia","region-wb":"Middle East & North Africa","iso-a3":"YEM","iso-a2":"YE","woe-id":"23425002","continent":"Asia","hc-middle-lon":46.172,"hc-middle-lat":15.544}},{"type":"Polygon","arcs":[[196]],"id":"JM","properties":{"hc-group":"admin0","hc-key":"jm","hc-a2":"JM","name":"Jamaica","labelrank":"4","country-abbrev":"Jam.","subregion":"Caribbean","region-wb":"Latin America & Caribbean","iso-a3":"JAM","iso-a2":"JM","woe-id":"23424858","continent":"North America","hc-middle-lon":-77.187,"hc-middle-lat":18.076}},{"type":"Polygon","arcs":[[197]],"id":"WS","properties":{"hc-group":"admin0","hc-key":"ws","hc-a2":"WS","name":"Samoa","labelrank":"4","country-abbrev":"Samoa","subregion":"Polynesia","region-wb":"East Asia & Pacific","iso-a3":"WSM","iso-a2":"WS","woe-id":"23424992","continent":"Oceania","hc-middle-lon":-172.295,"hc-middle-lat":-13.612}},{"type":"MultiPolygon","arcs":[[[198]],[[199,200]],[[201,202,203,-194]]],"id":"OM","properties":{"hc-group":"admin0","hc-key":"om","hc-a2":"OM","name":"Oman","labelrank":"4","country-abbrev":"Oman","subregion":"Western Asia","region-wb":"Middle East & North Africa","iso-a3":"OMN","iso-a2":"OM","woe-id":"23424898","continent":"Asia","hc-middle-lon":58.88,"hc-middle-lat":22.016}},{"type":"MultiPolygon","arcs":[[[204]],[[205,206,207,208,209,210,211,212,213,214,215,216]]],"id":"IN","properties":{"hc-group":"admin0","hc-key":"in","hc-a2":"IN","name":"India","labelrank":"2","country-abbrev":"India","subregion":"Southern Asia","region-wb":"South Asia","iso-a3":"IND","iso-a2":"IN","woe-id":"23424848","continent":"Asia","hc-middle-lon":78.306,"hc-middle-lat":23.842}},{"type":"Polygon","arcs":[[217]],"id":"VC","properties":{"hc-group":"admin0","hc-key":"vc","hc-a2":"VC","name":"Saint Vincent and the Grenadines","labelrank":"6","country-abbrev":"St.V.G.","subregion":"Caribbean","region-wb":"Latin America & Caribbean","iso-a3":"VCT","iso-a2":"VC","woe-id":"23424981","continent":"North America","hc-middle-lon":-61.138,"hc-middle-lat":13.203}},{"type":"MultiPolygon","arcs":[[[218]],[[219,-217,220,221]]],"id":"BD","properties":{"hc-group":"admin0","hc-key":"bd","hc-a2":"BD","name":"Bangladesh","labelrank":"3","country-abbrev":"Bang.","subregion":"Southern Asia","region-wb":"South Asia","iso-a3":"BGD","iso-a2":"BD","woe-id":"23424759","continent":"Asia","hc-middle-lon":91.853,"hc-middle-lat":23.204}},{"type":"MultiPolygon","arcs":[[[222]],[[223]],[[224]],[[225]],[[226]],[[227,228]],[[229]],[[230]]],"id":"SB","properties":{"hc-group":"admin0","hc-key":"sb","hc-a2":"SB","name":"Solomon Islands","labelrank":"3","country-abbrev":"S. Is.","subregion":"Melanesia","region-wb":"East Asia & Pacific","iso-a3":"SLB","iso-a2":"SB","woe-id":"23424766","continent":"Oceania","hc-middle-lon":160.005,"hc-middle-lat":-9.575}},{"type":"Polygon","arcs":[[231]],"id":"LC","properties":{"hc-group":"admin0","hc-key":"lc","hc-a2":"LC","name":"Saint Lucia","labelrank":"6","country-abbrev":"S.L.","subregion":"Caribbean","region-wb":"Latin America & Caribbean","iso-a3":"LCA","iso-a2":"LC","woe-id":"23424951","continent":"North America","hc-middle-lon":-60.921,"hc-middle-lat":13.897}},{"type":"MultiPolygon","arcs":[[[232]],[[233]],[[234]],[[235]],[[236]],[[237,238]],[[239,240,241,242,243,244,245,246,247,248,249,250,251,252,253,254,255,256,257],[258]],[[259,260,261]]],"id":"FR","properties":{"hc-group":"admin0","hc-key":"fr","hc-a2":"FR","name":"France","labelrank":"2","country-abbrev":"Fr.","subregion":"Western Europe","region-wb":"Europe & Central Asia","iso-a3":"FRA","iso-a2":"FR","woe-id":"-90","continent":"Europe","hc-middle-lon":3.941,"hc-middle-lat":46.789}},{"type":"Polygon","arcs":[[262]],"id":"NR","properties":{"hc-group":"admin0","hc-key":"nr","hc-a2":"NR","name":"Nauru","labelrank":"6","country-abbrev":"Nauru","subregion":"Micronesia","region-wb":"East Asia & Pacific","iso-a3":"NRU","iso-a2":"NR","woe-id":"23424912","continent":"Oceania","hc-middle-lon":166.759,"hc-middle-lat":-0.518}},{"type":"MultiPolygon","arcs":[[[263]],[[264]],[[265]],[[266]],[[267]],[[268]],[[269]],[[270]],[[271]],[[272]],[[273]],[[274]],[[275]],[[276]],[[277]],[[278,279,280,281]],[[282,282,282]],[[283]],[[284]],[[285]],[[286]]],"id":"NO","properties":{"hc-group":"admin0","hc-key":"no","hc-a2":"NO","name":"Norway","labelrank":"3","country-abbrev":"Nor.","subregion":"Northern Europe","region-wb":"Europe & Central Asia","iso-a3":"NOR","iso-a2":"NO","woe-id":"-90","continent":"Europe","hc-middle-lon":8.415,"hc-middle-lat":60.476}},{"type":"Polygon","arcs":[[287]],"id":"FM","properties":{"hc-group":"admin0","hc-key":"fm","hc-a2":"FM","name":"Federated States of Micronesia","labelrank":"6","country-abbrev":"F.S.M.","subregion":"Micronesia","region-wb":"East Asia & Pacific","iso-a3":"FSM","iso-a2":"FM","woe-id":"23424815","continent":"Oceania","hc-middle-lon":158.09,"hc-middle-lat":6.862}},{"type":"Polygon","arcs":[[288]],"id":"KN","properties":{"hc-group":"admin0","hc-key":"kn","hc-a2":"KN","name":"Saint Kitts and Nevis","labelrank":"6","country-abbrev":"St.K.N.","subregion":"Caribbean","region-wb":"Latin America & Caribbean","iso-a3":"KNA","iso-a2":"KN","woe-id":"23424940","continent":"North America","hc-middle-lon":-62.647,"hc-middle-lat":17.286}},{"type":"MultiPolygon","arcs":[[[289]],[[290]],[[-213,291,-211,292,293,294,295,296,297,298,299,300,301,302,303,304,305,306,307,308,309,-215,310]]],"id":"CN","properties":{"hc-group":"admin0","hc-key":"cn","hc-a2":"CN","name":"China","labelrank":"2","country-abbrev":"China","subregion":"Eastern Asia","region-wb":"East Asia & Pacific","iso-a3":"CHN","iso-a2":"CN","woe-id":"23424781","continent":"Asia","hc-middle-lon":99.175,"hc-middle-lat":35.295}},{"type":"Polygon","arcs":[[311]],"id":"BH","properties":{"hc-group":"admin0","hc-key":"bh","hc-a2":"BH","name":"Bahrain","labelrank":"4","country-abbrev":"Bahr.","subregion":"Western Asia","region-wb":"Middle East & North Africa","iso-a3":"BHR","iso-a2":"BH","woe-id":"23424753","continent":"Asia","hc-middle-lon":50.485,"hc-middle-lat":25.994}},{"type":"Polygon","arcs":[[312]],"id":"TO","properties":{"hc-group":"admin0","hc-key":"to","hc-a2":"TO","name":"Tonga","labelrank":"4","country-abbrev":"Tongo","subregion":"Polynesia","region-wb":"East Asia & Pacific","iso-a3":"TON","iso-a2":"TO","woe-id":"23424964","continent":"Oceania","hc-middle-lon":-174.963,"hc-middle-lat":-21.192}},{"type":"MultiPolygon","arcs":[[[313]],[[314,315,-280,316]]],"id":"FI","properties":{"hc-group":"admin0","hc-key":"fi","hc-a2":"FI","name":"Finland","labelrank":"3","country-abbrev":"Fin.","subregion":"Northern Europe","region-wb":"Europe & Central Asia","iso-a3":"FIN","iso-a2":"FI","woe-id":"23424812","continent":"Europe","hc-middle-lon":26.037,"hc-middle-lat":62.739}},{"type":"MultiPolygon","arcs":[[[317]],[[318]],[[319]],[[320]],[[321]],[[322]],[[323]],[[324]],[[325]],[[326]],[[327]],[[328]],[[329]],[[330]],[[331]],[[332]],[[333]],[[334]],[[335]],[[336]],[[337]],[[338]],[[339]],[[340]],[[341]],[[342,343,344,345]],[[346,347]],[[348,349]],[[350]],[[351]],[[352]],[[353]],[[354]],[[355,356]]],"id":"ID","properties":{"hc-group":"admin0","hc-key":"id","hc-a2":"ID","name":"Indonesia","labelrank":"2","country-abbrev":"Indo.","subregion":"South-Eastern Asia","region-wb":"East Asia & Pacific","iso-a3":"IDN","iso-a2":"ID","woe-id":"23424846","continent":"Asia","hc-middle-lon":112.468,"hc-middle-lat":-0.99}},{"type":"Polygon","arcs":[[357]],"id":"MU","properties":{"hc-group":"admin0","hc-key":"mu","hc-a2":"MU","name":"Mauritius","labelrank":"5","country-abbrev":"Mus.","subregion":"Eastern Africa","region-wb":"Sub-Saharan Africa","iso-a3":"MUS","iso-a2":"MU","woe-id":"23424894","continent":"Seven seas (open ocean)","hc-middle-lon":57.519,"hc-middle-lat":-20.273}},{"type":"MultiPolygon","arcs":[[[358]],[[359]],[[360,-281,-316]]],"id":"SE","properties":{"hc-group":"admin0","hc-key":"se","hc-a2":"SE","name":"Sweden","labelrank":"3","country-abbrev":"Swe.","subregion":"Northern Europe","region-wb":"Europe & Central Asia","iso-a3":"SWE","iso-a2":"SE","woe-id":"23424954","continent":"Europe","hc-middle-lon":18.926,"hc-middle-lat":65.333}},{"type":"Polygon","arcs":[[361]],"id":"TT","properties":{"hc-group":"admin0","hc-key":"tt","hc-a2":"TT","name":"Trinidad and Tobago","labelrank":"5","country-abbrev":"Tr.T.","subregion":"Caribbean","region-wb":"Latin America & Caribbean","iso-a3":"TTO","iso-a2":"TT","woe-id":"23424958","continent":"North America","hc-middle-lon":-61.103,"hc-middle-lat":10.437}},{"type":"Polygon","arcs":[[362]],"id":"SW","properties":{"hc-group":"admin0","hc-key":"sw","hc-a2":"SW","name":"Serranilla Bank","labelrank":"5","country-abbrev":"S.B.","subregion":"Caribbean","region-wb":"Latin America & Caribbean","iso-a3":"-99","iso-a2":"SW","woe-id":"-99","continent":"North America","hc-middle-lon":-78.544,"hc-middle-lat":15.844}},{"type":"MultiPolygon","arcs":[[[363]],[[364]],[[365,366,367,368,369,370,371,372,373,374,375,376,-261,377,378]]],"id":"BR","properties":{"hc-group":"admin0","hc-key":"br","hc-a2":"BR","name":"Brazil","labelrank":"2","country-abbrev":"Brazil","subregion":"South America","region-wb":"Latin America & Caribbean","iso-a3":"BRA","iso-a2":"BR","woe-id":"23424768","continent":"South America","hc-middle-lon":-52.77,"hc-middle-lat":-8.829}},{"type":"MultiPolygon","arcs":[[[379]],[[380]],[[381]],[[382,383]],[[384]],[[385]]],"id":"BS","properties":{"hc-group":"admin0","hc-key":"bs","hc-a2":"BS","name":"The Bahamas","labelrank":"4","country-abbrev":"Bhs.","subregion":"Caribbean","region-wb":"Latin America & Caribbean","iso-a3":"BHS","iso-a2":"BS","woe-id":"23424758","continent":"North America","hc-middle-lon":-77.862,"hc-middle-lat":24.763}},{"type":"Polygon","arcs":[[386]],"id":"PW","properties":{"hc-group":"admin0","hc-key":"pw","hc-a2":"PW","name":"Palau","labelrank":"6","country-abbrev":"Palau","subregion":"Micronesia","region-wb":"East Asia & Pacific","iso-a3":"PLW","iso-a2":"PW","woe-id":"23424927","continent":"Oceania","hc-middle-lon":134.403,"hc-middle-lat":7.471}},{"type":"MultiPolygon","arcs":[[[387]],[[388,389,390]]],"id":"EC","properties":{"hc-group":"admin0","hc-key":"ec","hc-a2":"EC","name":"Ecuador","labelrank":"3","country-abbrev":"Ecu.","subregion":"South America","region-wb":"Latin America & Caribbean","iso-a3":"ECU","iso-a2":"EC","woe-id":"23424801","continent":"South America","hc-middle-lon":-79.197,"hc-middle-lat":0.267}},{"type":"MultiPolygon","arcs":[[[391]],[[392]],[[393]],[[394]],[[395]],[[396]]],"id":"AU","properties":{"hc-group":"admin0","hc-key":"au","hc-a2":"AU","name":"Australia","labelrank":"2","country-abbrev":"Auz.","subregion":"Australia and New Zealand","region-wb":"East Asia & Pacific","iso-a3":"AUS","iso-a2":"AU","woe-id":"-90","continent":"Oceania","hc-middle-lon":135.153,"hc-middle-lat":-25.365}},{"type":"Polygon","arcs":[[397]],"id":"TV","properties":{"hc-group":"admin0","hc-key":"tv","hc-a2":"TV","name":"Tuvalu","labelrank":"6","country-abbrev":"Tuv.","subregion":"Polynesia","region-wb":"East Asia & Pacific","iso-a3":"TUV","iso-a2":"TV","woe-id":"23424970","continent":"Oceania","hc-middle-lon":179.006,"hc-middle-lat":-8.489}},{"type":"Polygon","arcs":[[398]],"id":"MH","properties":{"hc-group":"admin0","hc-key":"mh","hc-a2":"MH","name":"Marshall Islands","labelrank":"6","country-abbrev":"M. Is.","subregion":"Micronesia","region-wb":"East Asia & Pacific","iso-a3":"MHL","iso-a2":"MH","woe-id":"23424932","continent":"Oceania","hc-middle-lon":170.98,"hc-middle-lat":7.079}},{"type":"MultiPolygon","arcs":[[[399,400,401,402,403,404],[405],[406]],[[407]],[[408]],[[409]],[[410]],[[411]],[[412]],[[413]],[[414]],[[415]],[[416]],[[417]],[[418]],[[419]],[[420]],[[421,422,423,424]]],"id":"CL","properties":{"hc-group":"admin0","hc-key":"cl","hc-a2":"CL","name":"Chile","labelrank":"2","country-abbrev":"Chile","subregion":"South America","region-wb":"Latin America & Caribbean","iso-a3":"CHL","iso-a2":"CL","woe-id":"23424782","continent":"South America","hc-middle-lon":-71.822,"hc-middle-lat":-53.577}},{"type":"Polygon","arcs":[[425]],"id":"KI","properties":{"hc-group":"admin0","hc-key":"ki","hc-a2":"KI","name":"Kiribati","labelrank":"6","country-abbrev":"Kir.","subregion":"Micronesia","region-wb":"East Asia & Pacific","iso-a3":"KIR","iso-a2":"KI","woe-id":"23424867","continent":"Oceania","hc-middle-lon":-157.203,"hc-middle-lat":1.831}},{"type":"MultiPolygon","arcs":[[[426]],[[427]],[[428]],[[429]],[[430]],[[431]],[[432]],[[433]],[[434]],[[435]]],"id":"PH","properties":{"hc-group":"admin0","hc-key":"ph","hc-a2":"PH","name":"Philippines","labelrank":"2","country-abbrev":"Phil.","subregion":"South-Eastern Asia","region-wb":"East Asia & Pacific","iso-a3":"PHL","iso-a2":"PH","woe-id":"23424934","continent":"Asia","hc-middle-lon":120.998,"hc-middle-lat":16.697}},{"type":"Polygon","arcs":[[436]],"id":"GD","properties":{"hc-group":"admin0","hc-key":"gd","hc-a2":"GD","name":"Grenada","labelrank":"6","country-abbrev":"Gren.","subregion":"Caribbean","region-wb":"Latin America & Caribbean","iso-a3":"GRD","iso-a2":"GD","woe-id":"23424826","continent":"North America","hc-middle-lon":-61.6,"hc-middle-lat":12.109}},{"type":"MultiPolygon","arcs":[[[437]],[[438]],[[439,440,441,442,443,444,445,446,447]]],"id":"EE","properties":{"hc-group":"admin0","hc-key":"ee","hc-a2":"EE","name":"Estonia","labelrank":"6","country-abbrev":"Est.","subregion":"Northern Europe","region-wb":"Europe & Central Asia","iso-a3":"EST","iso-a2":"EE","woe-id":"23424805","continent":"Europe","hc-middle-lon":24.052,"hc-middle-lat":58.723}},{"type":"Polygon","arcs":[[448]],"id":"AG","properties":{"hc-group":"admin0","hc-key":"ag","hc-a2":"AG","name":"Antigua and Barbuda","labelrank":"6","country-abbrev":"Ant.B.","subregion":"Caribbean","region-wb":"Latin America & Caribbean","iso-a3":"ATG","iso-a2":"AG","woe-id":"23424737","continent":"North America","hc-middle-lon":-61.716,"hc-middle-lat":17.053}},{"type":"MultiPolygon","arcs":[[[449]],[[450]],[[451]],[[-259]],[[452,453]],[[454,455]],[[456,457,458,-245,459,-243,460,461]]],"id":"ES","properties":{"hc-group":"admin0","hc-key":"es","hc-a2":"ES","name":"Spain","labelrank":"2","country-abbrev":"Sp.","subregion":"Southern Europe","region-wb":"Europe & Central Asia","iso-a3":"ESP","iso-a2":"ES","woe-id":"23424950","continent":"Europe","hc-middle-lon":-1.495,"hc-middle-lat":39.59}},{"type":"Polygon","arcs":[[462]],"id":"BB","properties":{"hc-group":"admin0","hc-key":"bb","hc-a2":"BB","name":"Barbados","labelrank":"5","country-abbrev":"Barb.","subregion":"Caribbean","region-wb":"Latin America & Caribbean","iso-a3":"BRB","iso-a2":"BB","woe-id":"23424754","continent":"North America","hc-middle-lon":-59.518,"hc-middle-lat":13.168}},{"type":"MultiPolygon","arcs":[[[463]],[[464]],[[-258,465,466,467,468],[469],[470]]],"id":"IT","properties":{"hc-group":"admin0","hc-key":"it","hc-a2":"IT","name":"Italy","labelrank":"2","country-abbrev":"Italy","subregion":"Southern Europe","region-wb":"Europe & Central Asia","iso-a3":"ITA","iso-a2":"IT","woe-id":"23424853","continent":"Europe","hc-middle-lon":12.073,"hc-middle-lat":42.323}},{"type":"Polygon","arcs":[[471]],"id":"MT","properties":{"hc-group":"admin0","hc-key":"mt","hc-a2":"MT","name":"Malta","labelrank":"5","country-abbrev":"Malta","subregion":"Southern Europe","region-wb":"Middle East & North Africa","iso-a3":"MLT","iso-a2":"MT","woe-id":"23424897","continent":"Europe","hc-middle-lon":14.409,"hc-middle-lat":35.876}},{"type":"Polygon","arcs":[[472]],"id":"MV","properties":{"hc-group":"admin0","hc-key":"mv","hc-a2":"MV","name":"Maldives","labelrank":"5","country-abbrev":"Mald.","subregion":"Southern Asia","region-wb":"South Asia","iso-a3":"MDV","iso-a2":"MV","woe-id":"23424899","continent":"Seven seas (open ocean)","hc-middle-lon":73.378,"hc-middle-lat":1.93}},{"type":"Polygon","arcs":[[473]],"id":"SP","properties":{"hc-group":"admin0","hc-key":"sp","hc-a2":"SP","name":"Spratly Islands","labelrank":"6","country-abbrev":"Spratly Is.","subregion":"South-Eastern Asia","region-wb":"East Asia & Pacific","iso-a3":"-99","iso-a2":"SP","woe-id":"23424921","continent":"Asia","hc-middle-lon":115.682,"hc-middle-lat":10.711}},{"type":"MultiPolygon","arcs":[[[474]],[[475]],[[476]],[[-349,477]],[[478]]],"id":"PG","properties":{"hc-group":"admin0","hc-key":"pg","hc-a2":"PG","name":"Papua New Guinea","labelrank":"2","country-abbrev":"P.N.G.","subregion":"Melanesia","region-wb":"East Asia & Pacific","iso-a3":"PNG","iso-a2":"PG","woe-id":"23424926","continent":"Oceania","hc-middle-lon":142.498,"hc-middle-lat":-6.139}},{"type":"MultiPolygon","arcs":[[[479]],[[480]]],"id":"VU","properties":{"hc-group":"admin0","hc-key":"vu","hc-a2":"VU","name":"Vanuatu","labelrank":"4","country-abbrev":"Van.","subregion":"Melanesia","region-wb":"East Asia & Pacific","iso-a3":"VUT","iso-a2":"VU","woe-id":"23424907","continent":"Oceania","hc-middle-lon":167.268,"hc-middle-lat":-16.303}},{"type":"Polygon","arcs":[[481]],"id":"SG","properties":{"hc-group":"admin0","hc-key":"sg","hc-a2":"SG","name":"Singapore","labelrank":"6","country-abbrev":"Sing.","subregion":"South-Eastern Asia","region-wb":"East Asia & Pacific","iso-a3":"SGP","iso-a2":"SG","woe-id":"23424948","continent":"Asia","hc-middle-lon":103.71,"hc-middle-lat":1.329}},{"type":"MultiPolygon","arcs":[[[482]],[[483]],[[484]],[[485]],[[486]],[[487]],[[488]],[[489,490,491,492,493,494,495,496,497],[498,-499,499]],[[500,-462]],[[501,502]],[[503,503,503]],[[504,505]],[[506]]],"id":"GB","properties":{"hc-group":"admin0","hc-key":"gb","hc-a2":"GB","name":"United Kingdom","labelrank":"2","country-abbrev":"U.K.","subregion":"Northern Europe","region-wb":"Europe & Central Asia","iso-a3":"GBR","iso-a2":"GB","woe-id":"-90","continent":"Europe","hc-middle-lon":-2.257,"hc-middle-lat":52.551}},{"type":"MultiPolygon","arcs":[[[498,-499,499]],[[-491,490,499]],[[507,-498,508]],[[509,-503,510,511,512,513,-493]]],"id":"CY","properties":{"hc-group":"admin0","hc-key":"cy","hc-a2":"CY","name":"Cyprus","labelrank":"5","country-abbrev":"Cyp.","subregion":"Western Asia","region-wb":"Europe & Central Asia","iso-a3":"CYP","iso-a2":"CY","woe-id":"-90","continent":"Asia","hc-middle-lon":32.96,"hc-middle-lat":34.874}},{"type":"MultiPolygon","arcs":[[[514]],[[515]],[[516]],[[517]],[[518]],[[519,520,521,522,523,524,525,526]]],"id":"GR","properties":{"hc-group":"admin0","hc-key":"gr","hc-a2":"GR","name":"Greece","labelrank":"3","country-abbrev":"Greece","subregion":"Southern Europe","region-wb":"Europe & Central Asia","iso-a3":"GRC","iso-a2":"GR","woe-id":"23424833","continent":"Europe","hc-middle-lon":22.437,"hc-middle-lat":36.697}},{"type":"Polygon","arcs":[[527]],"id":"KM","properties":{"hc-group":"admin0","hc-key":"km","hc-a2":"KM","name":"Comoros","labelrank":"6","country-abbrev":"Com.","subregion":"Eastern Africa","region-wb":"Sub-Saharan Africa","iso-a3":"COM","iso-a2":"KM","woe-id":"23424786","continent":"Africa","hc-middle-lon":43.292,"hc-middle-lat":-11.639}},{"type":"MultiPolygon","arcs":[[[528]],[[529,529,529]],[[530]],[[531]]],"id":"FJ","properties":{"hc-group":"admin0","hc-key":"fj","hc-a2":"FJ","name":"Fiji","labelrank":"6","country-abbrev":"Fiji","subregion":"Melanesia","region-wb":"East Asia & Pacific","iso-a3":"FJI","iso-a2":"FJ","woe-id":"23424813","continent":"Oceania","hc-middle-lon":177.708,"hc-middle-lat":-17.723}},{"type":"MultiPolygon","arcs":[[[532]],[[533]],[[534]],[[535]],[[536]],[[537]],[[538]],[[539]],[[540]],[[541]],[[542]],[[543]],[[544]],[[545]],[[546]],[[547]],[[548]],[[549]],[[550]],[[551]],[[552]],[[553]],[[554]],[[555]],[[556]],[[557]],[[558]],[[559]],[[560]],[[561]],[[562]],[[563]],[[564]],[[565]],[[566]],[[567]],[[568]],[[569]],[[570]],[[571]],[[572]],[[573]],[[574]],[[575]],[[576]],[[577]],[[578]],[[579]],[[580]],[[581]],[[582]],[[583]],[[584]],[[585]],[[586]],[[587]],[[-305,588,-303,589,-299,590,591,592,593,594,595,596,597,598,599,600,601,602,603,604,605,606,607,608,609,610,611,612,613,614,615,616,617,618,619,620,621,622,623,624,625,626,627,628,629,630,631,632,633,634,635,636,637,638,639,640,641,642,643,644,645,646,647,648,649,650,651,652,653,654,655,656,657,658,659,660,661,662,663,664,665,666,667,668,669,670,671,-445,672,-443,673,-441,674,-448,675,-317,-279,676,677]],[[678,679,680,681,682,683]],[[684,685,686]],[[687,688]],[[689]],[[690]],[[691]],[[692]],[[693]],[[694]],[[695]],[[696]],[[697]]],"id":"RU","properties":{"hc-group":"admin0","hc-key":"ru","hc-a2":"RU","name":"Russia","labelrank":"2","country-abbrev":"Rus.","subregion":"Eastern Europe","region-wb":"Europe & Central Asia","iso-a3":"RUS","iso-a2":"RU","woe-id":"23424936","continent":"Europe","hc-middle-lon":118.481,"hc-middle-lat":62.192}},{"type":"Polygon","arcs":[[469]],"id":"VA","properties":{"hc-group":"admin0","hc-key":"va","hc-a2":"VA","name":"Vatican","labelrank":"6","country-abbrev":"Vat.","subregion":"Southern Europe","region-wb":"Europe & Central Asia","iso-a3":"VAT","iso-a2":"VA","woe-id":"23424986","continent":"Europe","hc-middle-lon":12.446,"hc-middle-lat":41.854}},{"type":"Polygon","arcs":[[-471]],"id":"SM","properties":{"hc-group":"admin0","hc-key":"sm","hc-a2":"SM","name":"San Marino","labelrank":"6","country-abbrev":"S.M.","subregion":"Southern Europe","region-wb":"Europe & Central Asia","iso-a3":"SMR","iso-a2":"SM","woe-id":"23424947","continent":"Europe","hc-middle-lon":12.427,"hc-middle-lat":43.897}},{"type":"MultiPolygon","arcs":[[[698]],[[699,700,701,702,703],[704],[705]]],"id":"AM","properties":{"hc-group":"admin0","hc-key":"am","hc-a2":"AM","name":"Armenia","labelrank":"6","country-abbrev":"Arm.","subregion":"Western Asia","region-wb":"Europe & Central Asia","iso-a3":"ARM","iso-a2":"AM","woe-id":"23424743","continent":"Asia","hc-middle-lon":43.695,"hc-middle-lat":40.969}},{"type":"MultiPolygon","arcs":[[[-705]],[[-706]],[[706,-662,707,708,-704,709,-664],[-699]],[[710,-701,711]]],"id":"AZ","properties":{"hc-group":"admin0","hc-key":"az","hc-a2":"AZ","name":"Azerbaijan","labelrank":"5","country-abbrev":"Aze.","subregion":"Western Asia","region-wb":"Europe & Central Asia","iso-a3":"AZE","iso-a2":"AZ","woe-id":"23424741","continent":"Asia","hc-middle-lon":48.628,"hc-middle-lat":41.338}},{"type":"Polygon","arcs":[[712]],"id":"LS","properties":{"hc-group":"admin0","hc-key":"ls","hc-a2":"LS","name":"Lesotho","labelrank":"6","country-abbrev":"Les.","subregion":"Southern Africa","region-wb":"Sub-Saharan Africa","iso-a3":"LSO","iso-a2":"LS","woe-id":"23424880","continent":"Africa","hc-middle-lon":28.204,"hc-middle-lat":-29.544}},{"type":"MultiPolygon","arcs":[[[713]],[[714]],[[-296,715,716,717]]],"id":"TJ","properties":{"hc-group":"admin0","hc-key":"tj","hc-a2":"TJ","name":"Tajikistan","labelrank":"4","country-abbrev":"Tjk.","subregion":"Central Asia","region-wb":"Europe & Central Asia","iso-a3":"TJK","iso-a2":"TJ","woe-id":"23424961","continent":"Asia","hc-middle-lon":71.016,"hc-middle-lat":38.834}},{"type":"Polygon","arcs":[[718,719,720,721,722,723,724]],"id":"ML","properties":{"hc-group":"admin0","hc-key":"ml","hc-a2":"ML","name":"Mali","labelrank":"3","country-abbrev":"Mali","subregion":"Western Africa","region-wb":"Sub-Saharan Africa","iso-a3":"MLI","iso-a2":"ML","woe-id":"23424891","continent":"Africa","hc-middle-lon":-2.524,"hc-middle-lat":19.43}},{"type":"Polygon","arcs":[[725,726,727,728,729,730,731,-725]],"id":"DZ","properties":{"hc-group":"admin0","hc-key":"dz","hc-a2":"DZ","name":"Algeria","labelrank":"3","country-abbrev":"Alg.","subregion":"Northern Africa","region-wb":"Middle East & North Africa","iso-a3":"DZA","iso-a2":"DZ","woe-id":"23424740","continent":"Africa","hc-middle-lon":4.339,"hc-middle-lat":28.424}},{"type":"MultiPolygon","arcs":[[[732]],[[733]],[[734,735,736,-717,737,738,739,740,741,742,743],[-714]]],"id":"UZ","properties":{"hc-group":"admin0","hc-key":"uz","hc-a2":"UZ","name":"Uzbekistan","labelrank":"3","country-abbrev":"Uzb.","subregion":"Central Asia","region-wb":"Europe & Central Asia","iso-a3":"UZB","iso-a2":"UZ","woe-id":"23424980","continent":"Asia","hc-middle-lon":63.786,"hc-middle-lat":41.163}},{"type":"Polygon","arcs":[[744,745,746,747,748,749,750,751,752,753,754,755,756,757,758,759,760,761,762]],"id":"TZ","properties":{"hc-group":"admin0","hc-key":"tz","hc-a2":"TZ","name":"United Republic of Tanzania","labelrank":"3","country-abbrev":"Tanz.","subregion":"Eastern Africa","region-wb":"Sub-Saharan Africa","iso-a3":"TZA","iso-a2":"TZ","woe-id":"23424973","continent":"Africa","hc-middle-lon":36.601,"hc-middle-lat":-7.566}},{"type":"MultiPolygon","arcs":[[[763,-424]],[[764,765]],[[766,402]],[[767,768,769,-402,770,771,-368,772]]],"id":"AR","properties":{"hc-group":"admin0","hc-key":"ar","hc-a2":"AR","name":"Argentina","labelrank":"2","country-abbrev":"Arg.","subregion":"South America","region-wb":"Latin America & Caribbean","iso-a3":"ARG","iso-a2":"AR","woe-id":"23424747","continent":"South America","hc-middle-lon":-64.542,"hc-middle-lat":-31.657}},{"type":"Polygon","arcs":[[773,774,-202,-196,775,776,777,778,779,780]],"id":"SA","properties":{"hc-group":"admin0","hc-key":"sa","hc-a2":"SA","name":"Saudi Arabia","labelrank":"2","country-abbrev":"Saud.","subregion":"Western Asia","region-wb":"Middle East & North Africa","iso-a3":"SAU","iso-a2":"SA","woe-id":"23424938","continent":"Asia","hc-middle-lon":43.615,"hc-middle-lat":24.535}},{"type":"MultiPolygon","arcs":[[[781,-239]],[[782,783]],[[784,785,786],[787]]],"id":"NL","properties":{"hc-group":"admin0","hc-key":"nl","hc-a2":"NL","name":"Netherlands","labelrank":"5","country-abbrev":"Neth.","subregion":"Western Europe","region-wb":"Europe & Central Asia","iso-a3":"NLD","iso-a2":"NL","woe-id":"-90","continent":"Europe","hc-middle-lon":6.485,"hc-middle-lat":53.502}},{"type":"Polygon","arcs":[[788,-203,-775,789,-201],[-199]],"id":"AE","properties":{"hc-group":"admin0","hc-key":"ae","hc-a2":"AE","name":"United Arab Emirates","labelrank":"4","country-abbrev":"U.A.E.","subregion":"Western Asia","region-wb":"Middle East & North Africa","iso-a3":"ARE","iso-a2":"AE","woe-id":"23424738","continent":"Asia","hc-middle-lon":54.351,"hc-middle-lat":23.831}},{"type":"Polygon","arcs":[[790,791,792,793,794,-466,-257,795,796,-254,797,251]],"id":"CH","properties":{"hc-group":"admin0","hc-key":"ch","hc-a2":"CH","name":"Switzerland","labelrank":"4","country-abbrev":"Switz.","subregion":"Western Europe","region-wb":"Europe & Central Asia","iso-a3":"CHE","iso-a2":"CH","woe-id":"23424957","continent":"Europe","hc-middle-lon":9.927,"hc-middle-lat":46.689}},{"type":"Polygon","arcs":[[798,-458]],"id":"PT","properties":{"hc-group":"admin0","hc-key":"pt","hc-a2":"PT","name":"Portugal","labelrank":"2","country-abbrev":"Port.","subregion":"Southern Europe","region-wb":"Europe & Central Asia","iso-a3":"PRT","iso-a2":"PT","woe-id":"23424925","continent":"Europe","hc-middle-lon":-7.972,"hc-middle-lat":39.472}},{"type":"MultiPolygon","arcs":[[[799,-348]],[[800,801,802,803,804,805,806,-357]],[[807,808]]],"id":"MY","properties":{"hc-group":"admin0","hc-key":"my","hc-a2":"MY","name":"Malaysia","labelrank":"3","country-abbrev":"Malay.","subregion":"South-Eastern Asia","region-wb":"East Asia & Pacific","iso-a3":"MYS","iso-a2":"MY","woe-id":"23424901","continent":"Asia","hc-middle-lon":116.986,"hc-middle-lat":5.409}},{"type":"Polygon","arcs":[[809,810,811,812]],"id":"PA","properties":{"hc-group":"admin0","hc-key":"pa","hc-a2":"PA","name":"Panama","labelrank":"4","country-abbrev":"Pan.","subregion":"Central America","region-wb":"Latin America & Caribbean","iso-a3":"PAN","iso-a2":"PA","woe-id":"23424924","continent":"North America","hc-middle-lon":-81.663,"hc-middle-lat":8.427}},{"type":"MultiPolygon","arcs":[[[813,814,815,816,817,-702,-711]],[[818,819,-525]]],"id":"TR","properties":{"hc-group":"admin0","hc-key":"tr","hc-a2":"TR","name":"Turkey","labelrank":"2","country-abbrev":"Tur.","subregion":"Western Asia","region-wb":"Europe & Central Asia","iso-a3":"TUR","iso-a2":"TR","woe-id":"23424969","continent":"Asia","hc-middle-lon":32.204,"hc-middle-lat":39.09}},{"type":"Polygon","arcs":[[-814,-712,-700,-709,820,821,822,823,824,825]],"id":"IR","properties":{"hc-group":"admin0","hc-key":"ir","hc-a2":"IR","name":"Iran","labelrank":"2","country-abbrev":"Iran","subregion":"Southern Asia","region-wb":"Middle East & North Africa","iso-a3":"IRN","iso-a2":"IR","woe-id":"23424851","continent":"Asia","hc-middle-lon":55.154,"hc-middle-lat":32.426}},{"type":"MultiPolygon","arcs":[[[826,-827,827]],[[828,829,830,831]]],"id":"HT","properties":{"hc-group":"admin0","hc-key":"ht","hc-a2":"HT","name":"Haiti","labelrank":"5","country-abbrev":"Haiti","subregion":"Caribbean","region-wb":"Latin America & Caribbean","iso-a3":"HTI","iso-a2":"HT","woe-id":"23424839","continent":"North America","hc-middle-lon":-73.806,"hc-middle-lat":18.154}},{"type":"Polygon","arcs":[[832,-832,833,-830,826]],"id":"DO","properties":{"hc-group":"admin0","hc-key":"do","hc-a2":"DO","name":"Dominican Republic","labelrank":"5","country-abbrev":"Dom. Rep.","subregion":"Caribbean","region-wb":"Latin America & Caribbean","iso-a3":"DOM","iso-a2":"DO","woe-id":"23424800","continent":"North America","hc-middle-lon":-70.169,"hc-middle-lat":18.99}},{"type":"Polygon","arcs":[[834,835,836]],"id":"GW","properties":{"hc-group":"admin0","hc-key":"gw","hc-a2":"GW","name":"Guinea Bissau","labelrank":"6","country-abbrev":"GnB.","subregion":"Western Africa","region-wb":"Sub-Saharan Africa","iso-a3":"GNB","iso-a2":"GW","woe-id":"23424929","continent":"Africa","hc-middle-lon":-15.055,"hc-middle-lat":11.807}},{"type":"MultiPolygon","arcs":[[[837,838,839]],[[840,841,842,843,844]]],"id":"HR","properties":{"hc-group":"admin0","hc-key":"hr","hc-a2":"HR","name":"Croatia","labelrank":"6","country-abbrev":"Cro.","subregion":"Southern Europe","region-wb":"Europe & Central Asia","iso-a3":"HRV","iso-a2":"HR","woe-id":"23424843","continent":"Europe","hc-middle-lon":15.48,"hc-middle-lat":44.062}},{"type":"MultiPolygon","arcs":[[[-808,845,846,847,848,849]],[[850,-851,851]]],"id":"TH","properties":{"hc-group":"admin0","hc-key":"th","hc-a2":"TH","name":"Thailand","labelrank":"3","country-abbrev":"Thai.","subregion":"South-Eastern Asia","region-wb":"East Asia & Pacific","iso-a3":"THA","iso-a2":"TH","woe-id":"23424960","continent":"Asia","hc-middle-lon":99.91,"hc-middle-lat":7.728}},{"type":"Polygon","arcs":[[852,-82,853,-80,854,855,856,857,-84]],"id":"MX","properties":{"hc-group":"admin0","hc-key":"mx","hc-a2":"MX","name":"Mexico","labelrank":"2","country-abbrev":"Mex.","subregion":"Central America","region-wb":"Latin America & Caribbean","iso-a3":"MEX","iso-a2":"MX","woe-id":"23424900","continent":"North America","hc-middle-lon":-102.104,"hc-middle-lat":23.996}},{"type":"Polygon","arcs":[[-779,858,859]],"id":"KW","properties":{"hc-group":"admin0","hc-key":"kw","hc-a2":"KW","name":"Kuwait","labelrank":"6","country-abbrev":"Kwt.","subregion":"Western Asia","region-wb":"Middle East & North Africa","iso-a3":"KWT","iso-a2":"KW","woe-id":"23424870","continent":"Asia","hc-middle-lon":47.727,"hc-middle-lat":29.293}},{"type":"MultiPolygon","arcs":[[[860,860,860]],[[-40,861,862,863,864,865,866,867,-791,868,-250,869,870,-786,871]]],"id":"DE","properties":{"hc-group":"admin0","hc-key":"de","hc-a2":"DE","name":"Germany","labelrank":"2","country-abbrev":"Ger.","subregion":"Western Europe","region-wb":"Europe & Central Asia","iso-a3":"DEU","iso-a2":"DE","woe-id":"23424829","continent":"Europe","hc-middle-lon":10.535,"hc-middle-lat":52.357}},{"type":"Polygon","arcs":[[872,873,874]],"id":"GQ","properties":{"hc-group":"admin0","hc-key":"gq","hc-a2":"GQ","name":"Equatorial Guinea","labelrank":"4","country-abbrev":"Eq. G.","subregion":"Middle Africa","region-wb":"Sub-Saharan Africa","iso-a3":"GNQ","iso-a2":"GQ","woe-id":"23424804","continent":"Africa","hc-middle-lon":10.385,"hc-middle-lat":1.599}},{"type":"MultiPolygon","arcs":[[[875,-509,-497]],[[876,877,-512]],[[878,-494,-514]]],"id":"CNM","properties":{"hc-group":"admin0","hc-key":"cnm","hc-a2":"CN","name":"Cyprus No Mans Area","labelrank":"9","country-abbrev":null,"subregion":"Western Asia","region-wb":"Europe & Central Asia","iso-a3":"-99","iso-a2":null,"woe-id":"-99","continent":"Asia","hc-middle-lon":33.077,"hc-middle-lat":35.095}},{"type":"MultiPolygon","arcs":[[[-496,-495,-879,879,-876]],[[876,-877,880]]],"id":"NC","properties":{"hc-group":"admin0","hc-key":"nc","hc-a2":"NC","name":"Northern Cyprus","labelrank":"6","country-abbrev":"N. Cy.","subregion":"Western Asia","region-wb":"Europe & Central Asia","iso-a3":"-99","iso-a2":null,"woe-id":"-90","continent":"Asia","hc-middle-lon":33.626,"hc-middle-lat":35.224}},{"type":"Polygon","arcs":[[-506,881]],"id":"IE","properties":{"hc-group":"admin0","hc-key":"ie","hc-a2":"IE","name":"Ireland","labelrank":"3","country-abbrev":"Ire.","subregion":"Northern Europe","region-wb":"Europe & Central Asia","iso-a3":"IRL","iso-a2":"IE","woe-id":"23424803","continent":"Europe","hc-middle-lon":-8.529,"hc-middle-lat":53.324}},{"type":"MultiPolygon","arcs":[[[-604,882,-602,883,884,885,-598,886,887,-595,888,-593,889,890,-298,891,-736,892,-742,893,894,895,896,-658,897,898,-655,899,-653,900,901,-650,902,-648,903,-646,904,-644,905,906,907,908,909,910,911,912,913,-634,914,-632,915,916,-629,917,918,919,-625,920,-623,921,-621,922,-619,923,-617,924,925,-614,926,927,928,929,930,931,932,-606,933]],[[934,-744]]],"id":"KZ","properties":{"hc-group":"admin0","hc-key":"kz","hc-a2":"KZ","name":"Kazakhstan","labelrank":"3","country-abbrev":"Kaz.","subregion":"Central Asia","region-wb":"Europe & Central Asia","iso-a3":"KAZ","iso-a2":"KZ","woe-id":"-90","continent":"Asia","hc-middle-lon":70.091,"hc-middle-lat":48.737}},{"type":"Polygon","arcs":[[-666,935,-710,-703,-818,936,-668,937]],"id":"GE","properties":{"hc-group":"admin0","hc-key":"ge","hc-a2":"GE","name":"Georgia","labelrank":"5","country-abbrev":"Geo.","subregion":"Western Asia","region-wb":"Europe & Central Asia","iso-a3":"GEO","iso-a2":"GE","woe-id":"23424823","continent":"Asia","hc-middle-lon":41.605,"hc-middle-lat":42.38}},{"type":"Polygon","arcs":[[938,-681,939,940,941,942,943,-865,944,-863,945,-685]],"id":"PL","properties":{"hc-group":"admin0","hc-key":"pl","hc-a2":"PL","name":"Poland","labelrank":"3","country-abbrev":"Pol.","subregion":"Eastern Europe","region-wb":"Europe & Central Asia","iso-a3":"POL","iso-a2":"PL","woe-id":"23424923","continent":"Europe","hc-middle-lon":19.312,"hc-middle-lat":53.25}},{"type":"MultiPolygon","arcs":[[[946,-684]],[[947,948,949,-940,-680]]],"id":"LT","properties":{"hc-group":"admin0","hc-key":"lt","hc-a2":"LT","name":"Lithuania","labelrank":"5","country-abbrev":"Lith.","subregion":"Northern Europe","region-wb":"Europe & Central Asia","iso-a3":"LTU","iso-a2":"LT","woe-id":"23424875","continent":"Europe","hc-middle-lon":22.478,"hc-middle-lat":56.234}},{"type":"MultiPolygon","arcs":[[[758,-759,950]],[[-757,951,952,953,954,955,956,957,958,959]]],"id":"UG","properties":{"hc-group":"admin0","hc-key":"ug","hc-a2":"UG","name":"Uganda","labelrank":"3","country-abbrev":"Uga.","subregion":"Eastern Africa","region-wb":"Sub-Saharan Africa","iso-a3":"UGA","iso-a2":"UG","woe-id":"23424974","continent":"Africa","hc-middle-lon":30.379,"hc-middle-lat":1.149}},{"type":"Polygon","arcs":[[960,961,962,963,964,965,966,967,968,969,-957,970,-955,971,-953,972,973,974,975]],"id":"CD","properties":{"hc-group":"admin0","hc-key":"cd","hc-a2":"CD","name":"Democratic Republic of the Congo","labelrank":"2","country-abbrev":"D.R.C.","subregion":"Middle Africa","region-wb":"Sub-Saharan Africa","iso-a3":"COD","iso-a2":"CD","woe-id":"23424780","continent":"Africa","hc-middle-lon":23.247,"hc-middle-lat":-2.393}},{"type":"MultiPolygon","arcs":[[[976,977,978,979,980,981,-523,982]],[[983,984]],[[985,985,985]]],"id":"MK","properties":{"hc-group":"admin0","hc-key":"mk","hc-a2":"MK","name":"North Macedonia","labelrank":"6","country-abbrev":"Mkd.","subregion":"Southern Europe","region-wb":"Europe & Central Asia","iso-a3":"MKD","iso-a2":"MK","woe-id":"23424890","continent":"Europe","hc-middle-lon":21.708,"hc-middle-lat":41.599}},{"type":"MultiPolygon","arcs":[[[985,985,985]],[[986,-977,987,988,-521,989,-527,990,991,992,993,994,-979]],[[995,995,995]]],"id":"AL","properties":{"hc-group":"admin0","hc-key":"al","hc-a2":"AL","name":"Albania","labelrank":"6","country-abbrev":"Alb.","subregion":"Southern Europe","region-wb":"Europe & Central Asia","iso-a3":"ALB","iso-a2":"AL","woe-id":"23424742","continent":"Europe","hc-middle-lon":19.96,"hc-middle-lat":41.172}},{"type":"Polygon","arcs":[[996,997,998,999,1000,1001,1002,1003,1004,1005,1006]],"id":"NG","properties":{"hc-group":"admin0","hc-key":"ng","hc-a2":"NG","name":"Nigeria","labelrank":"2","country-abbrev":"Nigeria","subregion":"Western Africa","region-wb":"Sub-Saharan Africa","iso-a3":"NGA","iso-a2":"NG","woe-id":"23424908","continent":"Africa","hc-middle-lon":8.663,"hc-middle-lat":10.743}},{"type":"MultiPolygon","arcs":[[[-997,1007,1008,1009,1010,1011,1012,-874,1013,1014,-1000,1015,1016]],[[1017,1018]]],"id":"CM","properties":{"hc-group":"admin0","hc-key":"cm","hc-a2":"CM","name":"Cameroon","labelrank":"3","country-abbrev":"Cam.","subregion":"Middle Africa","region-wb":"Sub-Saharan Africa","iso-a3":"CMR","iso-a2":"CM","woe-id":"23424785","continent":"Africa","hc-middle-lon":10.581,"hc-middle-lat":5.495}},{"type":"Polygon","arcs":[[1019,1020,1021,1022,-1005,1023,-1003]],"id":"BJ","properties":{"hc-group":"admin0","hc-key":"bj","hc-a2":"BJ","name":"Benin","labelrank":"5","country-abbrev":"Benin","subregion":"Western Africa","region-wb":"Sub-Saharan Africa","iso-a3":"BEN","iso-a2":"BJ","woe-id":"23424764","continent":"Africa","hc-middle-lon":2.516,"hc-middle-lat":9.308}},{"type":"MultiPolygon","arcs":[[[1024,-346]],[[1025,-344]]],"id":"TL","properties":{"hc-group":"admin0","hc-key":"tl","hc-a2":"TL","name":"East Timor","labelrank":"5","country-abbrev":"T.L.","subregion":"South-Eastern Asia","region-wb":"East Asia & Pacific","iso-a3":"TLS","iso-a2":"TL","woe-id":"23424968","continent":"Asia","hc-middle-lon":125.966,"hc-middle-lat":-8.665}},{"type":"Polygon","arcs":[[1026,-739,1027,-822,1028,-894,-741]],"id":"TM","properties":{"hc-group":"admin0","hc-key":"tm","hc-a2":"TM","name":"Turkmenistan","labelrank":"4","country-abbrev":"Turkm.","subregion":"Central Asia","region-wb":"Europe & Central Asia","iso-a3":"TKM","iso-a2":"TM","woe-id":"23424972","continent":"Asia","hc-middle-lon":57.74,"hc-middle-lat":39.664}},{"type":"Polygon","arcs":[[1029,-851,-849,1030,1031]],"id":"KH","properties":{"hc-group":"admin0","hc-key":"kh","hc-a2":"KH","name":"Cambodia","labelrank":"3","country-abbrev":"Camb.","subregion":"South-Eastern Asia","region-wb":"East Asia & Pacific","iso-a3":"KHM","iso-a2":"KH","woe-id":"23424776","continent":"Asia","hc-middle-lon":106.578,"hc-middle-lat":12.59}},{"type":"Polygon","arcs":[[1032,1033,-400,1034,-390,1035,-373,1036,1037,1038]],"id":"PE","properties":{"hc-group":"admin0","hc-key":"pe","hc-a2":"PE","name":"Peru","labelrank":"2","country-abbrev":"Peru","subregion":"South America","region-wb":"Latin America & Caribbean","iso-a3":"PER","iso-a2":"PE","woe-id":"23424919","continent":"South America","hc-middle-lon":-77.335,"hc-middle-lat":-7.641}},{"type":"MultiPolygon","arcs":[[[1039,1039,1039]],[[746,1040]],[[748,-749,1041]],[[1042,1042,1042]],[[-752,1043,1044,1045]]],"id":"MW","properties":{"hc-group":"admin0","hc-key":"mw","hc-a2":"MW","name":"Malawi","labelrank":"6","country-abbrev":"Mal.","subregion":"Eastern Africa","region-wb":"Sub-Saharan Africa","iso-a3":"MWI","iso-a2":"MW","woe-id":"23424889","continent":"Africa","hc-middle-lon":35.118,"hc-middle-lat":-16.355}},{"type":"Polygon","arcs":[[1046,-300,-590,-302]],"id":"MN","properties":{"hc-group":"admin0","hc-key":"mn","hc-a2":"MN","name":"Mongolia","labelrank":"3","country-abbrev":"Mong.","subregion":"Eastern Asia","region-wb":"East Asia & Pacific","iso-a3":"MNG","iso-a2":"MN","woe-id":"23424887","continent":"Asia","hc-middle-lon":103.403,"hc-middle-lat":46.746}},{"type":"MultiPolygon","arcs":[[[1047,1048,-967]],[[-965,1049,1050,1051]]],"id":"AO","properties":{"hc-group":"admin0","hc-key":"ao","hc-a2":"AO","name":"Angola","labelrank":"3","country-abbrev":"Ang.","subregion":"Middle Africa","region-wb":"Sub-Saharan Africa","iso-a3":"AGO","iso-a2":"AO","woe-id":"23424745","continent":"Africa","hc-middle-lon":17.891,"hc-middle-lat":-13.573}},{"type":"Polygon","arcs":[[1052,-763,1053,1054,1055,1056,1057,1058,-1045]],"id":"MZ","properties":{"hc-group":"admin0","hc-key":"mz","hc-a2":"MZ","name":"Mozambique","labelrank":"3","country-abbrev":"Moz.","subregion":"Eastern Africa","region-wb":"Sub-Saharan Africa","iso-a3":"MOZ","iso-a2":"MZ","woe-id":"23424902","continent":"Africa","hc-middle-lon":39.003,"hc-middle-lat":-15.137}},{"type":"Polygon","arcs":[[-1055,1059,1060,1061,1062,-1057,1063],[-713]],"id":"ZA","properties":{"hc-group":"admin0","hc-key":"za","hc-a2":"ZA","name":"South Africa","labelrank":"2","country-abbrev":"S.Af.","subregion":"Southern Africa","region-wb":"Sub-Saharan Africa","iso-a3":"ZAF","iso-a2":"ZA","woe-id":"23424942","continent":"Africa","hc-middle-lon":22.382,"hc-middle-lat":-31.086}},{"type":"Polygon","arcs":[[1064,-813,1065,1066]],"id":"CR","properties":{"hc-group":"admin0","hc-key":"cr","hc-a2":"CR","name":"Costa Rica","labelrank":"5","country-abbrev":"C.R.","subregion":"Central America","region-wb":"Latin America & Caribbean","iso-a3":"CRI","iso-a2":"CR","woe-id":"23424791","continent":"North America","hc-middle-lon":-85.272,"hc-middle-lat":10.901}},{"type":"Polygon","arcs":[[1067,1068,1069]],"id":"SV","properties":{"hc-group":"admin0","hc-key":"sv","hc-a2":"SV","name":"El Salvador","labelrank":"6","country-abbrev":"El. S.","subregion":"Central America","region-wb":"Latin America & Caribbean","iso-a3":"SLV","iso-a2":"SV","woe-id":"23424807","continent":"North America","hc-middle-lon":-88.806,"hc-middle-lat":13.785}},{"type":"Polygon","arcs":[[1070,1071,-856]],"id":"BZ","properties":{"hc-group":"admin0","hc-key":"bz","hc-a2":"BZ","name":"Belize","labelrank":"6","country-abbrev":"Belize","subregion":"Central America","region-wb":"Latin America & Caribbean","iso-a3":"BLZ","iso-a2":"BZ","woe-id":"23424760","continent":"North America","hc-middle-lon":-88.614,"hc-middle-lat":17.173}},{"type":"Polygon","arcs":[[-389,1072,-811,1073,1074,-374,-1036]],"id":"CO","properties":{"hc-group":"admin0","hc-key":"co","hc-a2":"CO","name":"Colombia","labelrank":"2","country-abbrev":"Col.","subregion":"South America","region-wb":"Latin America & Caribbean","iso-a3":"COL","iso-a2":"CO","woe-id":"23424787","continent":"South America","hc-middle-lon":-72.74,"hc-middle-lat":3.472}},{"type":"Polygon","arcs":[[1075,-306,-678,1076,1077,1078]],"id":"KP","properties":{"hc-group":"admin0","hc-key":"kp","hc-a2":"KP","name":"North Korea","labelrank":"3","country-abbrev":"N.K.","subregion":"Eastern Asia","region-wb":"East Asia & Pacific","iso-a3":"PRK","iso-a2":"KP","woe-id":"23424865","continent":"Asia","hc-middle-lon":126.314,"hc-middle-lat":39.308}},{"type":"Polygon","arcs":[[-1078,1079,1080]],"id":"KR","properties":{"hc-group":"admin0","hc-key":"kr","hc-a2":"KR","name":"South Korea","labelrank":"2","country-abbrev":"S.K.","subregion":"Eastern Asia","region-wb":"East Asia & Pacific","iso-a3":"KOR","iso-a2":"KR","woe-id":"23424868","continent":"Asia","hc-middle-lon":127.466,"hc-middle-lat":36.449}},{"type":"Polygon","arcs":[[1081,1082,-376,1083]],"id":"GY","properties":{"hc-group":"admin0","hc-key":"gy","hc-a2":"GY","name":"Guyana","labelrank":"4","country-abbrev":"Guy.","subregion":"South America","region-wb":"Latin America & Caribbean","iso-a3":"GUY","iso-a2":"GY","woe-id":"23424836","continent":"South America","hc-middle-lon":-59.404,"hc-middle-lat":6.501}},{"type":"Polygon","arcs":[[1084,1085,1086,-1070,1087]],"id":"HN","properties":{"hc-group":"admin0","hc-key":"hn","hc-a2":"HN","name":"Honduras","labelrank":"5","country-abbrev":"Hond.","subregion":"Central America","region-wb":"Latin America & Caribbean","iso-a3":"HND","iso-a2":"HN","woe-id":"23424841","continent":"North America","hc-middle-lon":-84.832,"hc-middle-lat":15.677}},{"type":"Polygon","arcs":[[-1013,1088,1089,-875]],"id":"GA","properties":{"hc-group":"admin0","hc-key":"ga","hc-a2":"GA","name":"Gabon","labelrank":"4","country-abbrev":"Gabon","subregion":"Middle Africa","region-wb":"Sub-Saharan Africa","iso-a3":"GAB","iso-a2":"GA","woe-id":"23424822","continent":"Africa","hc-middle-lon":10.652,"hc-middle-lat":-1.634}},{"type":"Polygon","arcs":[[1090,-1086,1091,-1067]],"id":"NI","properties":{"hc-group":"admin0","hc-key":"ni","hc-a2":"NI","name":"Nicaragua","labelrank":"5","country-abbrev":"Nic.","subregion":"Central America","region-wb":"Latin America & Caribbean","iso-a3":"NIC","iso-a2":"NI","woe-id":"23424915","continent":"North America","hc-middle-lon":-83.744,"hc-middle-lat":12.893}},{"type":"Polygon","arcs":[[1092,1093,1094,1095,1096,1097,1098,1099,1100]],"id":"ET","properties":{"hc-group":"admin0","hc-key":"et","hc-a2":"ET","name":"Ethiopia","labelrank":"2","country-abbrev":"Eth.","subregion":"Eastern Africa","region-wb":"Sub-Saharan Africa","iso-a3":"ETH","iso-a2":"ET","woe-id":"23424808","continent":"Africa","hc-middle-lon":39.722,"hc-middle-lat":8.254}},{"type":"Polygon","arcs":[[-1099,1101,1102,1103,1104,1105,1106,1107,1108,1109,1110]],"id":"SD","properties":{"hc-group":"admin0","hc-key":"sd","hc-a2":"SD","name":"Sudan","labelrank":"3","country-abbrev":"Sudan","subregion":"Northern Africa","region-wb":"Sub-Saharan Africa","iso-a3":"SDN","iso-a2":"SD","woe-id":"-90","continent":"Africa","hc-middle-lon":30.24,"hc-middle-lat":16.986}},{"type":"Polygon","arcs":[[-1096,1111,1112,1113]],"id":"SO","properties":{"hc-group":"admin0","hc-key":"so","hc-a2":"SO","name":"Somalia","labelrank":"6","country-abbrev":"Som.","subregion":"Eastern Africa","region-wb":"Sub-Saharan Africa","iso-a3":"SOM","iso-a2":"SO","woe-id":"-90","continent":"Africa","hc-middle-lon":44.888,"hc-middle-lat":1.89}},{"type":"Polygon","arcs":[[1114,1115,1116,1117]],"id":"GH","properties":{"hc-group":"admin0","hc-key":"gh","hc-a2":"GH","name":"Ghana","labelrank":"3","country-abbrev":"Ghana","subregion":"Western Africa","region-wb":"Sub-Saharan Africa","iso-a3":"GHA","iso-a2":"GH","woe-id":"23424824","continent":"Africa","hc-middle-lon":-2.684,"hc-middle-lat":6.146}},{"type":"Polygon","arcs":[[-1116,1118,1119,1120,1121,-721,1122]],"id":"CI","properties":{"hc-group":"admin0","hc-key":"ci","hc-a2":"CI","name":"Ivory Coast","labelrank":"3","country-abbrev":"I.C.","subregion":"Western Africa","region-wb":"Sub-Saharan Africa","iso-a3":"CIV","iso-a2":"CI","woe-id":"23424854","continent":"Africa","hc-middle-lon":-5.569,"hc-middle-lat":7.418}},{"type":"Polygon","arcs":[[1123,-468,1124,1125,-841]],"id":"SI","properties":{"hc-group":"admin0","hc-key":"si","hc-a2":"SI","name":"Slovenia","labelrank":"6","country-abbrev":"Slo.","subregion":"Southern Europe","region-wb":"Europe & Central Asia","iso-a3":"SVN","iso-a2":"SI","woe-id":"23424945","continent":"Europe","hc-middle-lon":14.985,"hc-middle-lat":46.019}},{"type":"Polygon","arcs":[[1126,-1088,-1069,1127,-857,-1072]],"id":"GT","properties":{"hc-group":"admin0","hc-key":"gt","hc-a2":"GT","name":"Guatemala","labelrank":"3","country-abbrev":"Guat.","subregion":"Central America","region-wb":"Latin America & Caribbean","iso-a3":"GTM","iso-a2":"GT","woe-id":"23424834","continent":"North America","hc-middle-lon":-90.251,"hc-middle-lat":15.883}},{"type":"Polygon","arcs":[[1128,-844,1129,1130,-839]],"id":"BA","properties":{"hc-group":"admin0","hc-key":"ba","hc-a2":"BA","name":"Bosnia and Herzegovina","labelrank":"5","country-abbrev":"B.H.","subregion":"Southern Europe","region-wb":"Europe & Central Asia","iso-a3":"BIH","iso-a2":"BA","woe-id":"23424761","continent":"Europe","hc-middle-lon":17.917,"hc-middle-lat":44.393}},{"type":"Polygon","arcs":[[1131,1132,1133,1134,1135,1136,1137,-777,1138,1139]],"id":"JO","properties":{"hc-group":"admin0","hc-key":"jo","hc-a2":"JO","name":"Jordan","labelrank":"4","country-abbrev":"Jord.","subregion":"Western Asia","region-wb":"Middle East & North Africa","iso-a3":"JOR","iso-a2":"JO","woe-id":"23424860","continent":"Asia","hc-middle-lon":35.204,"hc-middle-lat":30.086}},{"type":"Polygon","arcs":[[-1137,1140,1141,1142,-816,1143]],"id":"SY","properties":{"hc-group":"admin0","hc-key":"sy","hc-a2":"SY","name":"Syria","labelrank":"3","country-abbrev":"Syria","subregion":"Western Asia","region-wb":"Middle East & North Africa","iso-a3":"SYR","iso-a2":"SY","woe-id":"23424956","continent":"Asia","hc-middle-lon":37.405,"hc-middle-lat":34.604}},{"type":"Polygon","arcs":[[1144,1145,-1135]],"id":"WE","properties":{"hc-group":"admin0","hc-key":"we","hc-a2":"WE","name":"West Bank","labelrank":"4","country-abbrev":"We. B.","subregion":"Western Asia","region-wb":"Middle East & North Africa","iso-a3":"WEB","iso-a2":"WE","woe-id":"-90","continent":"Asia","hc-middle-lon":35.21,"hc-middle-lat":31.917}},{"type":"Polygon","arcs":[[-1146,1146,-1133,1147,-1140,1148,1149,1150,1151,1152,-1141,-1136]],"id":"IL","properties":{"hc-group":"admin0","hc-key":"il","hc-a2":"IL","name":"Israel","labelrank":"4","country-abbrev":"Isr.","subregion":"Western Asia","region-wb":"Middle East & North Africa","iso-a3":"ISR","iso-a2":"IL","woe-id":"23424852","continent":"Asia","hc-middle-lon":35.35,"hc-middle-lat":32.956}},{"type":"Polygon","arcs":[[-1150,1153,1154,-1107,1155,1156,1157,1158,1159]],"id":"EG","properties":{"hc-group":"admin0","hc-key":"eg","hc-a2":"EG","name":"Egypt","labelrank":"2","country-abbrev":"Egypt","subregion":"Northern Africa","region-wb":"Middle East & North Africa","iso-a3":"EGY","iso-a2":"EG","woe-id":"23424802","continent":"Africa","hc-middle-lon":30.749,"hc-middle-lat":25.314}},{"type":"Polygon","arcs":[[1160,1161,1162,-1050,-964,1163,-962,1164,-753,-1046,-1059,1165]],"id":"ZM","properties":{"hc-group":"admin0","hc-key":"zm","hc-a2":"ZM","name":"Zambia","labelrank":"3","country-abbrev":"Zambia","subregion":"Eastern Africa","region-wb":"Sub-Saharan Africa","iso-a3":"ZMB","iso-a2":"ZM","woe-id":"23425003","continent":"Africa","hc-middle-lon":24.871,"hc-middle-lat":-14.832}},{"type":"Polygon","arcs":[[1166,-241]],"id":"MC","properties":{"hc-group":"admin0","hc-key":"mc","hc-a2":"MC","name":"Monaco","labelrank":"6","country-abbrev":"Mco.","subregion":"Western Europe","region-wb":"Europe & Central Asia","iso-a3":"MCO","iso-a2":"MC","woe-id":"23424892","continent":"Europe","hc-middle-lon":7.391,"hc-middle-lat":43.691}},{"type":"Polygon","arcs":[[1167,-379,1168,1169,1170,-773,-367]],"id":"UY","properties":{"hc-group":"admin0","hc-key":"uy","hc-a2":"UY","name":"Uruguay","labelrank":"4","country-abbrev":"Ury.","subregion":"South America","region-wb":"Latin America & Caribbean","iso-a3":"URY","iso-a2":"UY","woe-id":"23424979","continent":"South America","hc-middle-lon":-54.353,"hc-middle-lat":-34.312}},{"type":"Polygon","arcs":[[-756,1171,-975,1172,-973,-952]],"id":"RW","properties":{"hc-group":"admin0","hc-key":"rw","hc-a2":"RW","name":"Rwanda","labelrank":"3","country-abbrev":"Rwa.","subregion":"Eastern Africa","region-wb":"Sub-Saharan Africa","iso-a3":"RWA","iso-a2":"RW","woe-id":"23424937","continent":"Africa","hc-middle-lon":29.777,"hc-middle-lat":-2.023}},{"type":"MultiPolygon","arcs":[[[1173,-1039]],[[-1034,1174,-1037,-372,1175,-771,-401]]],"id":"BO","properties":{"hc-group":"admin0","hc-key":"bo","hc-a2":"BO","name":"Bolivia","labelrank":"3","country-abbrev":"Bolivia","subregion":"South America","region-wb":"Latin America & Caribbean","iso-a3":"BOL","iso-a2":"BO","woe-id":"23424762","continent":"South America","hc-middle-lon":-63.653,"hc-middle-lat":-17.504}},{"type":"Polygon","arcs":[[-1012,1176,-968,-1049,1177,-1089]],"id":"CG","properties":{"hc-group":"admin0","hc-key":"cg","hc-a2":"CG","name":"Republic of Congo","labelrank":"4","country-abbrev":"Rep. Congo","subregion":"Middle Africa","region-wb":"Sub-Saharan Africa","iso-a3":"COG","iso-a2":"CG","woe-id":"23424779","continent":"Africa","hc-middle-lon":12.218,"hc-middle-lat":-3.102}},{"type":"Polygon","arcs":[[1178,1179,-727,1180]],"id":"EH","properties":{"hc-group":"admin0","hc-key":"eh","hc-a2":"EH","name":"Western Sahara","labelrank":"7","country-abbrev":"W. Sah.","subregion":"Northern Africa","region-wb":"Middle East & North Africa","iso-a3":"ESH","iso-a2":"EH","woe-id":"23424990","continent":"Africa","hc-middle-lon":-13.62,"hc-middle-lat":22.759}},{"type":"Polygon","arcs":[[-843,1181,1182,1183,-981,1184,1185,-1130]],"id":"RS","properties":{"hc-group":"admin0","hc-key":"rs","hc-a2":"RS","name":"Republic of Serbia","labelrank":"5","country-abbrev":"Serb.","subregion":"Southern Europe","region-wb":"Europe & Central Asia","iso-a3":"SRB","iso-a2":"RS","woe-id":"-90","continent":"Europe","hc-middle-lon":20.642,"hc-middle-lat":44.143}},{"type":"Polygon","arcs":[[-1186,1186,-994,1187,1188,-992,1189,-840,-1131]],"id":"ME","properties":{"hc-group":"admin0","hc-key":"me","hc-a2":"ME","name":"Montenegro","labelrank":"6","country-abbrev":"Mont.","subregion":"Southern Europe","region-wb":"Europe & Central Asia","iso-a3":"MNE","iso-a2":"ME","woe-id":"20069817","continent":"Europe","hc-middle-lon":19.215,"hc-middle-lat":42.696}},{"type":"Polygon","arcs":[[-1021,1190,-1118,1191]],"id":"TG","properties":{"hc-group":"admin0","hc-key":"tg","hc-a2":"TG","name":"Togo","labelrank":"6","country-abbrev":"Togo","subregion":"Western Africa","region-wb":"Sub-Saharan Africa","iso-a3":"TGO","iso-a2":"TG","woe-id":"23424965","continent":"Africa","hc-middle-lon":1.203,"hc-middle-lat":7.056}},{"type":"Polygon","arcs":[[1192,-847,1193,-221,-216,-310]],"id":"MM","properties":{"hc-group":"admin0","hc-key":"mm","hc-a2":"MM","name":"Myanmar","labelrank":"3","country-abbrev":"Myan.","subregion":"South-Eastern Asia","region-wb":"East Asia & Pacific","iso-a3":"MMR","iso-a2":"MM","woe-id":"23424763","continent":"Asia","hc-middle-lon":93.772,"hc-middle-lat":19.587}},{"type":"Polygon","arcs":[[-1193,-309,1194,-1031,-848]],"id":"LA","properties":{"hc-group":"admin0","hc-key":"la","hc-a2":"LA","name":"Laos","labelrank":"4","country-abbrev":"Laos","subregion":"South-Eastern Asia","region-wb":"East Asia & Pacific","iso-a3":"LAO","iso-a2":"LA","woe-id":"23424872","continent":"Asia","hc-middle-lon":103.757,"hc-middle-lat":20.236}},{"type":"Polygon","arcs":[[-295,1195,-823,-1028,-738,-716]],"id":"AF","properties":{"hc-group":"admin0","hc-key":"af","hc-a2":"AF","name":"Afghanistan","labelrank":"3","country-abbrev":"Afg.","subregion":"Southern Asia","region-wb":"South Asia","iso-a3":"AFG","iso-a2":"AF","woe-id":"23424739","continent":"Asia","hc-middle-lon":65.883,"hc-middle-lat":33.671}},{"type":"Polygon","arcs":[[-210,1196,-293]],"id":"JK","properties":{"hc-group":"admin0","hc-key":"jk","hc-a2":"JK","name":"Siachen Glacier","labelrank":"5","country-abbrev":"Siachen","subregion":"Southern Asia","region-wb":"South Asia","iso-a3":"-99","iso-a2":"JK","woe-id":"23424928","continent":"Asia","hc-middle-lon":77.109,"hc-middle-lat":35.275}},{"type":"Polygon","arcs":[[-1197,-209,1197,1198,-824,-1196,-294]],"id":"PK","properties":{"hc-group":"admin0","hc-key":"pk","hc-a2":"PK","name":"Pakistan","labelrank":"2","country-abbrev":"Pak.","subregion":"Southern Asia","region-wb":"South Asia","iso-a3":"PAK","iso-a2":"PK","woe-id":"23424922","continent":"Asia","hc-middle-lon":65.483,"hc-middle-lat":27.32}},{"type":"Polygon","arcs":[[1199,-819,-524,-982,-1184,1200]],"id":"BG","properties":{"hc-group":"admin0","hc-key":"bg","hc-a2":"BG","name":"Bulgaria","labelrank":"4","country-abbrev":"Bulg.","subregion":"Eastern Europe","region-wb":"Europe & Central Asia","iso-a3":"BGR","iso-a2":"BG","woe-id":"23424771","continent":"Europe","hc-middle-lon":27.062,"hc-middle-lat":42.672}},{"type":"Polygon","arcs":[[-942,1201,-670,1202,1203,1204,1205,1206,1207],[1208]],"id":"UA","properties":{"hc-group":"admin0","hc-key":"ua","hc-a2":"UA","name":"Ukraine","labelrank":"3","country-abbrev":"Ukr.","subregion":"Eastern Europe","region-wb":"Europe & Central Asia","iso-a3":"UKR","iso-a2":"UA","woe-id":"23424976","continent":"Europe","hc-middle-lon":34.701,"hc-middle-lat":48.665}},{"type":"Polygon","arcs":[[-1204,1209,-1201,-1183,1210,-1206,1211]],"id":"RO","properties":{"hc-group":"admin0","hc-key":"ro","hc-a2":"RO","name":"Romania","labelrank":"3","country-abbrev":"Rom.","subregion":"Eastern Europe","region-wb":"Europe & Central Asia","iso-a3":"ROU","iso-a2":"RO","woe-id":"23424933","continent":"Europe","hc-middle-lon":26.511,"hc-middle-lat":45.927}},{"type":"Polygon","arcs":[[1212,-781]],"id":"QA","properties":{"hc-group":"admin0","hc-key":"qa","hc-a2":"QA","name":"Qatar","labelrank":"5","country-abbrev":"Qatar","subregion":"Western Asia","region-wb":"Middle East & North Africa","iso-a3":"QAT","iso-a2":"QA","woe-id":"23424930","continent":"Asia","hc-middle-lon":51.104,"hc-middle-lat":25.339}},{"type":"Polygon","arcs":[[-794,1213]],"id":"LI","properties":{"hc-group":"admin0","hc-key":"li","hc-a2":"LI","name":"Liechtenstein","labelrank":"6","country-abbrev":"Liech.","subregion":"Western Europe","region-wb":"Europe & Central Asia","iso-a3":"LIE","iso-a2":"LI","woe-id":"23424879","continent":"Europe","hc-middle-lon":9.543,"hc-middle-lat":47.112}},{"type":"Polygon","arcs":[[-1214,-793,1214,-867,1215,1216,1217,-1125,-467,-795]],"id":"AT","properties":{"hc-group":"admin0","hc-key":"at","hc-a2":"AT","name":"Austria","labelrank":"4","country-abbrev":"Aust.","subregion":"Western Europe","region-wb":"Europe & Central Asia","iso-a3":"AUT","iso-a2":"AT","woe-id":"23424750","continent":"Europe","hc-middle-lon":13.387,"hc-middle-lat":47.363}},{"type":"Polygon","arcs":[[-1217,1218,-943,-1208,1219]],"id":"SK","properties":{"hc-group":"admin0","hc-key":"sk","hc-a2":"SK","name":"Slovakia","labelrank":"6","country-abbrev":"Svk.","subregion":"Eastern Europe","region-wb":"Europe & Central Asia","iso-a3":"SVK","iso-a2":"SK","woe-id":"23424877","continent":"Europe","hc-middle-lon":21.268,"hc-middle-lat":49.031}},{"type":"Polygon","arcs":[[-1056,-1064]],"id":"SZ","properties":{"hc-group":"admin0","hc-key":"sz","hc-a2":"SZ","name":"Eswatini","labelrank":"4","country-abbrev":"Swz.","subregion":"Southern Africa","region-wb":"Sub-Saharan Africa","iso-a3":"SWZ","iso-a2":"SZ","woe-id":"23424993","continent":"Africa","hc-middle-lon":31.438,"hc-middle-lat":-26.467}},{"type":"Polygon","arcs":[[-1182,-842,-1126,-1218,-1220,-1207,-1211]],"id":"HU","properties":{"hc-group":"admin0","hc-key":"hu","hc-a2":"HU","name":"Hungary","labelrank":"5","country-abbrev":"Hun.","subregion":"Eastern Europe","region-wb":"Europe & Central Asia","iso-a3":"HUN","iso-a2":"HU","woe-id":"23424844","continent":"Europe","hc-middle-lon":17.908,"hc-middle-lat":46.863}},{"type":"Polygon","arcs":[[1220,-731,1221,1222,1223,1224,-1158,-1105,1225]],"id":"LY","properties":{"hc-group":"admin0","hc-key":"ly","hc-a2":"LY","name":"Libya","labelrank":"3","country-abbrev":"Libya","subregion":"Northern Africa","region-wb":"Middle East & North Africa","iso-a3":"LBY","iso-a2":"LY","woe-id":"23424882","continent":"Africa","hc-middle-lon":17.212,"hc-middle-lat":27.937}},{"type":"Polygon","arcs":[[-1221,1226,-1006,-1023,1227,-719,-732]],"id":"NE","properties":{"hc-group":"admin0","hc-key":"ne","hc-a2":"NE","name":"Niger","labelrank":"3","country-abbrev":"Niger","subregion":"Western Africa","region-wb":"Sub-Saharan Africa","iso-a3":"NER","iso-a2":"NE","woe-id":"23424906","continent":"Africa","hc-middle-lon":10.419,"hc-middle-lat":17.298}},{"type":"Polygon","arcs":[[-249,1228,-870]],"id":"LU","properties":{"hc-group":"admin0","hc-key":"lu","hc-a2":"LU","name":"Luxembourg","labelrank":"6","country-abbrev":"Lux.","subregion":"Western Europe","region-wb":"Europe & Central Asia","iso-a3":"LUX","iso-a2":"LU","woe-id":"23424881","continent":"Europe","hc-middle-lon":6.093,"hc-middle-lat":49.688}},{"type":"Polygon","arcs":[[-244,-460]],"id":"AD","properties":{"hc-group":"admin0","hc-key":"ad","hc-a2":"AD","name":"Andorra","labelrank":"6","country-abbrev":"And.","subregion":"Southern Europe","region-wb":"Europe & Central Asia","iso-a3":"AND","iso-a2":"AD","woe-id":"23424744","continent":"Europe","hc-middle-lon":1.597,"hc-middle-lat":42.508}},{"type":"Polygon","arcs":[[-1121,1229,1230,1231,1232]],"id":"LR","properties":{"hc-group":"admin0","hc-key":"lr","hc-a2":"LR","name":"Liberia","labelrank":"4","country-abbrev":"Liberia","subregion":"Western Africa","region-wb":"Sub-Saharan Africa","iso-a3":"LBR","iso-a2":"LR","woe-id":"23424876","continent":"Africa","hc-middle-lon":-7.613,"hc-middle-lat":5.444}},{"type":"Polygon","arcs":[[-1232,1233,1234]],"id":"SL","properties":{"hc-group":"admin0","hc-key":"sl","hc-a2":"SL","name":"Sierra Leone","labelrank":"4","country-abbrev":"S.L.","subregion":"Western Africa","region-wb":"Sub-Saharan Africa","iso-a3":"SLE","iso-a2":"SL","woe-id":"23424946","continent":"Africa","hc-middle-lon":-11.837,"hc-middle-lat":8.505}},{"type":"MultiPolygon","arcs":[[[1235,-806,1236,1237]],[[1238,-802]]],"id":"BN","properties":{"hc-group":"admin0","hc-key":"bn","hc-a2":"BN","name":"Brunei","labelrank":"6","country-abbrev":"Brunei","subregion":"South-Eastern Asia","region-wb":"East Asia & Pacific","iso-a3":"BRN","iso-a2":"BN","woe-id":"23424773","continent":"Asia","hc-middle-lon":114.563,"hc-middle-lat":4.472}},{"type":"Polygon","arcs":[[-726,-724,1239,1240,-1181]],"id":"MR","properties":{"hc-group":"admin0","hc-key":"mr","hc-a2":"MR","name":"Mauritania","labelrank":"3","country-abbrev":"Mrt.","subregion":"Western Africa","region-wb":"Sub-Saharan Africa","iso-a3":"MRT","iso-a2":"MR","woe-id":"23424896","continent":"Africa","hc-middle-lon":-9.464,"hc-middle-lat":19.453}},{"type":"Polygon","arcs":[[-1229,-248,1241,1242,-784,1243,-787,-871]],"id":"BE","properties":{"hc-group":"admin0","hc-key":"be","hc-a2":"BE","name":"Belgium","labelrank":"2","country-abbrev":"Belg.","subregion":"Western Europe","region-wb":"Europe & Central Asia","iso-a3":"BEL","iso-a2":"BE","woe-id":"23424757","continent":"Europe","hc-middle-lon":4.478,"hc-middle-lat":50.721}},{"type":"Polygon","arcs":[[1244,-859,-778,-1138,-1144,-815,-826]],"id":"IQ","properties":{"hc-group":"admin0","hc-key":"iq","hc-a2":"IQ","name":"Iraq","labelrank":"3","country-abbrev":"Iraq","subregion":"Western Asia","region-wb":"Middle East & North Africa","iso-a3":"IRQ","iso-a2":"IQ","woe-id":"23424855","continent":"Asia","hc-middle-lon":43.217,"hc-middle-lat":33.742}},{"type":"Polygon","arcs":[[1245,1246]],"id":"GM","properties":{"hc-group":"admin0","hc-key":"gm","hc-a2":"GM","name":"Gambia","labelrank":"6","country-abbrev":"Gambia","subregion":"Western Africa","region-wb":"Sub-Saharan Africa","iso-a3":"GMB","iso-a2":"GM","woe-id":"23424821","continent":"Africa","hc-middle-lon":-15.323,"hc-middle-lat":13.459}},{"type":"Polygon","arcs":[[1247,-454,1248,-728,-1180,1249,-456]],"id":"MA","properties":{"hc-group":"admin0","hc-key":"ma","hc-a2":"MA","name":"Morocco","labelrank":"3","country-abbrev":"Mor.","subregion":"Northern Africa","region-wb":"Middle East & North Africa","iso-a3":"MAR","iso-a2":"MA","woe-id":"23424893","continent":"Africa","hc-middle-lon":-7.435,"hc-middle-lat":32.948}},{"type":"Polygon","arcs":[[1250,1251,-1008,-1007,-1227,-1226,-1104,1252,-1010]],"id":"TD","properties":{"hc-group":"admin0","hc-key":"td","hc-a2":"TD","name":"Chad","labelrank":"3","country-abbrev":"Chad","subregion":"Middle Africa","region-wb":"Sub-Saharan Africa","iso-a3":"TCD","iso-a2":"TD","woe-id":"23424777","continent":"Africa","hc-middle-lon":18.373,"hc-middle-lat":13.458}},{"type":"Polygon","arcs":[[-1187,-1185,-980,-995]],"id":"KV","properties":{"hc-group":"admin0","hc-key":"kv","hc-a2":"KV","name":"Kosovo","labelrank":"6","country-abbrev":"Kos.","subregion":"Southern Europe","region-wb":"Europe & Central Asia","iso-a3":"-99","iso-a2":"KV","woe-id":"-90","continent":"Europe","hc-middle-lon":20.876,"hc-middle-lat":42.505}},{"type":"Polygon","arcs":[[1253,-1142,-1153]],"id":"LB","properties":{"hc-group":"admin0","hc-key":"lb","hc-a2":"LB","name":"Lebanon","labelrank":"5","country-abbrev":"Leb.","subregion":"Western Asia","region-wb":"Middle East & North Africa","iso-a3":"LBN","iso-a2":"LB","woe-id":"23424873","continent":"Asia","hc-middle-lon":35.701,"hc-middle-lat":33.837}},{"type":"Polygon","arcs":[[1254,-1112,-1095,1255]],"id":"SX","properties":{"hc-group":"admin0","hc-key":"sx","hc-a2":"SX","name":"Somaliland","labelrank":"5","country-abbrev":"Solnd.","subregion":"Eastern Africa","region-wb":"Sub-Saharan Africa","iso-a3":"-99","iso-a2":"SX","woe-id":"-99","continent":"Africa","hc-middle-lon":47.376,"hc-middle-lat":9.678}},{"type":"Polygon","arcs":[[-1094,1256,-1101,1257,1258,-1256]],"id":"DJ","properties":{"hc-group":"admin0","hc-key":"dj","hc-a2":"DJ","name":"Djibouti","labelrank":"5","country-abbrev":"Dji.","subregion":"Eastern Africa","region-wb":"Middle East & North Africa","iso-a3":"DJI","iso-a2":"DJ","woe-id":"23424797","continent":"Africa","hc-middle-lon":42.602,"hc-middle-lat":11.718}},{"type":"Polygon","arcs":[[-1258,-1100,-1111,1259]],"id":"ER","properties":{"hc-group":"admin0","hc-key":"er","hc-a2":"ER","name":"Eritrea","labelrank":"4","country-abbrev":"Erit.","subregion":"Eastern Africa","region-wb":"Sub-Saharan Africa","iso-a3":"ERI","iso-a2":"ER","woe-id":"23424806","continent":"Africa","hc-middle-lon":37.066,"hc-middle-lat":16.657}},{"type":"Polygon","arcs":[[-1172,-755,1260,-976]],"id":"BI","properties":{"hc-group":"admin0","hc-key":"bi","hc-a2":"BI","name":"Burundi","labelrank":"6","country-abbrev":"Bur.","subregion":"Eastern Africa","region-wb":"Sub-Saharan Africa","iso-a3":"BDI","iso-a2":"BI","woe-id":"23424774","continent":"Africa","hc-middle-lon":29.994,"hc-middle-lat":-3.28}},{"type":"Polygon","arcs":[[1261,-1247,1262,-1240,-723,1263,-836]],"id":"SN","properties":{"hc-group":"admin0","hc-key":"sn","hc-a2":"SN","name":"Senegal","labelrank":"3","country-abbrev":"Sen.","subregion":"Western Africa","region-wb":"Sub-Saharan Africa","iso-a3":"SEN","iso-a2":"SN","woe-id":"23424943","continent":"Africa","hc-middle-lon":-16.099,"hc-middle-lat":14.459}},{"type":"Polygon","arcs":[[-1264,-722,-1122,-1233,-1235,1264,-837]],"id":"GN","properties":{"hc-group":"admin0","hc-key":"gn","hc-a2":"GN","name":"Guinea","labelrank":"3","country-abbrev":"Gin.","subregion":"Western Africa","region-wb":"Sub-Saharan Africa","iso-a3":"GIN","iso-a2":"GN","woe-id":"23424835","continent":"Africa","hc-middle-lon":-13.095,"hc-middle-lat":9.825}},{"type":"Polygon","arcs":[[-1162,1265,-1166,-1058,-1063,1266]],"id":"ZW","properties":{"hc-group":"admin0","hc-key":"zw","hc-a2":"ZW","name":"Zimbabwe","labelrank":"3","country-abbrev":"Zimb.","subregion":"Eastern Africa","region-wb":"Sub-Saharan Africa","iso-a3":"ZWE","iso-a2":"ZW","woe-id":"23425004","continent":"Africa","hc-middle-lon":31.522,"hc-middle-lat":-18.459}},{"type":"Polygon","arcs":[[1267,-369,-772,-1176,-371]],"id":"PY","properties":{"hc-group":"admin0","hc-key":"py","hc-a2":"PY","name":"Paraguay","labelrank":"4","country-abbrev":"Para.","subregion":"South America","region-wb":"Latin America & Caribbean","iso-a3":"PRY","iso-a2":"PY","woe-id":"23424917","continent":"South America","hc-middle-lon":-59.56,"hc-middle-lat":-22.206}},{"type":"Polygon","arcs":[[-941,-950,1268,-671,-1202]],"id":"BY","properties":{"hc-group":"admin0","hc-key":"by","hc-a2":"BY","name":"Belarus","labelrank":"4","country-abbrev":"Bela.","subregion":"Eastern Europe","region-wb":"Europe & Central Asia","iso-a3":"BLR","iso-a2":"BY","woe-id":"23424765","continent":"Europe","hc-middle-lon":28.012,"hc-middle-lat":53.725}},{"type":"Polygon","arcs":[[-1269,-949,1269,-446,-672]],"id":"LV","properties":{"hc-group":"admin0","hc-key":"lv","hc-a2":"LV","name":"Latvia","labelrank":"5","country-abbrev":"Lat.","subregion":"Northern Europe","region-wb":"Europe & Central Asia","iso-a3":"LVA","iso-a2":"LV","woe-id":"23424874","continent":"Europe","hc-middle-lon":23.037,"hc-middle-lat":57.041}},{"type":"Polygon","arcs":[[-311,-214]],"id":"BT","properties":{"hc-group":"admin0","hc-key":"bt","hc-a2":"BT","name":"Bhutan","labelrank":"5","country-abbrev":"Bhutan","subregion":"Southern Asia","region-wb":"South Asia","iso-a3":"BTN","iso-a2":"BT","woe-id":"23424770","continent":"Asia","hc-middle-lon":90.273,"hc-middle-lat":27.518}},{"type":"Polygon","arcs":[[-1163,1270,-1061,1271,-1051]],"id":"NA","properties":{"hc-group":"admin0","hc-key":"na","hc-a2":"NA","name":"Namibia","labelrank":"3","country-abbrev":"Nam.","subregion":"Southern Africa","region-wb":"Sub-Saharan Africa","iso-a3":"NAM","iso-a2":"NA","woe-id":"23424987","continent":"Africa","hc-middle-lon":16.166,"hc-middle-lat":-21.435}},{"type":"Polygon","arcs":[[-1192,-1117,-1123,-720,-1228,-1022]],"id":"BF","properties":{"hc-group":"admin0","hc-key":"bf","hc-a2":"BF","name":"Burkina Faso","labelrank":"3","country-abbrev":"B.F.","subregion":"Western Africa","region-wb":"Sub-Saharan Africa","iso-a3":"BFA","iso-a2":"BF","woe-id":"23424978","continent":"Africa","hc-middle-lon":-0.442,"hc-middle-lat":12.793}},{"type":"Polygon","arcs":[[-970,1272,-1102,-1098,1273,-958]],"id":"SS","properties":{"hc-group":"admin0","hc-key":"ss","hc-a2":"SS","name":"South Sudan","labelrank":"3","country-abbrev":"S. Sud.","subregion":"Eastern Africa","region-wb":"Sub-Saharan Africa","iso-a3":"SSD","iso-a2":"SS","woe-id":"-99","continent":"Africa","hc-middle-lon":29.885,"hc-middle-lat":7.152}},{"type":"Polygon","arcs":[[-1177,-1011,-1253,-1103,-1273,-969]],"id":"CF","properties":{"hc-group":"admin0","hc-key":"cf","hc-a2":"CF","name":"Central African Republic","labelrank":"4","country-abbrev":"C.A.R.","subregion":"Middle Africa","region-wb":"Sub-Saharan Africa","iso-a3":"CAF","iso-a2":"CF","woe-id":"23424792","continent":"Africa","hc-middle-lon":20.503,"hc-middle-lat":6.977}},{"type":"Polygon","arcs":[[-1212,-1205]],"id":"MD","properties":{"hc-group":"admin0","hc-key":"md","hc-a2":"MD","name":"Moldova","labelrank":"6","country-abbrev":"Mda.","subregion":"Eastern Europe","region-wb":"Europe & Central Asia","iso-a3":"MDA","iso-a2":"MD","woe-id":"23424885","continent":"Europe","hc-middle-lon":28.37,"hc-middle-lat":47.228}},{"type":"Polygon","arcs":[[-1160,1274,-1151]],"id":"GZ","properties":{"hc-group":"admin0","hc-key":"gz","hc-a2":"GZ","name":"Gaza Strip","labelrank":"4","country-abbrev":"Gaz.","subregion":"Western Asia","region-wb":"Middle East & North Africa","iso-a3":"GAZ","iso-a2":"GZ","woe-id":"-90","continent":"Asia","hc-middle-lon":34.318,"hc-middle-lat":31.366}},{"type":"Polygon","arcs":[[1275,-761,1276,-959,-1274,-1097,-1114]],"id":"KE","properties":{"hc-group":"admin0","hc-key":"ke","hc-a2":"KE","name":"Kenya","labelrank":"2","country-abbrev":"Ken.","subregion":"Eastern Africa","region-wb":"Sub-Saharan Africa","iso-a3":"KEN","iso-a2":"KE","woe-id":"23424863","continent":"Africa","hc-middle-lon":40.802,"hc-middle-lat":-1.775}},{"type":"Polygon","arcs":[[-1267,-1062,-1271]],"id":"BW","properties":{"hc-group":"admin0","hc-key":"bw","hc-a2":"BW","name":"Botswana","labelrank":"4","country-abbrev":"Bwa.","subregion":"Southern Africa","region-wb":"Sub-Saharan Africa","iso-a3":"BWA","iso-a2":"BW","woe-id":"23424755","continent":"Africa","hc-middle-lon":24.532,"hc-middle-lat":-23.277}},{"type":"Polygon","arcs":[[-1219,-1216,-866,-944]],"id":"CZ","properties":{"hc-group":"admin0","hc-key":"cz","hc-a2":"CZ","name":"Czech Republic","labelrank":"5","country-abbrev":"Cz. Rep.","subregion":"Eastern Europe","region-wb":"Europe & Central Asia","iso-a3":"CZE","iso-a2":"CZ","woe-id":"23424810","continent":"Europe","hc-middle-lon":15.533,"hc-middle-lat":49.767}},{"type":"MultiPolygon","arcs":[[[1277,1278]],[[1279]],[[1280]]],"id":"PR","properties":{"hc-group":"admin0","hc-key":"pr","hc-a2":"PR","name":"Puerto Rico","labelrank":"5","country-abbrev":"P.R.","subregion":"Caribbean","region-wb":"Latin America & Caribbean","iso-a3":"PRI","iso-a2":"PR","woe-id":"23424935","continent":"North America","hc-middle-lon":-66.352,"hc-middle-lat":18.187}},{"type":"Polygon","arcs":[[1281,1282,-1222,-730,1283]],"id":"TN","properties":{"hc-group":"admin0","hc-key":"tn","hc-a2":"TN","name":"Tunisia","labelrank":"3","country-abbrev":"Tun.","subregion":"Northern Africa","region-wb":"Middle East & North Africa","iso-a3":"TUN","iso-a2":"TN","woe-id":"23424967","continent":"Africa","hc-middle-lon":9.183,"hc-middle-lat":36.656}},{"type":"Polygon","arcs":[[1284]],"id":"CU","properties":{"hc-group":"admin0","hc-key":"cu","hc-a2":"CU","name":"Cuba","labelrank":"3","country-abbrev":"Cuba","subregion":"Caribbean","region-wb":"Latin America & Caribbean","iso-a3":"CUB","iso-a2":"CU","woe-id":"23424793","continent":"North America","hc-middle-lon":-79.17,"hc-middle-lat":21.546}},{"type":"Polygon","arcs":[[1285,-1032,-1195,-308]],"id":"VN","properties":{"hc-group":"admin0","hc-key":"vn","hc-a2":"VN","name":"Vietnam","labelrank":"2","country-abbrev":"Viet.","subregion":"South-Eastern Asia","region-wb":"East Asia & Pacific","iso-a3":"VNM","iso-a2":"VN","woe-id":"23424984","continent":"Asia","hc-middle-lon":105.015,"hc-middle-lat":9.214}},{"type":"Polygon","arcs":[[1286]],"id":"MG","properties":{"hc-group":"admin0","hc-key":"mg","hc-a2":"MG","name":"Madagascar","labelrank":"3","country-abbrev":"Mad.","subregion":"Eastern Africa","region-wb":"Sub-Saharan Africa","iso-a3":"MDG","iso-a2":"MG","woe-id":"23424883","continent":"Africa","hc-middle-lon":46.45,"hc-middle-lat":-18.564}},{"type":"Polygon","arcs":[[1287,-1084,-375,-1075]],"id":"VE","properties":{"hc-group":"admin0","hc-key":"ve","hc-a2":"VE","name":"Venezuela","labelrank":"3","country-abbrev":"Ven.","subregion":"South America","region-wb":"Latin America & Caribbean","iso-a3":"VEN","iso-a2":"VE","woe-id":"23424982","continent":"South America","hc-middle-lon":-67.329,"hc-middle-lat":9.325}},{"type":"Polygon","arcs":[[1288]],"id":"IS","properties":{"hc-group":"admin0","hc-key":"is","hc-a2":"IS","name":"Iceland","labelrank":"3","country-abbrev":"Iceland","subregion":"Northern Europe","region-wb":"Europe & Central Asia","iso-a3":"ISL","iso-a2":"IS","woe-id":"23424845","continent":"Europe","hc-middle-lon":-19.021,"hc-middle-lat":64.909}},{"type":"Polygon","arcs":[[-212,-292]],"id":"NP","properties":{"hc-group":"admin0","hc-key":"np","hc-a2":"NP","name":"Nepal","labelrank":"3","country-abbrev":"Nepal","subregion":"Southern Asia","region-wb":"South Asia","iso-a3":"NPL","iso-a2":"NP","woe-id":"23424911","continent":"Asia","hc-middle-lon":84.175,"hc-middle-lat":28.136}},{"type":"Polygon","arcs":[[-377,-1083,1289,-262]],"id":"SR","properties":{"hc-group":"admin0","hc-key":"sr","hc-a2":"SR","name":"Suriname","labelrank":"4","country-abbrev":"Sur.","subregion":"South America","region-wb":"Latin America & Caribbean","iso-a3":"SUR","iso-a2":"SR","woe-id":"23424913","continent":"South America","hc-middle-lon":-54.314,"hc-middle-lat":5.583}},{"type":"Polygon","arcs":[[-892,-297,-718,-737],[-715],[-733],[-734]],"id":"KG","properties":{"hc-group":"admin0","hc-key":"kg","hc-a2":"KG","name":"Kyrgyzstan","labelrank":"4","country-abbrev":"Kgz.","subregion":"Central Asia","region-wb":"Europe & Central Asia","iso-a3":"KGZ","iso-a2":"KG","woe-id":"23424864","continent":"Asia","hc-middle-lon":74.574,"hc-middle-lat":41.44}}],"hc-recommended-transform":{"default":{"crs":"+proj=mill +lat_0=0 +lon_0=0 +x_0=0 +y_0=0 +R_A +datum=WGS84 +units=m +no_defs","scale":0.0000170830296554,"jsonres":15.5,"jsonmarginX":-999,"jsonmarginY":9851,"xoffset":-19816494.5204,"yoffset":12635908.1982}}}},"arcs":[[[357648,889940],[-3111,-845],[-377,1267],[-2075,-563],[283,1124],[2263,281],[-566,420],[566,979],[-1980,-699],[1320,978],[1414,0],[472,-1258],[2263,280],[471,1257],[-849,139],[566,1391],[0,1247],[849,0],[754,-1247],[943,555],[-849,1935],[-1131,-966],[188,3849],[566,682],[1037,-136],[-943,1090],[849,816],[-1886,-544],[-3865,544],[-755,1219],[-1697,946],[-1697,269],[-943,673],[-1131,1744],[1697,802],[1509,-534],[1791,0],[943,-401],[2451,-2014],[2546,-674],[283,1481],[-1226,-807],[-1037,1075],[1037,-268],[283,939],[-1980,0],[-754,401],[1697,669],[1602,-802],[-565,802],[-1603,667],[-1791,-400],[0,800],[754,797],[1697,-797],[849,399],[-1509,266],[283,663],[-1886,-398],[-566,266],[1980,1323],[-565,265],[-1886,-1456],[-377,265],[283,530],[-566,-662],[-2074,-398],[-754,-531],[-849,531],[1037,1456],[566,-1191],[754,398],[472,1322],[1697,-661],[282,529],[1038,527],[1225,0],[-754,527],[-1980,-1054],[-1603,395],[754,659],[2640,657],[283,655],[-1414,-655],[-1131,655],[-2263,-1049],[-189,787],[1320,917],[-1131,392],[-943,-1440],[-943,524],[660,-1180],[-283,-790],[-1885,-659],[-1037,659],[-849,-395],[-1037,1710],[-660,393],[1320,917],[-1037,522],[754,1172],[1791,1427],[-471,518],[-1226,-1166],[-377,519],[1132,905],[-755,1160],[1320,0],[849,1412],[-566,512],[849,384],[-660,1020],[-1226,-382],[-1037,891],[1320,1395],[-754,126],[565,885],[-1131,126],[-1226,1132],[1037,1254],[-1037,625],[-1414,0],[0,748],[2546,-623],[-1132,872],[283,498],[-1131,248],[848,1486],[-1225,-742],[-2075,-496],[2734,1362],[-1131,370],[1603,246],[-1320,493],[1037,369],[-3583,0],[1886,246],[1037,858],[-1886,611],[1038,611],[-849,730],[-2923,1093],[566,605],[-1980,1568],[1131,481],[-565,2034],[-1603,-239],[-660,1310],[-1037,-475],[188,713],[-943,118],[-565,711],[-1603,-236],[-471,1182],[-3583,471],[-283,471],[-1603,-471],[0,588],[-1791,470],[-660,-1294],[-849,-353],[-943,824],[-848,118],[-94,-1060],[-1792,354],[0,-1064],[-1508,591],[942,944],[-1791,235],[-566,-1297],[-1414,1297],[-1131,-824],[2357,-1538],[-5469,947],[0,473],[-3299,1764],[94,1054],[-1132,117],[1886,1049],[-2168,697],[1037,1274],[-1886,-1274],[-1603,696],[472,347],[-1415,346],[377,1038],[849,459],[3206,345],[3111,-574],[2074,229],[2546,-459],[848,115],[-3771,574],[-566,-115],[-2451,459],[1980,687],[2640,114],[1791,-228],[283,457],[1509,114],[-377,1253],[-1226,454],[-1226,0],[-283,-682],[-943,-341],[-2074,-228],[-848,1137],[0,-1023],[-1603,-456],[-2923,911],[2074,795],[95,453],[-1603,-566],[-1697,226],[1697,1131],[-1697,-565],[-1792,-113],[189,904],[-1037,-226],[-1697,564],[-95,787],[-1697,785],[660,894],[189,1668],[1791,333],[1037,553],[2169,-332],[94,773],[2169,331],[188,440],[1509,-110],[943,1317],[2734,656],[3111,219],[377,327],[2263,-327],[1509,1739],[1508,1190],[-660,2361],[189,1386],[1980,318],[471,1165],[-848,-953],[-2358,-106],[-1508,-531],[-1603,743],[-1697,-424],[-377,742],[-754,106],[0,1161],[1885,841],[189,420],[-94,209]],[[314844,977836],[1697,419],[188,417],[1509,0],[-283,521],[1414,312],[943,1555],[2357,413],[943,721],[1131,-1444],[-565,1444],[1131,513],[2169,-205],[1791,-926],[1697,823],[-1037,1332],[1414,1019],[-1791,1723],[471,504],[3394,905],[1226,-401],[2169,-202],[377,-1311],[2734,-608],[1886,-1119],[-378,611],[-1602,913],[-1132,101],[-943,1514],[-2734,903],[2357,701],[6034,996],[566,-497],[849,796],[1885,-199],[0,496],[2263,397],[1037,-397],[1414,-1492],[189,-1503],[-754,-1108],[-95,-1418],[849,0],[-189,710],[1792,1514],[0,1305],[2451,-702],[1792,-301],[3111,-1310],[943,-810],[0,810],[-1603,505],[-1509,1207],[3395,-603],[1037,502],[-3112,1501],[-1508,2578],[5845,-395],[755,-692],[4242,-1391],[3395,-999],[188,-602],[2169,-1106],[1037,-101],[1508,504],[-1791,904],[-189,501],[1509,400],[-1037,598],[565,796],[943,198],[1697,-397],[1037,100],[-1602,496],[283,396],[-1886,593],[-566,591],[-2923,1080],[-282,392],[10276,-98],[943,-1965],[283,1083],[-754,686],[848,98],[2263,-981],[1509,-295],[471,-1085],[660,-396],[189,988],[-660,296],[94,1081],[-1791,196],[-1038,392],[-12916,781],[-943,-293],[-1697,390],[-755,584],[2358,-389],[-660,389],[-1320,194],[1885,678],[2546,-775],[4808,-486],[-4808,777],[-1037,581],[943,387],[1131,-484],[283,580],[2451,-386],[2452,-97],[-3112,676],[3017,0],[-1037,386],[1697,192],[1509,-289],[3960,-1837],[3488,-194],[1226,-487],[1037,-1074],[377,586],[-1697,1266],[5091,0],[-943,291],[-3205,0],[-94,194],[5185,484],[-1980,96],[-848,386],[-2075,0],[-377,1059],[377,479],[2452,-479],[-660,575],[1320,573],[2074,-573],[189,764],[4148,0],[1509,477],[942,0],[1509,-1050],[-472,859],[4243,381],[472,-476],[4620,286],[3771,-572],[1791,0],[-660,-478],[849,-287],[471,383],[7637,-1247],[-1226,-674],[-12916,-482],[-377,-291],[-3583,-290],[-754,290],[-2735,387],[2546,-580],[-1509,-485],[-6977,-583],[472,-780],[1226,682],[2545,98],[943,-683],[283,877],[1508,195],[3395,97],[282,-389],[943,583],[3583,775],[7543,-484],[2357,194],[3677,580],[1037,-387],[189,-775],[-1038,-1070],[-1037,-489],[2829,781],[1320,-195],[565,-683],[378,488],[1320,0],[1037,-586],[471,293],[3677,-1274],[-188,-491],[-2546,-888],[-283,-693],[-4054,-397],[-16594,-996],[-1508,399],[-3395,99],[3677,-298],[1037,-599],[-5091,-901],[-2828,-804],[188,-1110],[1603,-101],[1226,1110],[2451,201],[2829,603],[660,-401],[1414,802],[3583,401],[8674,-501],[-189,-1508],[-4526,-1113],[-1037,-609],[849,-814],[2168,1018],[3017,608],[2075,708],[848,-202],[755,2113],[4997,500],[754,-801],[283,-1408],[-660,-1823],[-1509,-1530],[-754,-307],[-566,-821],[-754,-206],[-1509,-1445],[-1037,-1558],[1509,832],[-94,415],[2828,1034],[1603,1236],[1131,308],[754,819],[2358,1324],[-189,913],[2263,-304],[-1037,-1729],[2262,917],[1226,-203],[1980,-714],[943,204],[-660,1323],[-943,0],[-1320,709],[1132,404],[2074,-1316],[1697,507],[-94,809],[1791,202],[94,403],[5186,-202],[2451,-605],[2829,-607],[1791,-1219],[-2168,-919],[-1038,-1127],[-2262,-1133],[-3300,-206],[943,-621],[-283,-934],[-2829,-416],[-283,-521],[-2262,-105],[-2263,209],[-1132,417],[0,-521],[-1697,-523],[-1414,0],[-2451,627],[-2640,-836],[188,-629],[2357,1256],[4055,-1046],[1980,210],[1225,523],[1226,-838],[1791,-525],[-1791,-1265],[-1886,-317],[-471,317],[-1603,-423],[-4431,740],[-2075,-1694],[-377,-1065],[1037,-1499],[1320,751],[849,-536],[-1037,-2263],[283,-541],[1508,-326],[-94,-870],[-1697,-218],[-943,-655],[943,-1646],[1131,989],[-94,-1099],[-566,-551],[-1508,881],[-1415,220],[-282,-550],[-1132,0],[189,-1103],[-1132,-2555],[-94,-1343],[-848,-561],[282,-675],[849,450],[1320,0],[471,1123],[-660,336],[1037,559],[283,-559],[-283,-1459],[1226,225],[754,-788],[1038,0],[0,-1130],[1037,-907],[-1037,-569],[-1792,1136],[-2263,-227],[1320,-795],[-283,-1141],[1980,-343],[849,-917],[1037,-229],[-94,1032],[1508,-229],[660,-574],[95,-2074],[-943,-1624],[-1226,1045],[-943,-116],[-1414,695],[-1697,116],[-754,-463],[-2640,116],[2357,-348],[-2357,-1278],[-1415,1394],[-188,-812],[-1226,-349],[1132,-816],[565,466],[1320,-816],[-94,-1994],[471,-235],[1792,588],[1131,-588],[1509,235],[754,-942],[-1697,-946],[-4714,0],[377,-238],[3488,0],[1792,-237],[1697,-1427],[-754,-358],[565,-957],[-94,-2285],[-1226,-604],[-848,1448],[-1320,-361],[-1509,963],[-1320,1198],[-1603,359],[1792,-837],[848,-1201],[849,-362],[1320,-1207],[-1886,-121],[-1603,-970],[755,-121],[1037,849],[1414,-242],[-471,-2802],[1602,123],[1415,-735],[754,735],[566,-735],[1791,979],[660,-612],[-1320,-613],[-1508,-1970],[-2358,0],[-377,1233],[-2545,246],[-1415,-246],[-754,-862],[-471,-1609],[-660,-248],[1320,-497],[1037,497],[2545,-1244],[1132,-125],[-566,-874],[-188,-2133],[-2735,251],[-94,-629],[-2074,-1137],[-2169,758],[-2451,1763],[-94,877],[1225,0],[-1320,750],[-1037,-625],[-94,-1379],[-1320,502]],[[430906,928106],[566,-880],[-1603,-125],[-1131,-1388],[-1226,-253],[-943,758],[-943,0],[-1414,1008],[566,-1008],[1885,-505],[-660,-1013],[-1037,380],[-1508,-127],[2545,-507],[755,634],[1225,127],[2640,-888],[-283,-1400],[943,127],[-377,-894],[943,-1795],[-1509,-644],[-2168,-129],[2074,-387],[1697,387],[754,-774],[1509,-518],[377,-648],[1414,-649],[-282,-390],[1979,-782],[-1602,-1307],[188,-524],[1226,917],[471,-1048],[283,786],[1132,0],[-1603,-1180],[-189,-789],[472,-1320],[660,1583],[1037,-132],[-189,-1583],[566,-2390],[-377,-934],[565,-668],[-660,-939],[849,-268],[-1320,-1077],[-189,808],[-1037,-404],[-94,2949],[-660,-936],[0,-2013],[-1886,0],[-1602,1210],[-755,1338],[-188,1998],[-1132,1458],[95,661],[-1415,-397],[-1225,1451],[-755,394],[-2545,-131],[-3112,3009],[-1320,260],[-282,-521],[3111,-1568],[-849,-786],[2640,-921],[2735,0],[754,-658],[-377,-1455],[-2357,-1460],[-1132,-400],[-4337,267],[1320,-533],[-1037,-2275],[-2451,-672],[-95,-673],[2546,942],[189,-1077],[4148,808],[1131,-673],[-1037,-674],[-754,270],[-1320,-1082],[-1226,-677],[-565,407],[-1320,-271],[1697,-679],[1037,407],[849,-543],[282,1221],[943,676],[1414,-405],[2829,1485],[2263,-1080],[2545,-947],[3300,0],[755,271],[-755,-1357],[-1414,0],[-377,-1499],[-849,682],[283,-1502],[-943,-137],[-660,-822],[-754,137],[-943,-1099],[-848,412],[283,-1101],[-1132,-414],[-471,-1106],[-1226,138],[566,-831],[-2357,-1948],[-1226,0],[-1320,-1118],[-2263,140],[0,-841],[-943,421],[-1319,-1263],[-849,421],[-660,-1406],[-1037,844],[-849,-140],[660,-986],[-3300,-848],[-1885,424],[0,988],[-849,140],[-1131,2665],[-472,-839],[1037,-1122],[566,-2114],[-377,-1416],[-566,142],[-2734,-2276],[94,-1860],[-754,-1581],[-1226,-1588],[472,-289],[-1509,-1596],[-188,581],[-566,-2183],[-1603,-1023],[-1037,439],[-94,-1318],[-2074,-1912],[94,1765],[-660,-1912],[-660,-591],[-754,885],[-283,-589],[-1697,1913],[1603,2197],[-2169,-877],[94,-2055],[-1225,-294],[848,-589],[-377,-1330],[-754,296],[-2546,-888],[-566,888],[-659,-1185],[-660,-445],[1697,-892],[-1697,-1192],[-378,-1046],[-1131,896],[-189,-747],[-942,449],[0,-1648],[1037,-1202],[-472,1502],[1037,-600],[-188,-2259],[566,-1058],[-1320,151],[282,-1061],[-2168,607],[377,-1062],[2263,-456],[94,-2747],[-471,-306],[-1792,765],[377,-765],[1415,-154],[-189,-1074],[-1037,154],[94,-2157],[-1131,-1237],[-660,-1552],[-754,156],[0,-1245],[-2829,311],[1886,-1560],[-94,-625],[-1603,625],[1037,-1252],[943,-157],[-189,-1571],[566,-630],[-754,-631],[754,-1106],[-1226,-317],[660,-793],[-848,-476],[660,-954],[-849,-956],[377,-639],[-1697,160],[1509,-799],[-755,-160],[472,-1122],[-472,-642],[189,-1610],[-1603,-968],[849,-1781],[-95,-1137]],[[380370,830987],[-2357,812],[-283,1459],[-282,-1459],[471,-1464],[-849,-815],[-471,978],[-1320,326],[-1226,975],[-94,1782],[377,1776],[-754,-1452],[-1131,1613],[-1132,643],[2452,1285],[377,801],[-1792,-1282],[943,1282],[-471,1119],[-849,-2401],[-1131,-964],[-3866,482],[660,-804],[-943,-161],[-471,965],[1508,1284],[-1414,1279],[-1980,479],[-377,957],[2263,1113],[-377,476],[-1697,-1112],[-755,1112],[943,793],[-1225,317],[94,1579],[-1037,158],[1131,945],[-754,785],[-943,0],[-1131,1724],[471,3116],[-754,155],[-1037,1858],[282,-1393],[-848,1084],[-849,2773],[-660,921],[283,1987],[-660,457],[3112,1065],[377,1213],[-1132,-1213],[-1697,-608],[-660,912],[1132,-304],[188,1668],[-848,-152],[660,1209],[1131,0],[566,-906],[94,1509],[849,302],[471,-1358],[377,1358],[-1508,602],[-943,2846],[0,-1196],[565,-1050],[-942,-1504],[-95,1054],[-660,-301],[-1037,-3171],[-1131,-1214],[-189,3934],[755,1052],[942,300],[755,1199],[-2546,-1649],[471,1200],[-1602,2538],[282,446],[-848,1632],[283,740],[-1509,-296],[189,1328],[-849,1178],[1980,1612],[1037,1315],[943,437],[472,1018],[3394,2750],[-660,-145],[-3017,-2460],[-472,-1018],[-3394,-2922],[-754,146],[0,2631],[1226,1743],[1037,145],[1414,1158],[-1320,-145],[-2357,145],[-943,1154],[377,719],[1226,144],[3488,1148],[-4808,-861],[188,1290],[2452,1856],[1414,569],[1791,-854],[943,285],[2452,-1284],[-2075,1568],[2735,853],[-1226,567],[94,-709],[-1320,-426],[-471,852],[848,708],[-1414,-283],[660,-851],[-1037,-853],[-1791,853],[-1320,-142],[-2357,-2137],[282,1141],[-377,1138],[1509,567],[283,1133],[-283,988],[1697,-706],[-94,706],[1791,-988],[1980,141],[1697,-1132],[849,142],[-1697,849],[-1415,1129],[283,563]],[[430906,928106],[-188,752],[-1980,1374],[1697,-1499],[471,-627]],[[357648,889940],[283,0],[-189,140],[378,703],[-1415,0],[1037,-703],[-94,-140]],[[380370,830987],[-1602,-1140],[-1038,-327],[472,978],[-472,1301],[2640,-812]],[[396776,871187],[848,-148],[-660,-888],[-660,740],[-1320,-444],[-283,888],[472,1180],[565,295],[378,-1475],[660,-148]],[[358497,901564],[942,-545],[-848,-819],[94,-1232],[-848,-137],[-189,1506],[849,1227]],[[423269,907501],[-188,935],[3017,134],[2734,1330],[754,-1064],[283,-1870],[-1414,-402],[-1037,-1075],[0,940],[-1038,-537],[-4148,-672],[377,1478],[660,803]],[[345297,921512],[-1131,-128],[565,640],[1037,0],[1132,639],[566,-383],[-1509,-1795],[-660,1027]],[[435620,924192],[3677,-1146],[-660,-766],[660,-896],[-2074,128],[-471,896],[-943,383],[-3772,255],[0,637],[2075,127],[1508,382]],[[442031,933947],[1038,-123],[1131,-1729],[-3111,-620],[-1886,868],[283,1111],[1697,739],[848,-246]],[[444106,937374],[1225,-122],[-1131,-1342],[-1509,855],[189,1216],[754,486],[943,-243],[-471,-850]],[[450706,940279],[-1132,-482],[1132,-1088],[1320,363],[-95,-848],[-2074,121],[-2169,-242],[95,2056],[848,602],[472,-482],[754,722],[849,-722]],[[448348,949760],[-188,-817],[471,-4121],[-848,1773],[-660,1997],[283,2099],[942,-931]],[[302210,955641],[1131,114],[1791,-571],[-2357,-114],[-1697,-458],[-2263,572],[1038,457],[1602,-457],[755,457]],[[450234,966813],[1037,1309],[377,-1090],[-565,0],[-1226,-1535],[283,-330],[-660,-1103],[-1792,-1663],[0,-2459],[-659,-900],[0,1012],[-1415,1455],[0,669],[755,-1116],[282,1228],[2452,1885],[1131,2638]],[[452026,973719],[-1415,-1602],[-1791,-428],[-1697,643],[-754,641],[2168,1065],[2357,531],[1132,-850]],[[448066,974887],[-2546,-849],[189,955],[1131,424],[1226,-530]],[[448443,986977],[-1226,0],[-1508,1206],[-95,801],[660,100],[849,-500],[1320,-1607]],[[357931,988183],[-2451,100],[-3017,801],[-378,996],[1509,496],[848,-894],[3489,-1298],[0,-201]],[[390364,995483],[-2168,485],[-566,677],[1509,-97],[1885,-387],[-660,-678]],[[386687,996645],[1037,-677],[1038,-97],[660,-582],[-2263,388],[-2075,1064],[1603,-96]],[[388290,997993],[1414,-385],[849,-577],[1791,-290],[-283,-483],[-2545,580],[-566,482],[-1603,96],[943,577]],[[432886,920485],[-754,1923],[1603,383],[2168,-255],[1131,-1409],[2169,-1156],[0,-645],[-943,387],[-1320,0],[283,-645],[1697,-646],[-566,-1037],[-754,130],[-1508,1295],[-3206,1675]],[[369999,993141],[1509,0],[2828,-786],[2452,-1283],[-1792,-1191],[943,-897],[-943,-300],[-943,898],[-4054,1292],[-848,1087],[-1415,886],[2263,98],[0,196]],[[435526,925333],[-4714,759],[3300,-1012],[1980,-127],[283,-507],[-4149,-508],[-3488,1142],[1320,1517],[2168,126],[3394,-1263],[-94,-127]],[[314844,977941],[0,-105]],[[314844,977941],[0,0]],[[314844,977941],[-660,835],[1131,-417],[-471,-418]],[[347654,900883],[472,1089],[1414,-408],[-1414,816],[0,1625],[-472,810],[-283,943],[1603,-1347],[1509,-135],[1791,-676],[1508,-1900],[1980,-954],[472,-1230],[-849,-1097],[-3960,-1652],[-1602,689],[-189,826],[2263,-138],[-1320,961],[-2357,137],[-754,822],[1037,546],[-849,273]],[[826989,509118],[0,0]],[[278073,513661],[0,0]],[[722147,469570],[377,1213],[1791,-3155],[1697,-6319],[189,-2676],[1037,-3652],[188,-4142],[-565,-4146],[-849,-1707],[-2168,-1953],[-1132,732],[-848,5611],[-377,8527],[565,5108],[-94,1459],[754,3886],[-565,1214]],[[26526,298272],[-189,-240],[-188,-480],[-283,240],[660,480]],[[531412,794324],[1414,-2284],[-848,-176],[-1320,1231],[754,1229]],[[529338,800249],[283,693],[94,-2950],[848,-2268],[-660,-2980],[-1037,1229],[1414,1051],[-1791,350],[-943,1049],[-565,1743],[1885,869],[472,1214]],[[533769,794324],[566,0],[-1037,-1932],[-566,1405],[377,702],[-660,1400],[-1037,175],[-472,1221],[95,1392],[-472,1216],[755,0],[1225,1212],[377,-1559],[1226,3114],[1037,-518],[-283,-864],[378,-2253],[-755,0],[-471,-1217],[660,-697],[-754,-873],[-189,-1924]],[[526321,793271],[-1697,702],[-472,-176]],[[524152,793797],[-94,4021],[-1509,869],[283,1736],[566,519],[-754,1728],[0,3095],[1225,171],[1132,1540],[848,-1197],[-283,1880],[1697,1533],[-2451,-851],[0,-1194],[-943,-1539],[-848,1197],[1037,2557],[2168,340],[1603,3049],[1697,1181],[-471,-1350],[377,-1014],[1320,-847],[-1603,-849],[-566,-2042],[283,-2565],[1697,-686],[-1225,-2582],[-377,1379],[-472,-1034],[94,-1727],[-1037,-519],[472,-520],[-1509,-1910],[566,-1743],[-566,-699],[1414,-1400],[-754,175],[-848,-1228]],[[481630,847119],[755,-471],[-943,-471],[283,-2680],[-660,-2220],[94,2852],[-566,1262],[-1131,314],[660,1257],[1508,1