{"type":"Topology","objects":{"default":{"type":"GeometryCollection","geometries":[{"type":"Polygon","arcs":[[0,1,2,3,4,5]],"id":"BI.BR","properties":{"hc-group":"admin1","hc-key":"bi-br","hc-a2":"BR","labelrank":"7","hasc":"BI.BR","alt-name":null,"woe-id":"2344903","subregion":null,"fips":"BY10","postal-code":"BR","name":"Bururi","country":"Burundi","type-en":"Province","region":null,"longitude":"29.5672","woe-name":"Bururi","latitude":"-3.85152","woe-label":"Bururi, BI, Burundi","type":"Province","hc-middle-lon":29.603,"hc-middle-lat":-3.875}},{"type":"Polygon","arcs":[[6,7,8,9,10]],"id":"BI.BB","properties":{"hc-group":"admin1","hc-key":"bi-bb","hc-a2":"BB","labelrank":"9","hasc":"BI.BB","alt-name":null,"woe-id":"2344902","subregion":null,"fips":"BY09","postal-code":"BB","name":"Bubanza","country":"Burundi","type-en":"Province","region":null,"longitude":"29.3862","woe-name":"Bubanza","latitude":"-3.1045","woe-label":"Bubanza, BI, Burundi","type":"Province","hc-middle-lon":29.386,"hc-middle-lat":-3.111}},{"type":"Polygon","arcs":[[-8,11,12]],"id":"BI.CI","properties":{"hc-group":"admin1","hc-key":"bi-ci","hc-a2":"CI","labelrank":"9","hasc":"BI.CI","alt-name":null,"woe-id":"2344905","subregion":null,"fips":"BY12","postal-code":"CI","name":"Cibitoke","country":"Burundi","type-en":"Province","region":null,"longitude":"29.2407","woe-name":"Cibitoke","latitude":"-2.86742","woe-label":"Cibitoke, BI, Burundi","type":"Province","hc-middle-lon":29.226,"hc-middle-lat":-2.839}},{"type":"Polygon","arcs":[[-4,13,14,15,16,17,18,19]],"id":"BI.GI","properties":{"hc-group":"admin1","hc-key":"bi-gi","hc-a2":"GI","labelrank":"9","hasc":"BI.GI","alt-name":"Kitega","woe-id":"2344906","subregion":null,"fips":"BY13","postal-code":"GI","name":"Gitega","country":"Burundi","type-en":"Province","region":null,"longitude":"29.9159","woe-name":"Gitega","latitude":"-3.48983","woe-label":"Gitega, BI, Burundi","type":"Province","hc-middle-lon":29.939,"hc-middle-lat":-3.569}},{"type":"Polygon","arcs":[[-16,20,-9,-13,21,22]],"id":"BI.KY","properties":{"hc-group":"admin1","hc-key":"bi-ky","hc-a2":"KY","labelrank":"9","hasc":"BI.KY","alt-name":null,"woe-id":"2344908","subregion":null,"fips":"BY15","postal-code":"KY","name":"Kayanza","country":"Burundi","type-en":"Province","region":null,"longitude":"29.6613","woe-name":"Kayanza","latitude":"-3.02498","woe-label":"Kayanza, BI, Burundi","type":"Province","hc-middle-lon":29.679,"hc-middle-lat":-3.01}},{"type":"Polygon","arcs":[[23,-6,24]],"id":"BI.MA","properties":{"hc-group":"admin1","hc-key":"bi-ma","hc-a2":"MA","labelrank":"7","hasc":"BI.MA","alt-name":null,"woe-id":"2344910","subregion":null,"fips":"BY17","postal-code":"MA","name":"Makamba","country":"Burundi","type-en":"Province","region":null,"longitude":"29.771","woe-name":"Makamba","latitude":"-4.21622","woe-label":"Makamba, BI, Burundi","type":"Province","hc-middle-lon":29.766,"hc-middle-lat":-4.219}},{"type":"Polygon","arcs":[[-17,-23,25,26,27,28]],"id":"BI.NG","properties":{"hc-group":"admin1","hc-key":"bi-ng","hc-a2":"NG","labelrank":"9","hasc":"BI.NG","alt-name":null,"woe-id":"2344912","subregion":null,"fips":"BY19","postal-code":"NG","name":"Ngozi","country":"Burundi","type-en":"Province","region":null,"longitude":"29.896","woe-name":"Ngozi","latitude":"-2.86902","woe-label":"Ngozi, BI, Burundi","type":"Province","hc-middle-lon":29.931,"hc-middle-lat":-2.862}},{"type":"Polygon","arcs":[[-27,29,30]],"id":"BI.KI","properties":{"hc-group":"admin1","hc-key":"bi-ki","hc-a2":"KI","labelrank":"7","hasc":"BI.KI","alt-name":null,"woe-id":"2344909","subregion":null,"fips":"BY16","postal-code":"KI","name":"Kirundo","country":"Burundi","type-en":"Province","region":null,"longitude":"30.1647","woe-name":"Kirundo","latitude":"-2.56414","woe-label":"Kirundo, BI, Burundi","type":"Province","hc-middle-lon":30.196,"hc-middle-lat":-2.544}},{"type":"Polygon","arcs":[[-28,-31,31,32,33]],"id":"BI.MY","properties":{"hc-group":"admin1","hc-key":"bi-my","hc-a2":"MY","labelrank":"7","hasc":"BI.MY","alt-name":"Muhinga","woe-id":"2344911","subregion":null,"fips":"BY18","postal-code":"MY","name":"Muyinga","country":"Burundi","type-en":"Province","region":null,"longitude":"30.3161","woe-name":"Muyinga","latitude":"-2.89215","woe-label":null,"type":"Province","hc-middle-lon":30.346,"hc-middle-lat":-2.8}},{"type":"Polygon","arcs":[[34,35]],"id":"BI.BM","properties":{"hc-group":"admin1","hc-key":"bi-bm","hc-a2":"BM","labelrank":"9","hasc":"BI.BM","alt-name":null,"woe-id":"2344900","subregion":null,"fips":"BY24","postal-code":"BM","name":"Bujumbura Mairie","country":"Burundi","type-en":"Province","region":null,"longitude":"29.3689","woe-name":"Bujumbura Mairie","latitude":"-3.39861","woe-label":"Bujumbura Mairie, BI, Burundi","type":"Province","hc-middle-lon":29.375,"hc-middle-lat":-3.38}},{"type":"Polygon","arcs":[[-15,36,37,-10,-21]],"id":"BI.MV","properties":{"hc-group":"admin1","hc-key":"bi-mv","hc-a2":"MV","labelrank":"7","hasc":"BI.MV","alt-name":"Muramviya","woe-id":"2344901","subregion":null,"fips":"BY22","postal-code":"MV","name":"Muramvya","country":"Burundi","type-en":"Province","region":null,"longitude":"29.668","woe-name":"Muramvya","latitude":"-3.2533","woe-label":"Muramvya, BI, Burundi","type":"Province","hc-middle-lon":29.667,"hc-middle-lat":-3.284}},{"type":"Polygon","arcs":[[-38,38,-2,39,-36,40,-11]],"id":"BI.BU","properties":{"hc-group":"admin1","hc-key":"bi-bu","hc-a2":"BU","labelrank":"9","hasc":"BI.BU","alt-name":null,"woe-id":"56017453","subregion":null,"fips":"BY25","postal-code":"BU","name":"Bujumbura Rural","country":"Burundi","type-en":"Province","region":null,"longitude":"29.4237","woe-name":"Bujumbura Rural","latitude":"-3.61843","woe-label":"Bujumbura Rural, BI, Burundi","type":"Province","hc-middle-lon":29.493,"hc-middle-lat":-3.483}},{"type":"Polygon","arcs":[[-3,-39,-37,-14]],"id":"BI.MW","properties":{"hc-group":"admin1","hc-key":"bi-mw","hc-a2":"MW","labelrank":"7","hasc":"BI.MW","alt-name":null,"woe-id":"-2344901","subregion":null,"fips":"BY23","postal-code":"MW","name":"Mwaro","country":"Burundi","type-en":"Province","region":null,"longitude":"29.6943","woe-name":"Muramvya","latitude":"-3.51787","woe-label":"Muramvya, BI, Burundi","type":"Province","hc-middle-lon":29.708,"hc-middle-lat":-3.507}},{"type":"Polygon","arcs":[[-33,41,42,43]],"id":"BI.CA","properties":{"hc-group":"admin1","hc-key":"bi-ca","hc-a2":"CA","labelrank":"7","hasc":"BI.CA","alt-name":null,"woe-id":"2344904","subregion":null,"fips":"BY11","postal-code":"CA","name":"Cankuzo","country":"Burundi","type-en":"Province","region":null,"longitude":"30.5612","woe-name":"Cankuzo","latitude":"-3.11103","woe-label":"Cankuzo, BI, Burundi","type":"Province","hc-middle-lon":30.599,"hc-middle-lat":-3.151}},{"type":"Polygon","arcs":[[-44,44,-18,-29,-34]],"id":"BI.KR","properties":{"hc-group":"admin1","hc-key":"bi-kr","hc-a2":"KR","labelrank":"9","hasc":"BI.KR","alt-name":"Karusi","woe-id":"2344907","subregion":null,"fips":"BY14","postal-code":"KR","name":"Karuzi","country":"Burundi","type-en":"Province","region":null,"longitude":"30.1146","woe-name":"Karuzi","latitude":"-3.14444","woe-label":"Karuzi, BI, Burundi","type":"Province","hc-middle-lon":30.133,"hc-middle-lat":-3.151}},{"type":"Polygon","arcs":[[45,-25,-5,-20,46]],"id":"BI.RT","properties":{"hc-group":"admin1","hc-key":"bi-rt","hc-a2":"RT","labelrank":"7","hasc":"BI.RT","alt-name":null,"woe-id":"2344913","subregion":null,"fips":"BY20","postal-code":"RT","name":"Rutana","country":"Burundi","type-en":"Province","region":null,"longitude":"30.1331","woe-name":"Rutana","latitude":"-3.84824","woe-label":"Rutana, BI, Burundi","type":"Province","hc-middle-lon":30.098,"hc-middle-lat":-3.86}},{"type":"Polygon","arcs":[[-19,-45,-43,47,-47]],"id":"BI.RY","properties":{"hc-group":"admin1","hc-key":"bi-ry","hc-a2":"RY","labelrank":"7","hasc":"BI.RY","alt-name":null,"woe-id":"2344914","subregion":null,"fips":"BY21","postal-code":"RY","name":"Ruyigi","country":"Burundi","type-en":"Province","region":null,"longitude":"30.3391","woe-name":"Ruyigi","latitude":"-3.44273","woe-label":"Ruyigi, BI, Burundi","type":"Province","hc-middle-lon":30.291,"hc-middle-lat":-3.461}}],"hc-recommended-transform":{"default":{"crs":"+proj=utm +zone=35 +south +datum=WGS84 +units=m +no_defs","scale":0.00293006997818,"jsonres":15.5,"jsonmarginX":-999,"jsonmarginY":9851,"xoffset":720874.076208,"yoffset":9744995.29876}}}},"arcs":[[[2854,1316],[-69,74],[-21,96],[-18,165],[-103,115],[-83,132],[-121,144],[-35,93],[45,124],[-23,47],[-102,89],[-47,114],[-162,111],[-22,47],[-17,148],[-181,428],[4,157]],[[1899,3400],[493,10],[116,33],[207,12],[57,49],[4,115],[49,104],[129,306],[74,122],[206,94]],[[3234,4245],[87,-139],[231,-247],[142,-77],[38,-127],[-5,-196],[147,159],[23,65],[107,126]],[[4004,3809],[156,-12],[146,-34],[8,-102],[-31,-105],[-63,-345],[6,-54],[-62,-94],[93,-83],[144,79],[110,112],[70,170],[48,65],[144,-168],[-78,-115],[175,-62],[145,-3],[84,-82]],[[5099,2976],[-113,-79],[11,-89],[60,-71],[39,-102],[-180,-192],[26,-114],[-37,-106],[-13,-217],[-46,-137]],[[4846,1869],[-164,-85],[-81,36],[-37,111],[3,180],[-67,149],[-2,150],[-75,-35],[-22,-105],[-99,-216],[-203,-157],[-200,-47],[-170,-98],[-191,-182],[-260,-103],[-141,-12],[-186,-133],[-97,-6]],[[1350,5520],[26,20],[-93,64],[-38,90],[-14,309],[18,94],[40,77],[70,33],[20,84]],[[1379,6291],[246,6],[161,141],[-45,93],[-70,76],[-33,67],[26,41],[340,119],[81,166],[178,1],[51,-39],[127,80],[179,36],[131,107]],[[2751,7185],[137,-159],[76,-281],[55,-85],[66,-150],[12,-157]],[[3097,6353],[-56,-98],[-14,-106],[70,-118],[-17,-128],[-75,-108],[-41,-126],[48,-73],[-43,-67],[-65,-52]],[[2904,5477],[-158,92],[-221,-10],[-105,-20],[-194,44],[-103,-8],[-145,-27],[-134,-51],[-181,-163],[-188,53],[-125,133]],[[1379,6291],[-37,266],[-51,69],[-75,49],[-92,30],[-100,10],[-104,36],[-46,83],[-53,169],[-82,46],[-182,66],[-35,74],[-31,121],[-81,101],[-73,161],[-82,30],[-113,9],[-99,25],[-43,78],[11,98],[36,79],[68,51],[111,12],[-72,112],[93,463],[123,103],[315,18],[88,-11],[330,-123],[120,-31],[229,-25],[114,-24],[165,-90],[-3,-76],[21,-66],[117,-95],[33,-57],[-11,-53],[-75,-78],[-19,-49],[12,-53],[50,-97],[7,-57],[48,-89],[133,11],[233,87],[98,9],[104,-16]],[[2479,7667],[97,-75],[14,-130],[68,-141],[93,-136]],[[4004,3809],[195,120],[254,-26],[-16,95],[-44,91],[-68,92],[-84,73],[297,156],[240,158],[26,92],[4,92],[22,79],[46,74],[-76,133],[-161,87]],[[4639,5125],[-26,191],[-225,116],[139,162],[234,100],[-89,36],[-81,52],[-47,88],[-60,73]],[[4484,5943],[83,22],[58,59],[-41,250],[243,229]],[[4827,6503],[142,-45],[18,-87]],[[4987,6371],[-51,-192],[-38,-97],[1,-47],[38,-48],[70,-35],[96,98],[123,-3],[48,-16],[69,-139],[66,-64],[86,-56],[75,-72],[31,-110],[-14,-106],[-78,-85],[-129,-174],[32,-94],[92,-70],[94,-25],[95,133]],[[5693,5169],[135,-185],[13,-69],[92,-108],[-47,-260],[4,-123],[40,-59],[64,-168],[56,-106],[10,-130],[-12,-131]],[[6048,3830],[-22,-128],[-99,-106],[-177,-79],[-180,-59],[-67,-86],[-15,-104],[-243,-211],[-20,-134],[-68,2],[-58,51]],[[4484,5943],[-261,-48],[-64,-35],[-81,-14],[-97,45],[-55,84],[8,70],[-31,49],[-137,-48],[-123,-13],[-12,190],[-69,41],[-82,-22],[-56,27],[-52,51],[-131,3],[-144,30]],[[2479,7667],[196,-32],[127,-61],[103,30],[100,56],[175,11],[84,35],[161,50],[97,-18]],[[3522,7738],[25,-235],[-199,-125],[66,-28],[60,15],[116,-92],[127,9],[59,-35],[198,-42],[110,46],[108,4],[113,-43],[59,-158],[51,-210],[195,-20],[76,-43],[84,-20],[56,-34],[-24,-145],[25,-79]],[[6440,1960],[-142,-217],[-163,-170],[-369,-263],[-56,-68],[-138,-282],[-69,-74],[-175,-95],[-185,-90],[-195,-157],[-335,-129],[-207,45],[-88,-46],[-22,-92],[-27,-39],[-127,-64],[-39,-178],[-63,-41],[-246,23],[-178,36],[12,140],[-12,98],[-71,91],[-191,154],[-80,78],[-204,292],[-47,105],[-47,198],[-122,101]],[[4846,1869],[55,-92],[198,-106],[134,-153],[88,50],[141,149],[245,122],[461,15],[152,69],[71,48],[49,-11]],[[3522,7738],[225,-64],[102,-13],[121,12],[53,28],[23,43],[18,97],[41,44],[62,0],[121,-31],[134,-4],[110,18],[102,51],[110,96],[139,180],[51,100],[32,154]],[[4966,8449],[141,-17],[264,-61],[162,-170],[73,-116],[112,-81],[192,-217]],[[5910,7787],[135,-59],[88,-124],[-79,-143],[-121,-146],[126,-56],[202,162],[91,-9],[70,-34],[78,-1],[-1,-132]],[[6499,7245],[-158,-166],[-353,-209],[-206,-7],[-213,-78],[-118,-159],[-93,-77],[-110,-50],[-46,-84],[-215,-44]],[[4966,8449],[22,474],[118,350],[-39,357],[50,305],[99,-20],[141,-104],[141,-3],[127,-62],[168,-170],[89,-66],[114,-65],[124,-41],[121,4],[92,55],[245,262],[33,106],[63,-5],[169,-70],[154,-9],[206,46],[78,33],[94,83]],[[7375,9909],[119,-78],[55,-175],[72,-94],[5,-68],[32,-57],[80,-64],[54,-86],[-77,-195],[80,-172],[-15,-97],[-42,-90],[-108,-52],[-117,-11],[-120,-127],[-389,-293],[-76,29],[-175,-76],[-111,-71],[-143,-23],[-121,-43],[-81,-84],[-34,-99],[-136,-62],[-217,-34]],[[7375,9909],[76,68],[86,22],[199,-47],[44,-19],[59,-102],[294,-205],[180,-73],[178,-6],[-180,-192],[-72,-98],[-206,-428],[-43,-146],[-76,-107],[-129,-105],[-45,-57],[-21,-115],[60,-49],[105,-1],[115,32],[194,76],[125,39],[-36,-88],[-311,-279],[-44,-60],[-17,-72],[-3,-118],[-117,-137],[-63,-102],[12,-80],[136,-150],[82,-66],[99,-23],[-26,-51],[79,-76],[23,-58],[-59,-32]],[[8073,7004],[-84,-105],[-82,-28],[-67,-44],[-27,-72],[-76,-32],[-18,-53],[6,-97],[-16,-33],[-141,-33],[-42,-54],[-28,-179],[-71,-129],[-108,-44]],[[7319,6101],[-163,57],[-137,-32],[-168,96],[-44,45],[48,134],[113,180],[81,191],[-1,185],[-91,164],[-223,86],[-235,38]],[[1915,4174],[15,733],[-77,190],[-116,66]],[[1737,5163],[240,160],[124,17],[86,-3],[91,-67],[26,-84],[-6,-124],[-30,-109],[-92,-275],[-59,-337],[-98,-95],[-104,-72]],[[4639,5125],[-131,-46],[-396,-62],[-213,4],[-160,-28],[-106,-60],[-45,-5],[-31,42],[-79,36],[-110,-26],[-88,-54]],[[3280,4926],[-54,55],[-93,-69],[-55,84],[-43,99],[-54,87],[4,93],[-81,202]],[[3280,4926],[-9,-84],[72,-215],[-66,-168],[5,-112],[-48,-102]],[[1899,3400],[16,774]],[[1737,5163],[-59,33],[-236,36],[-251,-7],[10,135],[24,62],[125,98]],[[8073,7004],[60,31],[25,10],[108,127],[64,45],[76,24],[44,-6],[352,-181],[94,-39],[45,-123],[72,-14],[110,30],[67,4],[67,-21],[124,-70],[71,-18],[126,10],[254,60],[126,0],[-52,-81],[-167,-165],[-36,-73],[27,-68],[133,-108],[53,-64],[-30,-112],[19,-35],[94,-77],[-5,-117],[-46,-110],[-77,-94],[29,-142],[-82,-125],[-130,-75],[-150,-15],[-144,60],[-51,-96],[-267,-80],[-120,-63],[-101,-82],[-101,-102],[38,-18]],[[8792,5031],[-96,-31],[-7,104],[-34,120],[-99,90],[-203,101],[-124,-57],[-150,29],[-120,84],[-6,126],[-82,106],[-79,31],[-89,6],[-87,28],[-140,75],[-124,-20],[-93,36],[-206,57]],[[7053,5916],[223,165],[43,20]],[[7053,5916],[-72,-89],[-540,-460],[-106,-63],[-112,-25],[-248,-23],[-104,-55],[-124,-13],[-54,-19]],[[7508,3513],[-6,-86],[71,-222],[-19,-81],[-242,68],[-136,-75],[-208,-307],[-285,-249],[-65,-94],[-94,-334],[-84,-173]],[[6048,3830],[129,0],[123,-32],[62,-74],[65,-52],[296,146],[323,-102],[129,-63],[144,-36],[128,-102],[61,-2]],[[8792,5031],[164,-76],[-7,-123],[-143,-118],[-253,-101],[-114,-104],[-181,-39],[-24,-62],[-207,-9],[-47,-88],[-151,-92],[-30,-56],[11,-177],[-41,-86],[-223,-301],[-38,-86]]],"bbox":[28.986891831919394,-4.463344192442443,30.833016153196443,-2.303062572567325],"transform":{"scale":[0.0001846308952172266,0.0002160497669642082],"translate":[28.986891831919394,-4.463344192442443]},"title":"Burundi (2014)","version":"2.1.0","copyright":"Copyright (c) 2023 Highsoft AS, Based on data from Natural Earth","copyrightShort":"Natural Earth","copyrightUrl":"http://www.naturalearthdata.com"}