{"type":"Topology","objects":{"default":{"type":"GeometryCollection","geometries":[{"type":"Polygon","arcs":[[0,1,2,3,4,5,6]],"id":"US.MO.223","properties":{"hc-group":"admin2","hc-key":"us-mo-223","hc-a2":"WA","fips":"29223","name":"Wayne","hc-middle-lon":-90.498,"hc-middle-lat":37.122}},{"type":"Polygon","arcs":[[-1,7,8,9,10]],"id":"US.MO.179","properties":{"hc-group":"admin2","hc-key":"us-mo-179","hc-a2":"RE","fips":"29179","name":"Reynolds","hc-middle-lon":-90.978,"hc-middle-lat":37.363}},{"type":"Polygon","arcs":[[-8,-7,11,12,13,14]],"id":"US.MO.035","properties":{"hc-group":"admin2","hc-key":"us-mo-035","hc-a2":"CA","fips":"29035","name":"Carter","hc-middle-lon":-90.997,"hc-middle-lat":36.956}},{"type":"Polygon","arcs":[[15,16,17,18,19,20,21]],"id":"US.MO.145","properties":{"hc-group":"admin2","hc-key":"us-mo-145","hc-a2":"NE","fips":"29145","name":"Newton","hc-middle-lon":-94.339,"hc-middle-lat":36.903}},{"type":"Polygon","arcs":[[22,23,24,25,26,27]],"id":"US.MO.003","properties":{"hc-group":"admin2","hc-key":"us-mo-003","hc-a2":"AN","fips":"29003","name":"Andrew","hc-middle-lon":-94.767,"hc-middle-lat":39.976}},{"type":"Polygon","arcs":[[-28,28,29,30,31,32]],"id":"US.MO.147","properties":{"hc-group":"admin2","hc-key":"us-mo-147","hc-a2":"NO","fips":"29147","name":"Nodaway","hc-middle-lon":-94.903,"hc-middle-lat":40.353}},{"type":"Polygon","arcs":[[33,34,35,36,37]],"id":"US.MO.199","properties":{"hc-group":"admin2","hc-key":"us-mo-199","hc-a2":"SC","fips":"29199","name":"Scotland","hc-middle-lon":-92.091,"hc-middle-lat":40.454}},{"type":"Polygon","arcs":[[-38,38,39,40,41,42,43,44,-45]],"id":"US.MO.103","properties":{"hc-group":"admin2","hc-key":"us-mo-103","hc-a2":"KN","fips":"29103","name":"Knox","hc-middle-lon":-92.148,"hc-middle-lat":40.127}},{"type":"Polygon","arcs":[[45,46,-17,47,48]],"id":"US.MO.097","properties":{"hc-group":"admin2","hc-key":"us-mo-097","hc-a2":"JA","fips":"29097","name":"Jasper","hc-middle-lon":-94.336,"hc-middle-lat":37.206}},{"type":"Polygon","arcs":[[-49,49,50,51,52]],"id":"US.MO.011","properties":{"hc-group":"admin2","hc-key":"us-mo-011","hc-a2":"BA","fips":"29011","name":"Barton","hc-middle-lon":-94.352,"hc-middle-lat":37.502}},{"type":"Polygon","arcs":[[-32,53,54,55]],"id":"US.MO.227","properties":{"hc-group":"admin2","hc-key":"us-mo-227","hc-a2":"WO","fips":"29227","name":"Worth","hc-middle-lon":-94.424,"hc-middle-lat":40.478}},{"type":"Polygon","arcs":[[56,57,58,59,60,61]],"id":"US.MO.079","properties":{"hc-group":"admin2","hc-key":"us-mo-079","hc-a2":"GR","fips":"29079","name":"Grundy","hc-middle-lon":-93.564,"hc-middle-lat":40.114}},{"type":"Polygon","arcs":[[-62,62,63,64,65,66]],"id":"US.MO.117","properties":{"hc-group":"admin2","hc-key":"us-mo-117","hc-a2":"LI","fips":"29117","name":"Livingston","hc-middle-lon":-93.567,"hc-middle-lat":39.79}},{"type":"Polygon","arcs":[[67,68,69,70,71]],"id":"US.MO.125","properties":{"hc-group":"admin2","hc-key":"us-mo-125","hc-a2":"MA","fips":"29125","name":"Maries","hc-middle-lon":-91.914,"hc-middle-lat":38.152}},{"type":"Polygon","arcs":[[-68,72,73,74,75,76,77]],"id":"US.MO.131","properties":{"hc-group":"admin2","hc-key":"us-mo-131","hc-a2":"MI","fips":"29131","name":"Miller","hc-middle-lon":-92.439,"hc-middle-lat":38.224}},{"type":"Polygon","arcs":[[78,79,80,81,82,83,-70]],"id":"US.MO.073","properties":{"hc-group":"admin2","hc-key":"us-mo-073","hc-a2":"GA","fips":"29073","name":"Gasconade","hc-middle-lon":-91.507,"hc-middle-lat":38.476}},{"type":"Polygon","arcs":[[-79,-69,-78,84,85,86]],"id":"US.MO.151","properties":{"hc-group":"admin2","hc-key":"us-mo-151","hc-a2":"OS","fips":"29151","name":"Osage","hc-middle-lon":-91.864,"hc-middle-lat":38.455}},{"type":"Polygon","arcs":[[-25,87,88,89,90]],"id":"US.MO.021","properties":{"hc-group":"admin2","hc-key":"us-mo-021","hc-a2":"BU","fips":"29021","name":"Buchanan","hc-middle-lon":-94.801,"hc-middle-lat":39.677}},{"type":"Polygon","arcs":[[91,92,93,-90]],"id":"US.MO.165","properties":{"hc-group":"admin2","hc-key":"us-mo-165","hc-a2":"PL","fips":"29165","name":"Platte","hc-middle-lon":-94.756,"hc-middle-lat":39.342}},{"type":"Polygon","arcs":[[94,95,96,97,98]],"id":"US.MO.209","properties":{"hc-group":"admin2","hc-key":"us-mo-209","hc-a2":"ST","fips":"29209","name":"Stone","hc-middle-lon":-93.461,"hc-middle-lat":36.747}},{"type":"Polygon","arcs":[[99,-40,100,101,102,103,104]],"id":"US.MO.111","properties":{"hc-group":"admin2","hc-key":"us-mo-111","hc-a2":"LE","fips":"29111","name":"Lewis","hc-middle-lon":-91.75,"hc-middle-lat":40.102}},{"type":"Polygon","arcs":[[105,-103,106,107,108,109],[110,104]],"id":"US.MO.127","properties":{"hc-group":"admin2","hc-key":"us-mo-127","hc-a2":"MA","fips":"29127","name":"Marion","hc-middle-lon":-91.629,"hc-middle-lat":39.802}},{"type":"Polygon","arcs":[[111,112,113,114,115,116]],"id":"US.MO.107","properties":{"hc-group":"admin2","hc-key":"us-mo-107","hc-a2":"LA","fips":"29107","name":"Lafayette","hc-middle-lon":-93.803,"hc-middle-lat":39.077}},{"type":"Polygon","arcs":[[117,118,119,120,-117]],"id":"US.MO.101","properties":{"hc-group":"admin2","hc-key":"us-mo-101","hc-a2":"JO","fips":"29101","name":"Johnson","hc-middle-lon":-93.811,"hc-middle-lat":38.749}},{"type":"Polygon","arcs":[[121,122,123,124,125]],"id":"US.MO.163","properties":{"hc-group":"admin2","hc-key":"us-mo-163","hc-a2":"PI","fips":"29163","name":"Pike","hc-middle-lon":-91.202,"hc-middle-lat":39.36}},{"type":"Polygon","arcs":[[-122,126,127,128,129,130,131]],"id":"US.MO.007","properties":{"hc-group":"admin2","hc-key":"us-mo-007","hc-a2":"AU","fips":"29007","name":"Audrain","hc-middle-lon":-91.816,"hc-middle-lat":39.2}},{"type":"Polygon","arcs":[[132,133,134,135,-60]],"id":"US.MO.211","properties":{"hc-group":"admin2","hc-key":"us-mo-211","hc-a2":"SU","fips":"29211","name":"Sullivan","hc-middle-lon":-93.112,"hc-middle-lat":40.21}},{"type":"Polygon","arcs":[[-133,-59,136,137,138]],"id":"US.MO.129","properties":{"hc-group":"admin2","hc-key":"us-mo-129","hc-a2":"ME","fips":"29129","name":"Mercer","hc-middle-lon":-93.57,"hc-middle-lat":40.422}},{"type":"Polygon","arcs":[[139,140,-22]],"id":"US.MO.119","properties":{"hc-group":"admin2","hc-key":"us-mo-119","hc-a2":"MC","fips":"29119","name":"McDonald","hc-middle-lon":-94.344,"hc-middle-lat":36.63}},{"type":"Polygon","arcs":[[-140,-21,-20,141,-96,142]],"id":"US.MO.009","properties":{"hc-group":"admin2","hc-key":"us-mo-009","hc-a2":"BA","fips":"29009","name":"Barry","hc-middle-lon":-93.827,"hc-middle-lat":36.711}},{"type":"Polygon","arcs":[[143,-123,-132,144,-108]],"id":"US.MO.173","properties":{"hc-group":"admin2","hc-key":"us-mo-173","hc-a2":"RA","fips":"29173","name":"Ralls","hc-middle-lon":-91.562,"hc-middle-lat":39.481}},{"type":"Polygon","arcs":[[145,146,147,148,149]],"id":"US.MO.201","properties":{"hc-group":"admin2","hc-key":"us-mo-201","hc-a2":"SC","fips":"29201","name":"Scott","hc-middle-lon":-89.573,"hc-middle-lat":37.051}},{"type":"Polygon","arcs":[[-146,150,151,152,153,154]],"id":"US.MO.143","properties":{"hc-group":"admin2","hc-key":"us-mo-143","hc-a2":"NM","fips":"29143","name":"New Madrid","hc-middle-lon":-89.746,"hc-middle-lat":36.507}},{"type":"MultiPolygon","arcs":[[[155,155,155]],[[156,157,158,159,160,161]]],"id":"US.MO.187","properties":{"hc-group":"admin2","hc-key":"us-mo-187","hc-a2":"SF","fips":"29187","name":"St. Francois","hc-middle-lon":-90.486,"hc-middle-lat":37.761}},{"type":"Polygon","arcs":[[-162,162,163,164,165,166]],"id":"US.MO.099","properties":{"hc-group":"admin2","hc-key":"us-mo-099","hc-a2":"JE","fips":"29099","name":"Jefferson","hc-middle-lon":-90.545,"hc-middle-lat":38.263}},{"type":"Polygon","arcs":[[-167,167,168,-157]],"id":"US.MO.186","properties":{"hc-group":"admin2","hc-key":"us-mo-186","hc-a2":"SG","fips":"29186","name":"Ste. Genevieve","hc-middle-lon":-90.227,"hc-middle-lat":37.903}},{"type":"Polygon","arcs":[[-160,169,-2,-11,170,171,172]],"id":"US.MO.093","properties":{"hc-group":"admin2","hc-key":"us-mo-093","hc-a2":"IR","fips":"29093","name":"Iron","hc-middle-lon":-90.656,"hc-middle-lat":37.502}},{"type":"MultiPolygon","arcs":[[[-173,173,174,-163,-161]],[[175,175,175]],[[175,175,175]]],"id":"US.MO.221","properties":{"hc-group":"admin2","hc-key":"us-mo-221","hc-a2":"WA","fips":"29221","name":"Washington","hc-middle-lon":-90.87,"hc-middle-lat":37.97}},{"type":"Polygon","arcs":[[-158,-169,176,177,178,179]],"id":"US.MO.157","properties":{"hc-group":"admin2","hc-key":"us-mo-157","hc-a2":"PE","fips":"29157","name":"Perry","hc-middle-lon":-89.803,"hc-middle-lat":37.699}},{"type":"Polygon","arcs":[[-47,180,181,182,-97,-142,19,-20,183,-18]],"id":"US.MO.109","properties":{"hc-group":"admin2","hc-key":"us-mo-109","hc-a2":"LA","fips":"29109","name":"Lawrence","hc-middle-lon":-93.834,"hc-middle-lat":37.107}},{"type":"Polygon","arcs":[[-180,184,-3,-170,-159]],"id":"US.MO.123","properties":{"hc-group":"admin2","hc-key":"us-mo-123","hc-a2":"MA","fips":"29123","name":"Madison","hc-middle-lon":-90.346,"hc-middle-lat":37.476}},{"type":"Polygon","arcs":[[-33,-56,185,186,187,-23]],"id":"US.MO.075","properties":{"hc-group":"admin2","hc-key":"us-mo-075","hc-a2":"GE","fips":"29075","name":"Gentry","hc-middle-lon":-94.411,"hc-middle-lat":40.211}},{"type":"Polygon","arcs":[[-126,188,189,-80,-87,190,-127]],"id":"US.MO.139","properties":{"hc-group":"admin2","hc-key":"us-mo-139","hc-a2":"MO","fips":"29139","name":"Montgomery","hc-middle-lon":-91.449,"hc-middle-lat":38.996}},{"type":"Polygon","arcs":[[-39,-37,191,-101]],"id":"US.MO.045","properties":{"hc-group":"admin2","hc-key":"us-mo-045","hc-a2":"CL","fips":"29045","name":"Clark","hc-middle-lon":-91.737,"hc-middle-lat":40.432}},{"type":"Polygon","arcs":[[-42,192,193,194,195,196,197]],"id":"US.MO.121","properties":{"hc-group":"admin2","hc-key":"us-mo-121","hc-a2":"MA","fips":"29121","name":"Macon","hc-middle-lon":-92.573,"hc-middle-lat":39.826}},{"type":"MultiPolygon","arcs":[[[-43,-198,198,-135,199,200,-34,44,201]],[[202,202,202]]],"id":"US.MO.001","properties":{"hc-group":"admin2","hc-key":"us-mo-001","hc-a2":"AD","fips":"29001","name":"Adair","hc-middle-lon":-92.544,"hc-middle-lat":40.149}},{"type":"Polygon","arcs":[[-52,203,204,205,206]],"id":"US.MO.039","properties":{"hc-group":"admin2","hc-key":"us-mo-039","hc-a2":"CE","fips":"29039","name":"Cedar","hc-middle-lon":-93.844,"hc-middle-lat":37.737}},{"type":"Polygon","arcs":[[-206,207,208,209,210,211]],"id":"US.MO.167","properties":{"hc-group":"admin2","hc-key":"us-mo-167","hc-a2":"PO","fips":"29167","name":"Polk","hc-middle-lon":-93.406,"hc-middle-lat":37.623}},{"type":"Polygon","arcs":[[212,213,-209,214,215]],"id":"US.MO.085","properties":{"hc-group":"admin2","hc-key":"us-mo-085","hc-a2":"HI","fips":"29085","name":"Hickory","hc-middle-lon":-93.32,"hc-middle-lat":37.938}},{"type":"Polygon","arcs":[[-213,216,217,-74,218,219,220]],"id":"US.MO.029","properties":{"hc-group":"admin2","hc-key":"us-mo-029","hc-a2":"CA","fips":"29029","name":"Camden","hc-middle-lon":-92.805,"hc-middle-lat":38.036}},{"type":"Polygon","arcs":[[221,-165,222,223,224,225]],"id":"US.MO.189","properties":{"hc-group":"admin2","hc-key":"us-mo-189","hc-a2":"SL","fips":"29189","name":"St. Louis","hc-middle-lon":-90.446,"hc-middle-lat":38.65}},{"type":"Polygon","arcs":[[226,227,228,229,230,231,232,233,234]],"id":"US.MO.067","properties":{"hc-group":"admin2","hc-key":"us-mo-067","hc-a2":"DO","fips":"29067","name":"Douglas","hc-middle-lon":-92.5,"hc-middle-lat":36.933}},{"type":"Polygon","arcs":[[-227,-235,235,236,237,238,239]],"id":"US.MO.091","properties":{"hc-group":"admin2","hc-key":"us-mo-091","hc-a2":"HO","fips":"29091","name":"Howell","hc-middle-lon":-91.889,"hc-middle-lat":36.776}},{"type":"Polygon","arcs":[[-64,240,-196,241,242,243,244,245,246]],"id":"US.MO.041","properties":{"hc-group":"admin2","hc-key":"us-mo-041","hc-a2":"CH","fips":"29041","name":"Chariton","hc-middle-lon":-92.94,"hc-middle-lat":39.508}},{"type":"Polygon","arcs":[[247,248,-75,-218,249,250,251]],"id":"US.MO.141","properties":{"hc-group":"admin2","hc-key":"us-mo-141","hc-a2":"MO","fips":"29141","name":"Morgan","hc-middle-lon":-92.852,"hc-middle-lat":38.396}},{"type":"Polygon","arcs":[[-217,-216,252,253,254,-250]],"id":"US.MO.015","properties":{"hc-group":"admin2","hc-key":"us-mo-015","hc-a2":"BE","fips":"29015","name":"Benton","hc-middle-lon":-93.288,"hc-middle-lat":38.303}},{"type":"Polygon","arcs":[[-14,255,256,-238,257]],"id":"US.MO.149","properties":{"hc-group":"admin2","hc-key":"us-mo-149","hc-a2":"OR","fips":"29149","name":"Oregon","hc-middle-lon":-91.398,"hc-middle-lat":36.692}},{"type":"Polygon","arcs":[[-199,-197,-241,-63,-61,-136]],"id":"US.MO.115","properties":{"hc-group":"admin2","hc-key":"us-mo-115","hc-a2":"LI","fips":"29115","name":"Linn","hc-middle-lon":-92.997,"hc-middle-lat":39.828}},{"type":"Polygon","arcs":[[-244,258,-242,-195,259,-130,260,261]],"id":"US.MO.175","properties":{"hc-group":"admin2","hc-key":"us-mo-175","hc-a2":"RA","fips":"29175","name":"Randolph","hc-middle-lon":-92.505,"hc-middle-lat":39.432}},{"type":"Polygon","arcs":[[-194,262,-109,-145,-131,-260]],"id":"US.MO.137","properties":{"hc-group":"admin2","hc-key":"us-mo-137","hc-a2":"MO","fips":"29137","name":"Monroe","hc-middle-lon":-92.011,"hc-middle-lat":39.5}},{"type":"Polygon","arcs":[[-81,-190,263,264,265]],"id":"US.MO.219","properties":{"hc-group":"admin2","hc-key":"us-mo-219","hc-a2":"WA","fips":"29219","name":"Warren","hc-middle-lon":-91.134,"hc-middle-lat":38.771}},{"type":"Polygon","arcs":[[266,267,268,269,-93]],"id":"US.MO.047","properties":{"hc-group":"admin2","hc-key":"us-mo-047","hc-a2":"CL","fips":"29047","name":"Clay","hc-middle-lon":-94.406,"hc-middle-lat":39.325}},{"type":"Polygon","arcs":[[-55,270,-137,-58,271,-186]],"id":"US.MO.081","properties":{"hc-group":"admin2","hc-key":"us-mo-081","hc-a2":"HA","fips":"29081","name":"Harrison","hc-middle-lon":-93.996,"hc-middle-lat":40.353}},{"type":"Polygon","arcs":[[272,-210,-214,-221,273,274]],"id":"US.MO.059","properties":{"hc-group":"admin2","hc-key":"us-mo-059","hc-a2":"DA","fips":"29059","name":"Dallas","hc-middle-lon":-93.019,"hc-middle-lat":37.704}},{"type":"Polygon","arcs":[[-273,275,276,-182,277,-211]],"id":"US.MO.077","properties":{"hc-group":"admin2","hc-key":"us-mo-077","hc-a2":"GR","fips":"29077","name":"Greene","hc-middle-lon":-93.343,"hc-middle-lat":37.258}},{"type":"Polygon","arcs":[[-187,-272,-57,-67,278,279]],"id":"US.MO.061","properties":{"hc-group":"admin2","hc-key":"us-mo-061","hc-a2":"DA","fips":"29061","name":"Daviess","hc-middle-lon":-93.989,"hc-middle-lat":39.961}},{"type":"Polygon","arcs":[[280,281,-115,282,-246,283]],"id":"US.MO.195","properties":{"hc-group":"admin2","hc-key":"us-mo-195","hc-a2":"SA","fips":"29195","name":"Saline","hc-middle-lon":-93.167,"hc-middle-lat":39.147}},{"type":"Polygon","arcs":[[-281,284,285,286,287,-252,288]],"id":"US.MO.053","properties":{"hc-group":"admin2","hc-key":"us-mo-053","hc-a2":"CO","fips":"29053","name":"Cooper","hc-middle-lon":-92.819,"hc-middle-lat":38.834}},{"type":"Polygon","arcs":[[-286,289,-261,-129,290,291,292]],"id":"US.MO.019","properties":{"hc-group":"admin2","hc-key":"us-mo-019","hc-a2":"BO","fips":"29019","name":"Boone","hc-middle-lon":-92.345,"hc-middle-lat":39}},{"type":"Polygon","arcs":[[-171,-10,293,294,295,296]],"id":"US.MO.065","properties":{"hc-group":"admin2","hc-key":"us-mo-065","hc-a2":"DE","fips":"29065","name":"Dent","hc-middle-lon":-91.508,"hc-middle-lat":37.604}},{"type":"Polygon","arcs":[[297,298,299,300,301]],"id":"US.MO.013","properties":{"hc-group":"admin2","hc-key":"us-mo-013","hc-a2":"BA","fips":"29013","name":"Bates","hc-middle-lon":-94.335,"hc-middle-lat":38.249}},{"type":"Polygon","arcs":[[-298,302,-119,303,-254,304]],"id":"US.MO.083","properties":{"hc-group":"admin2","hc-key":"us-mo-083","hc-a2":"HE","fips":"29083","name":"Henry","hc-middle-lon":-93.794,"hc-middle-lat":38.385}},{"type":"Polygon","arcs":[[305,-269,306,-112,-121,307]],"id":"US.MO.095","properties":{"hc-group":"admin2","hc-key":"us-mo-095","hc-a2":"JA","fips":"29095","name":"Jackson","hc-middle-lon":-94.414,"hc-middle-lat":39.04}},{"type":"Polygon","arcs":[[308,-233,309,310,311,312,-295,313,-236,234]],"id":"US.MO.215","properties":{"hc-group":"admin2","hc-key":"us-mo-215","hc-a2":"TE","fips":"29215","name":"Texas","hc-middle-lon":-91.95,"hc-middle-lat":37.328}},{"type":"Polygon","arcs":[[-116,-282,-289,-251,-255,-304,-118]],"id":"US.MO.159","properties":{"hc-group":"admin2","hc-key":"us-mo-159","hc-a2":"PE","fips":"29159","name":"Pettis","hc-middle-lon":-93.282,"hc-middle-lat":38.721}},{"type":"Polygon","arcs":[[-53,-207,-212,-278,-181,-46]],"id":"US.MO.057","properties":{"hc-group":"admin2","hc-key":"us-mo-057","hc-a2":"DA","fips":"29057","name":"Dade","hc-middle-lon":-93.85,"hc-middle-lat":37.432}},{"type":"Polygon","arcs":[[-183,-277,314,-230,315,-98]],"id":"US.MO.043","properties":{"hc-group":"admin2","hc-key":"us-mo-043","hc-a2":"CH","fips":"29043","name":"Christian","hc-middle-lon":-93.122,"hc-middle-lat":36.952}},{"type":"Polygon","arcs":[[-76,-249,-287,-293,316]],"id":"US.MO.135","properties":{"hc-group":"admin2","hc-key":"us-mo-135","hc-a2":"MO","fips":"29135","name":"Moniteau","hc-middle-lon":-92.597,"hc-middle-lat":38.596}},{"type":"Polygon","arcs":[[-100,-110,-263,-193,-41]],"id":"US.MO.205","properties":{"hc-group":"admin2","hc-key":"us-mo-205","hc-a2":"SH","fips":"29205","name":"Shelby","hc-middle-lon":-92.07,"hc-middle-lat":39.779}},{"type":"Polygon","arcs":[[-208,-205,317,-299,-305,-253,-215]],"id":"US.MO.185","properties":{"hc-group":"admin2","hc-key":"us-mo-185","hc-a2":"SC","fips":"29185","name":"St. Clair","hc-middle-lon":-93.782,"hc-middle-lat":38.026}},{"type":"Polygon","arcs":[[-83,318,-174,-172,-297,319]],"id":"US.MO.055","properties":{"hc-group":"admin2","hc-key":"us-mo-055","hc-a2":"CR","fips":"29055","name":"Crawford","hc-middle-lon":-91.312,"hc-middle-lat":38}},{"type":"Polygon","arcs":[[320,-65,-247,-283,-114,321]],"id":"US.MO.033","properties":{"hc-group":"admin2","hc-key":"us-mo-033","hc-a2":"CA","fips":"29033","name":"Carroll","hc-middle-lon":-93.485,"hc-middle-lat":39.367}},{"type":"Polygon","arcs":[[-321,322,323,324,-279,-66]],"id":"US.MO.025","properties":{"hc-group":"admin2","hc-key":"us-mo-025","hc-a2":"CA","fips":"29025","name":"Caldwell","hc-middle-lon":-93.984,"hc-middle-lat":39.657}},{"type":"Polygon","arcs":[[-324,325,-267,-92,-89,326]],"id":"US.MO.049","properties":{"hc-group":"admin2","hc-key":"us-mo-049","hc-a2":"CL","fips":"29049","name":"Clinton","hc-middle-lon":-94.404,"hc-middle-lat":39.601}},{"type":"Polygon","arcs":[[-88,-24,-188,-280,-325,-327]],"id":"US.MO.063","properties":{"hc-group":"admin2","hc-key":"us-mo-063","hc-a2":"DE","fips":"29063","name":"DeKalb","hc-middle-lon":-94.403,"hc-middle-lat":39.893}},{"type":"Polygon","arcs":[[-229,327,328,-99,-316]],"id":"US.MO.213","properties":{"hc-group":"admin2","hc-key":"us-mo-213","hc-a2":"TA","fips":"29213","name":"Taney","hc-middle-lon":-93.041,"hc-middle-lat":36.654}},{"type":"Polygon","arcs":[[-231,-315,-276,-275,329,330]],"id":"US.MO.225","properties":{"hc-group":"admin2","hc-key":"us-mo-225","hc-a2":"WE","fips":"29225","name":"Webster","hc-middle-lon":-92.878,"hc-middle-lat":37.277}},{"type":"Polygon","arcs":[[-134,-139,331,332,-200]],"id":"US.MO.171","properties":{"hc-group":"admin2","hc-key":"us-mo-171","hc-a2":"PU","fips":"29171","name":"Putnam","hc-middle-lon":-92.852,"hc-middle-lat":40.465}},{"type":"Polygon","arcs":[[-6,333,334,335,336,-12]],"id":"US.MO.023","properties":{"hc-group":"admin2","hc-key":"us-mo-023","hc-a2":"BU","fips":"29023","name":"Butler","hc-middle-lon":-90.412,"hc-middle-lat":36.712}},{"type":"Polygon","arcs":[[337,-148,338,339,-178]],"id":"US.MO.031","properties":{"hc-group":"admin2","hc-key":"us-mo-031","hc-a2":"CG","fips":"29031","name":"Cape Girardeau","hc-middle-lon":-89.698,"hc-middle-lat":37.404}},{"type":"Polygon","arcs":[[340,-151,-150]],"id":"US.MO.133","properties":{"hc-group":"admin2","hc-key":"us-mo-133","hc-a2":"MI","fips":"29133","name":"Mississippi","hc-middle-lon":-89.3,"hc-middle-lat":36.855}},{"type":"Polygon","arcs":[[-125,341,342,-264,-189]],"id":"US.MO.113","properties":{"hc-group":"admin2","hc-key":"us-mo-113","hc-a2":"LI","fips":"29113","name":"Lincoln","hc-middle-lon":-90.962,"hc-middle-lat":39.049}},{"type":"Polygon","arcs":[[343,-35,-201,-333]],"id":"US.MO.197","properties":{"hc-group":"admin2","hc-key":"us-mo-197","hc-a2":"SC","fips":"29197","name":"Schuyler","hc-middle-lon":-92.528,"hc-middle-lat":40.47}},{"type":"Polygon","arcs":[[344,-308,-120,-303,-302]],"id":"US.MO.037","properties":{"hc-group":"admin2","hc-key":"us-mo-037","hc-a2":"CA","fips":"29037","name":"Cass","hc-middle-lon":-94.336,"hc-middle-lat":38.647}},{"type":"Polygon","arcs":[[345,-335,346,-154,347]],"id":"US.MO.069","properties":{"hc-group":"admin2","hc-key":"us-mo-069","hc-a2":"DU","fips":"29069","name":"Dunklin","hc-middle-lon":-90.115,"hc-middle-lat":36.106}},{"type":"Polygon","arcs":[[348,-328,-228,-240]],"id":"US.MO.153","properties":{"hc-group":"admin2","hc-key":"us-mo-153","hc-a2":"OZ","fips":"29153","name":"Ozark","hc-middle-lon":-92.443,"hc-middle-lat":36.649}},{"type":"Polygon","arcs":[[-4,-185,-179,-340,349]],"id":"US.MO.017","properties":{"hc-group":"admin2","hc-key":"us-mo-017","hc-a2":"BO","fips":"29017","name":"Bollinger","hc-middle-lon":-90.043,"hc-middle-lat":37.277}},{"type":"Polygon","arcs":[[-224,350,-265,-343,351]],"id":"US.MO.183","properties":{"hc-group":"admin2","hc-key":"us-mo-183","hc-a2":"SC","fips":"29183","name":"St. Charles","hc-middle-lon":-90.7,"hc-middle-lat":38.752}},{"type":"Polygon","arcs":[[-175,-319,-82,-266,-351,-223,-164]],"id":"US.MO.071","properties":{"hc-group":"admin2","hc-key":"us-mo-071","hc-a2":"FR","fips":"29071","name":"Franklin","hc-middle-lon":-91.049,"hc-middle-lat":38.412}},{"type":"Polygon","arcs":[[-256,-13,-337,352]],"id":"US.MO.181","properties":{"hc-group":"admin2","hc-key":"us-mo-181","hc-a2":"RI","fips":"29181","name":"Ripley","hc-middle-lon":-90.848,"hc-middle-lat":36.657}},{"type":"Polygon","arcs":[[-322,-113,-307,-268,-326,-323]],"id":"US.MO.177","properties":{"hc-group":"admin2","hc-key":"us-mo-177","hc-a2":"RA","fips":"29177","name":"Ray","hc-middle-lon":-94.042,"hc-middle-lat":39.376}},{"type":"Polygon","arcs":[[353,354,-29,-27]],"id":"US.MO.087","properties":{"hc-group":"admin2","hc-key":"us-mo-087","hc-a2":"HO","fips":"29087","name":"Holt","hc-middle-lon":-95.204,"hc-middle-lat":40.083}},{"type":"Polygon","arcs":[[-300,-318,-204,-51,355]],"id":"US.MO.217","properties":{"hc-group":"admin2","hc-key":"us-mo-217","hc-a2":"VE","fips":"29217","name":"Vernon","hc-middle-lon":-94.339,"hc-middle-lat":37.85}},{"type":"Polygon","arcs":[[356,-311,357,-330,-274,-220]],"id":"US.MO.105","properties":{"hc-group":"admin2","hc-key":"us-mo-105","hc-a2":"LA","fips":"29105","name":"Laclede","hc-middle-lon":-92.609,"hc-middle-lat":37.685}},{"type":"Polygon","arcs":[[-357,-219,-73,-72,358,-312]],"id":"US.MO.169","properties":{"hc-group":"admin2","hc-key":"us-mo-169","hc-a2":"PU","fips":"29169","name":"Pulaski","hc-middle-lon":-92.218,"hc-middle-lat":37.812}},{"type":"Polygon","arcs":[[-296,-313,-359,-71,-84,-320]],"id":"US.MO.161","properties":{"hc-group":"admin2","hc-key":"us-mo-161","hc-a2":"PH","fips":"29161","name":"Phelps","hc-middle-lon":-91.777,"hc-middle-lat":37.921}},{"type":"Polygon","arcs":[[-358,-310,-232,-331]],"id":"US.MO.229","properties":{"hc-group":"admin2","hc-key":"us-mo-229","hc-a2":"WR","fips":"29229","name":"Wright","hc-middle-lon":-92.47,"hc-middle-lat":37.271}},{"type":"Polygon","arcs":[[-348,-153,359]],"id":"US.MO.155","properties":{"hc-group":"admin2","hc-key":"us-mo-155","hc-a2":"PE","fips":"29155","name":"Pemiscot","hc-middle-lon":-89.75,"hc-middle-lat":36.259}},{"type":"Polygon","arcs":[[-294,-9,-15,-258,-237,-314]],"id":"US.MO.203","properties":{"hc-group":"admin2","hc-key":"us-mo-203","hc-a2":"SH","fips":"29203","name":"Shannon","hc-middle-lon":-91.393,"hc-middle-lat":37.153}},{"type":"Polygon","arcs":[[360,-30,-355]],"id":"US.MO.005","properties":{"hc-group":"admin2","hc-key":"us-mo-005","hc-a2":"AT","fips":"29005","name":"Atchison","hc-middle-lon":-95.414,"hc-middle-lat":40.422}},{"type":"Polygon","arcs":[[361,-226]],"id":"US.MO.510","properties":{"hc-group":"admin2","hc-key":"us-mo-510","hc-a2":"SL","fips":"29510","name":"St. Louis","hc-middle-lon":-90.197,"hc-middle-lat":38.606}},{"type":"Polygon","arcs":[[-155,-347,-334,-5,-350,-339,-147]],"id":"US.MO.207","properties":{"hc-group":"admin2","hc-key":"us-mo-207","hc-a2":"ST","fips":"29207","name":"Stoddard","hc-middle-lon":-89.917,"hc-middle-lat":36.878}},{"type":"Polygon","arcs":[[-128,-191,-86,362,-291]],"id":"US.MO.027","properties":{"hc-group":"admin2","hc-key":"us-mo-027","hc-a2":"CA","fips":"29027","name":"Callaway","hc-middle-lon":-91.928,"hc-middle-lat":38.851}},{"type":"Polygon","arcs":[[-77,-317,-292,-363,-85]],"id":"US.MO.051","properties":{"hc-group":"admin2","hc-key":"us-mo-051","hc-a2":"CO","fips":"29051","name":"Cole","hc-middle-lon":-92.296,"hc-middle-lat":38.493}},{"type":"Polygon","arcs":[[-245,-262,-290,-285,-284]],"id":"US.MO.089","properties":{"hc-group":"admin2","hc-key":"us-mo-089","hc-a2":"HO","fips":"29089","name":"Howard","hc-middle-lon":-92.707,"hc-middle-lat":39.133}}],"hc-recommended-transform":{"default":{"crs":"+proj=tmerc +lat_0=35.83333333333334 +lon_0=-92.5 +k=0.9999333333333333 +x_0=500000 +y_0=0 +ellps=GRS80 +units=m +no_defs","scale":0.00120837644984,"jsonres":15.5,"jsonmarginX":-999,"jsonmarginY":9851,"xoffset":223524.309153,"yoffset":532554.698669}}}},"arcs":[[[7481,2283],[0,191],[63,61],[3,227]],[[7547,2762],[277,3],[1,98]],[[7825,2863],[305,-7],[194,0]],[[8324,2856],[-9,-494],[170,-1],[-2,-97]],[[8483,2264],[-55,1],[-2,-74],[-111,-93],[0,-62],[-53,-30]],[[8262,2006],[-141,9],[-489,0]],[[7632,2015],[-28,2],[3,94],[-53,64],[2,106],[-75,2]],[[7481,2283],[-278,8],[1,94],[-81,-3]],[[7123,2382],[1,104],[-26,55],[-55,-14],[-25,88],[-57,-9],[4,120],[-54,1],[1,125],[-27,-1],[2,222],[-55,1]],[[6832,3074],[1,187],[-155,7],[3,191],[236,-11]],[[6917,3448],[82,-1],[171,35],[327,-2],[-7,-496],[35,-2],[-6,-223],[28,3]],[[7632,2015],[-1,-94],[27,0],[-2,-154]],[[7656,1767],[-350,2],[-330,23]],[[6976,1792],[-164,5],[4,126]],[[6816,1923],[8,439],[162,-5],[137,25]],[[1721,1669],[0,107],[1,521]],[[1722,2297],[538,-8],[300,-11]],[[2560,2278],[-5,-235],[0,-2]],[[2555,2041],[0,-10],[0,-4]],[[2555,2027],[0,-1]],[[2555,2026],[-6,-219],[-4,-179]],[[2545,1628],[-318,15],[-506,26]],[[1740,8944],[-1,-189],[2,0]],[[1741,8755],[2,-355],[1,-120]],[[1744,8280],[-222,4],[-188,-2]],[[1334,8282],[-95,69],[18,73],[-41,33],[-57,-8]],[[1159,8449],[-20,54],[26,43],[-24,81],[-8,145],[-36,4],[-13,177]],[[1084,8953],[390,-7],[266,-2]],[[1084,8953],[-26,90],[-17,193],[-164,2]],[[877,9238],[5,469],[-36,1],[-1,216]],[[845,9924],[432,-8],[424,-8]],[[1701,9908],[0,-215],[36,0],[-1,-185],[15,0]],[[1751,9508],[-6,-187],[-5,-377]],[[5128,9327],[-4,0],[0,94]],[[5124,9421],[-2,282],[1,261]],[[5123,9964],[382,10],[230,9]],[[5735,9983],[-3,-361],[-8,-300]],[[5724,9322],[-338,7],[-258,-2]],[[5724,9322],[0,-58],[-1,-36]],[[5723,9228],[6,-95],[-9,-572]],[[5720,8561],[-315,11],[-187,-4]],[[5218,8568],[-86,2],[0,182]],[[5132,8752],[-2,386]],[[5130,9138],[-2,189]],[[5128,9327],[0,-2]],[[2526,2931],[-3,-126],[47,-2]],[[2570,2803],[-5,-241],[-5,-284]],[[1722,2297],[-1,206],[2,460]],[[1723,2963],[391,-19],[412,-13]],[[1723,2963],[1,295],[-2,332]],[[1722,3590],[530,-16],[286,-15]],[[2538,3559],[-1,-54],[-1,-71]],[[2536,3434],[-6,-331],[-4,-172]],[[1701,9908],[241,-1],[358,2]],[[2300,9909],[1,-220],[26,1],[0,-188]],[[2327,9502],[-142,5],[-434,1]],[[3006,8583],[-5,308],[2,68]],[[3003,8959],[1,220],[0,63]],[[3004,9242],[107,0],[487,5]],[[3598,9247],[1,-505],[7,0]],[[3606,8742],[1,-14],[-1,-128]],[[3606,8600],[-365,-9],[-235,-8]],[[3606,8600],[-4,-570],[146,-1]],[[3748,8029],[-30,-47],[39,-114],[-25,-30]],[[3732,7838],[-450,-5],[-271,-4]],[[3011,7829],[0,193],[-1,182]],[[3010,8204],[-2,206],[-2,173]],[[5372,4375],[5,314],[-25,0],[4,284]],[[5356,4973],[292,-9],[207,12],[328,-11]],[[6183,4965],[-1,-292],[22,-1]],[[6204,4672],[-3,-222],[-395,0],[-59,-43],[-35,11],[-12,-57],[-82,2]],[[5618,4363],[-246,10],[0,2]],[[5372,4375],[-291,9],[-41,2]],[[5040,4386],[-165,2],[-26,64],[-55,32],[-53,159],[2,67],[-56,2],[3,90],[-85,19]],[[4605,4821],[10,273],[83,-1],[14,179]],[[4712,5272],[187,-6],[7,0]],[[4906,5266],[138,-5],[-8,-182],[186,-8],[52,-32],[84,27]],[[5358,5066],[-1,-57],[-1,-36]],[[6183,4965],[4,900]],[[6187,5865],[2,-1],[142,-58],[74,70],[117,1]],[[6522,5877],[35,-4],[39,-19]],[[6596,5854],[2,-282],[0,-778]],[[6598,4794],[-251,2],[1,-126]],[[6348,4670],[-69,1],[-75,1]],[[5358,5066],[2,77],[89,29],[28,38],[-51,63],[-29,78],[78,-20],[110,19],[51,72],[-26,113],[26,42]],[[5636,5577],[98,56],[111,144],[83,39],[81,8],[42,44],[128,-5]],[[6179,5863],[8,2]],[[1744,8280],[2,-123],[0,-34]],[[1746,8123],[-1,-292],[2,-177]],[[1747,7654],[-194,2],[-559,4]],[[994,7660],[-15,56],[31,48],[53,-2],[5,75],[44,116],[83,48],[-3,75],[35,43],[68,-46],[65,65],[-16,41],[-53,-29],[-44,29],[81,54],[6,49]],[[1747,7654],[0,-82],[1,-78]],[[1748,7494],[0,-346],[-2,-297]],[[1746,6851],[-73,-12],[-58,63],[-96,-21],[-33,59],[-85,33],[6,74],[-106,105],[-18,114],[47,52],[-15,38],[-79,-7],[-72,123],[-65,31],[-26,79],[-79,78]],[[3676,1088],[-166,1],[-237,1]],[[3273,1090],[15,695],[-58,1],[2,221]],[[3232,2007],[1,39],[1,119]],[[3234,2165],[409,-6],[-7,-381],[56,0]],[[3692,1778],[-7,-188],[-9,-502]],[[5889,8558],[-46,2],[-123,1]],[[5723,9228],[250,-5],[431,-14]],[[6404,9209],[-14,-27],[-7,-238],[32,-148],[-8,-46],[89,-198]],[[6496,8552],[-88,2]],[[6408,8554],[-518,4]],[[5890,8558],[-1,0]],[[5889,8558],[519,-4]],[[6496,8552],[22,-66],[-40,-80],[21,-78],[86,-69],[13,-175],[92,-96]],[[6690,7988],[-613,4],[0,-62]],[[6077,7930],[-31,-1],[-167,3]],[[5879,7932],[2,138],[8,488]],[[5889,8558],[2,0],[-1,0]],[[2477,6326],[6,171],[9,319]],[[2492,6816],[63,-20],[58,44],[-7,80],[77,30],[22,-49],[-39,-65],[42,-20],[31,79],[61,10],[89,67],[77,-32],[46,13]],[[3012,6953],[87,6],[74,83],[99,-16],[38,-46],[65,-9],[42,30],[-12,78],[28,60]],[[3433,7139],[-14,-356],[-14,-401]],[[3405,6382],[-1,-15],[-1,-16]],[[3403,6351],[-506,19],[-3,-62],[-417,18]],[[3403,6351],[7,-64],[-25,-570],[-2,-173]],[[3383,5544],[-164,6],[-667,19]],[[2552,5569],[-82,2],[4,189],[-19,0],[15,384]],[[2470,6144],[5,82],[2,100]],[[6536,6814],[-29,255],[-15,126]],[[6492,7195],[-33,286],[385,320],[39,0]],[[6883,7801],[44,-114],[71,-14],[94,-197],[152,-106],[24,-34],[192,-161],[100,-126],[7,-58]],[[7567,6991],[-417,0],[-275,7],[-3,-192],[-112,2]],[[6760,6808],[-145,4],[-79,2]],[[6536,6814],[-330,12],[-8,-193]],[[6198,6633],[-370,6],[-344,5]],[[5484,6644],[9,381],[-316,14]],[[5177,7039],[1,8],[6,211]],[[5184,7258],[333,-15],[333,-7],[223,3]],[[6073,7239],[-2,-31],[421,-13]],[[3598,9247],[0,158],[1,95]],[[3599,9500],[420,8],[347,-1],[-1,-94]],[[4365,9413],[1,-284],[-1,-377]],[[4365,8752],[-341,-1],[-418,-9]],[[3004,9242],[-3,452],[-14,0],[1,228]],[[2988,9922],[325,5],[275,1]],[[3588,9928],[-1,-235],[12,-2],[0,-191]],[[2545,1628],[-3,-188],[-9,-351]],[[2533,1089],[-811,2],[-1,578]],[[2555,2027],[456,-12],[221,-8]],[[3273,1090],[-205,0],[-535,-1]],[[6690,7988],[125,-146],[68,-41]],[[6073,7239],[9,564],[-5,127]],[[9371,1892],[-130,-18],[-128,-4]],[[9113,1870],[7,149],[-43,54],[-9,80],[-98,212],[32,83]],[[9002,2448],[66,31],[53,125],[99,43],[0,32],[197,40]],[[9417,2719],[42,-2],[-2,-110],[55,-133],[70,-95],[3,-122],[96,-63]],[[9681,2194],[-92,-32],[-1,-63],[-55,-1],[-28,-63],[-53,0],[0,-63],[-55,0],[-26,-80]],[[9371,1892],[-1,-46],[55,-34],[30,-94],[135,-187],[14,-63],[55,-89]],[[9659,1379],[-57,-16],[-77,-273],[-55,-81],[-61,31],[41,110],[-20,91],[-76,28],[-60,-53],[75,-170],[-32,-127],[49,-101],[-53,-79]],[[9333,739],[0,50],[-100,111],[-98,-23],[-73,58],[-40,-90],[-314,6]],[[8708,851],[-16,2],[22,152],[5,185],[-7,182]],[[8712,1372],[387,-4],[-6,502],[20,0]],[[8026,4432],[0,0]],[[8026,4432],[140,-131],[-205,-223],[167,-185],[222,-269],[69,66],[65,-62]],[[8484,3628],[-22,-26],[-33,-39]],[[8429,3563],[-91,0],[-491,5]],[[7847,3568],[-169,-2],[4,200]],[[7682,3766],[3,126],[5,613]],[[7690,4505],[42,-14],[-2,-117],[45,-27],[251,85]],[[7690,4505],[-67,22],[5,35],[-148,220]],[[7480,4782],[63,458],[2,110]],[[7545,5350],[61,10],[15,-48],[48,18],[-10,48],[70,-18],[34,66],[279,-1],[-26,-39],[21,-64],[87,10],[14,-151]],[[8138,5181],[-44,-119],[-3,-107],[21,-134],[37,-70],[65,-42],[57,-92]],[[8271,4617],[-65,-87],[-50,14],[-130,-112]],[[8271,4617],[69,-87],[114,-55],[56,-97],[42,-2],[116,-119],[71,20],[14,-50],[-64,-61],[53,-99]],[[8742,4067],[-92,-113],[-166,-326]],[[7847,3568],[-18,-98],[-4,-607]],[[6917,3448],[1,171],[2,65]],[[6920,3684],[10,95],[69,-3]],[[6999,3776],[340,-12],[343,2]],[[6999,3776],[10,564],[-3,441]],[[7006,4781],[189,4],[285,-3]],[[7690,4505],[0,0]],[[8742,4067],[50,-9],[91,78],[68,-52],[3,-43],[87,-32],[97,-95],[11,-93],[74,-23],[52,-79],[107,-60],[-8,-96],[58,-92],[-64,-70]],[[9368,3401],[-90,10],[-33,46],[-185,16],[-33,-21],[-81,28],[-88,-8]],[[8858,3472],[-208,-3],[-220,0]],[[8430,3469],[-1,34],[0,60]],[[2570,2803],[323,-8],[317,-10]],[[3210,2785],[32,-1],[-6,-397]],[[3236,2387],[-2,-175],[0,-47]],[[2555,2027],[0,14]],[[8430,3469],[12,-123],[-11,-496],[-107,6]],[[2327,9502],[-2,-157],[-1,-378]],[[2324,8967],[0,-26],[-3,-195]],[[2321,8746],[-167,10],[-413,-1]],[[6760,6808],[-5,-188],[-2,-131]],[[6753,6489],[0,-322],[-227,3],[-4,-293]],[[6179,5863],[6,257],[13,513]],[[5735,9983],[321,16],[65,-75],[6,-56],[85,-21],[12,-83],[74,-92],[62,-8],[3,-104],[91,-76],[67,6],[-64,-78],[-53,-203]],[[5218,8568],[-8,-341],[-10,-411]],[[5200,7816],[-2,0]],[[5198,7816],[-330,6],[-257,5]],[[4611,7827],[4,189],[-253,5]],[[4362,8021],[3,204],[13,527]],[[4378,8752],[333,2],[421,-2]],[[4378,8752],[-2,0],[-11,0]],[[4365,9413],[159,-1],[99,2]],[[4623,9414],[336,4],[165,3]],[[5128,9325],[2,-187]],[[4365,9413],[0,0]],[[2538,3559],[1,252],[11,314]],[[2550,4125],[386,-17],[-4,-126],[275,-12]],[[3207,3970],[-7,-188],[35,-1],[-10,-367]],[[3225,3414],[-275,11],[-414,9]],[[3207,3970],[62,-2],[20,-1]],[[3289,3967],[-1,-31],[580,-23]],[[3868,3913],[-6,-157],[27,-1],[-13,-677]],[[3876,3078],[-495,17],[-163,5]],[[3218,3100],[1,62],[6,252]],[[4051,4475],[-5,-136],[-6,-210]],[[4040,4129],[-165,3],[-7,-219]],[[3289,3967],[7,189],[84,-3],[13,346]],[[3393,4499],[269,-14],[389,-10]],[[4051,4475],[10,267],[-35,1],[6,166]],[[4032,4909],[32,19],[65,-65],[51,-95],[28,66],[43,-17],[-46,-50],[297,-17],[13,50],[90,21]],[[5040,4386],[-1,-46],[-3,-305]],[[5036,4035],[-65,-76],[-74,7],[-71,-58],[-77,86],[-30,113],[-353,7]],[[4366,4114],[-186,7],[-140,8]],[[8264,5492],[-49,-215],[-77,-96]],[[7545,5350],[6,238],[1,136]],[[7552,5724],[80,58],[27,49],[108,-17],[71,9],[12,91],[57,46],[82,172],[88,-13],[49,44],[19,87],[56,12],[46,-58],[109,-86],[57,16],[60,-50]],[[8473,6084],[-7,-16],[-66,-55]],[[8400,6013],[-82,-92],[-46,-25],[-75,-136],[-27,-134],[94,-134]],[[5516,2296],[-10,-568],[-25,1]],[[5481,1729],[-394,11],[-585,15]],[[4502,1755],[-162,5],[-55,1]],[[4285,1761],[8,383],[2,183]],[[4295,2327],[137,-3],[189,-4]],[[4621,2320],[278,-9],[374,-8]],[[5273,2303],[188,-6]],[[5461,2297],[56,-1]],[[5517,2296],[-1,0]],[[5517,2296],[320,-12],[329,-3]],[[6166,2281],[0,-177],[-3,-170]],[[6163,1934],[-3,-219],[-22,0],[-6,-352],[10,-41],[-1,-231]],[[6141,1091],[-520,-3],[-152,1]],[[5469,1089],[10,562],[2,78]],[[3748,8029],[278,6],[336,-14]],[[4611,7827],[-1,0]],[[4610,7827],[-6,0]],[[4604,7827],[-16,-625]],[[4588,7202],[-124,48],[-88,-255]],[[4376,6995],[-86,-9],[-14,68],[-65,64],[-1,64],[-97,1],[-73,49],[-11,79],[-36,25]],[[3993,7336],[-22,72],[-70,42],[-72,-13],[-22,93],[-29,-33],[-43,57],[-11,76],[38,74],[-30,134]],[[4223,5825],[167,-5],[0,1]],[[4390,5821],[-3,-189],[325,-360]],[[4032,4909],[14,389],[2,189]],[[4048,5487],[4,132],[7,221]],[[4059,5840],[164,-15]],[[3393,4499],[10,272],[-40,18]],[[3363,4789],[18,519],[-1,141]],[[3380,5449],[332,-12],[2,62],[334,-12]],[[6976,1792],[-6,-93],[-10,-613]],[[6960,1086],[-444,0],[-375,5]],[[6163,1934],[269,-7],[384,-4]],[[4604,7827],[5,0],[1,0]],[[5198,7816],[-7,-264],[-7,-294]],[[5177,7039],[-83,3],[-90,2]],[[5004,7044],[-105,41],[-311,117]],[[5200,7816],[169,-2],[3,127],[507,-9]],[[6753,6489],[115,0],[-2,-130],[118,-1],[-1,-128],[229,-5]],[[7212,6225],[-6,-316],[-3,-383]],[[7203,5526],[-85,55],[-17,44],[-67,34],[-83,-24],[-141,51],[-2,46],[-128,138],[-84,-16]],[[1748,7494],[415,-2],[170,-2]],[[2333,7490],[-1,-189],[-2,-348]],[[2330,6953],[-64,64],[-52,2],[-108,-157],[-41,63],[-20,-63],[-89,-96],[-34,54],[-59,7],[-108,-84],[-17,8]],[[1738,6751],[28,82],[-20,18]],[[2300,9909],[241,3],[447,10]],[[3003,8959],[-509,3],[-170,5]],[[4039,3073],[-97,2],[-66,3]],[[4366,4114],[-7,-378],[21,0],[-11,-514]],[[4369,3222],[-327,8],[-3,-157]],[[4039,3073],[-5,-314],[23,0],[-6,-393]],[[4051,2366],[-344,13],[-471,8]],[[3210,2785],[5,228],[3,87]],[[3010,8204],[-501,3],[-169,7]],[[2340,8214],[3,532],[-22,0]],[[4247,6645],[-171,-199],[-3,-96]],[[4073,6350],[-170,8],[-498,24]],[[3433,7139],[50,-52],[62,-18],[-1,-71],[105,49],[-15,80],[17,49],[81,4],[33,57],[39,-22],[57,82],[-13,78],[55,8],[37,-57],[53,10]],[[4376,6995],[-18,-54],[-121,-163],[-2,-48],[51,-18],[-39,-67]],[[4247,6645],[30,-94],[110,-89],[75,-17],[109,26],[177,-35],[64,6]],[[4812,6442],[27,-37],[63,-68]],[[4902,6337],[-178,-494],[-1,-31],[-333,9]],[[4390,5821],[-167,4]],[[4059,5840],[8,269],[6,241]],[[4812,6442],[-10,59],[77,196],[125,347]],[[5484,6644],[-31,1],[1,-88],[-36,-229],[-22,-47],[36,-93],[-28,-192],[-79,-109],[-6,-155]],[[5319,5732],[-63,8],[-47,44],[-85,21],[11,62],[-26,54],[-51,19]],[[5058,5940],[-23,55],[45,77],[-56,41],[-92,120],[6,59],[-36,45]],[[6832,3074],[-323,6],[-329,10]],[[6180,3090],[-163,2],[1,379],[-82,0]],[[5936,3471],[4,417],[417,-5]],[[6357,3883],[330,-4],[-3,-188],[236,-7]],[[2550,5308],[-14,-504],[38,0]],[[2574,4804],[-12,-357],[-1,-28]],[[2561,4419],[-35,-11],[-80,58],[-134,-67],[-24,51],[-561,20]],[[1727,4470],[3,347],[-1,557]],[[1729,5374],[451,-13],[168,-57],[171,23],[31,-19]],[[2550,5308],[-2,41],[4,220]],[[3383,5544],[-2,-61],[-1,-34]],[[3363,4789],[-50,-14],[-739,29]],[[1737,6174],[-1,253],[2,324]],[[2330,6953],[65,8],[-27,-59],[86,-31],[38,-55]],[[2470,6144],[-253,5],[-480,25]],[[5516,2296],[-55,1]],[[5273,2303],[5,423],[-8,0],[1,473]],[[5271,3199],[3,217],[2,67]],[[5276,3483],[98,2],[232,-6]],[[5606,3479],[249,-8],[81,0]],[[6180,3090],[-2,-377],[-6,-1],[-6,-431]],[[4051,2366],[244,-6],[0,-33]],[[4285,1761],[-257,8],[-336,9]],[[5058,5940],[-116,-517],[-36,-157]],[[2550,4125],[7,155],[4,139]],[[6598,4794],[0,-12],[408,-1]],[[6357,3883],[5,787],[-14,0]],[[3011,7641],[-1,102],[1,86]],[[3012,6953],[-1,59],[0,629]],[[3011,7641],[-367,1],[-308,5]],[[2336,7647],[5,383],[-1,90]],[[2340,8120],[0,33],[0,61]],[[2336,7647],[-3,-108],[0,-49]],[[1746,8123],[426,0],[168,-3]],[[4502,1755],[-4,-267],[-8,-401]],[[4490,1087],[-63,0],[-751,1]],[[4369,3222],[146,-2],[104,-3]],[[4619,3217],[-8,-472],[20,-1],[-10,-424]],[[3588,9928],[171,0],[447,14],[371,5]],[[4577,9947],[48,-64],[-25,-69],[35,-62],[-39,-40],[-10,-75],[62,-82],[-27,-31],[2,-110]],[[8262,2006],[3,-92],[60,-80],[28,-84],[-10,-68],[97,-165],[-12,-142]],[[8428,1375],[-31,-34],[-26,-144],[-51,-57],[-1,-52]],[[8319,1088],[-242,0],[-291,1]],[[7786,1089],[2,202],[-27,0],[0,189],[-53,1],[1,284],[-53,2]],[[9368,3401],[8,-66],[67,-151],[47,-63],[28,-94],[-22,-107],[-75,-20],[-48,-106],[44,-75]],[[9002,2448],[-76,-1],[-76,1]],[[8850,2448],[5,200],[3,824]],[[9681,2194],[31,-36],[52,50],[-66,64],[-9,53],[71,-12],[85,-98],[17,-84],[89,5],[48,-33],[0,-50],[-56,-209],[-49,-12],[-11,-72],[82,-51],[-4,-72],[-66,17],[-45,-88],[62,-114],[-58,-81],[-44,-128],[-64,0],[-87,136]],[[7567,6991],[20,-150],[39,-144],[-45,-68],[50,-137],[24,-129]],[[7655,6363],[-46,-1],[-46,-52],[-6,46],[-114,-44],[-20,-75],[-70,25],[-139,12],[-2,-49]],[[4577,9947],[345,12],[201,5]],[[1729,5374],[2,278],[6,522]],[[8711,7],[-628,-7],[39,63],[47,135],[41,59],[87,54],[21,96],[145,112],[12,61],[50,18],[29,65],[-28,44],[29,134],[-26,35],[-83,28],[-24,184],[-103,0]],[[8428,1375],[15,1],[269,-4]],[[8708,851],[3,-460],[0,-384]],[[5469,1089],[-382,-3],[-597,1]],[[8850,2448],[-139,2],[0,-157],[-55,-32],[-173,3]],[[7552,5724],[-63,-97],[-59,-19],[-155,-111],[-72,29]],[[7655,6363],[60,-102],[68,-41],[47,13],[144,202],[87,-18],[125,-76],[50,-1],[244,-161],[-7,-95]],[[7786,1089],[-559,0],[-267,-3]],[[1159,8449],[-25,7],[-38,-75],[-74,-9],[-83,40],[-10,51],[-86,3],[-2,74],[-68,19],[-145,172],[-67,-2],[-43,50],[36,162],[-53,31],[-14,50],[-55,47],[-2,129],[-114,46]],[[316,9244],[325,-4],[236,-2]],[[1722,3590],[0,265],[5,615]],[[5036,4035],[-7,-315],[247,-142],[0,-95]],[[5271,3199],[-352,6],[-300,12]],[[5618,4363],[-7,-564],[-5,-320]],[[9333,739],[-99,7],[-2,-67],[113,-79],[3,-44],[-115,-29],[-126,29],[-15,-35],[114,-111],[56,-76],[-1,-44],[-131,-102],[-10,-105],[-31,-72],[-378,-4]],[[316,9244],[3,57],[-156,62],[44,27],[-50,182],[1,61],[-49,54],[-11,78],[58,26],[-15,98],[-34,-12],[-23,-72],[-71,4],[-13,129],[845,-14]],[[8400,6013],[-69,-132],[47,-111],[-17,-134],[-97,-144]],[[5636,5577],[-84,-31],[-145,45],[-62,59],[-26,82]]],"bbox":[-95.76564500006282,35.995815128877304,-89.10085950653516,40.61343986568359],"transform":{"scale":[0.0006665452038731533,0.0004618086545460831],"translate":[-95.76564500006282,35.995815128877304]},"title":"Missouri","version":"2.1.0","copyright":"Copyright (c) 2023 Highsoft AS, Based on data from The United States Census Bureau","copyrightShort":"USA Census Bureau","copyrightUrl":"http://www.census.gov"}