{"type":"Topology","objects":{"default":{"type":"GeometryCollection","geometries":[{"type":"Polygon","arcs":[[0,1,2,3,4,5]],"id":"US.OK.037","properties":{"hc-group":"admin2","hc-key":"us-ok-037","hc-a2":"CR","fips":"40037","name":"Creek","hc-middle-lon":-96.366,"hc-middle-lat":35.868}},{"type":"Polygon","arcs":[[-1,6,7,8,9,10]],"id":"US.OK.081","properties":{"hc-group":"admin2","hc-key":"us-ok-081","hc-a2":"LI","fips":"40081","name":"Lincoln","hc-middle-lon":-96.881,"hc-middle-lat":35.703}},{"type":"Polygon","arcs":[[11,12,13,14,15,16]],"id":"US.OK.049","properties":{"hc-group":"admin2","hc-key":"us-ok-049","hc-a2":"GA","fips":"40049","name":"Garvin","hc-middle-lon":-97.345,"hc-middle-lat":34.682}},{"type":"Polygon","arcs":[[-12,17,18,19,20,21,22,23,24]],"id":"US.OK.051","properties":{"hc-group":"admin2","hc-key":"us-ok-051","hc-a2":"GR","fips":"40051","name":"Grady","hc-middle-lon":-97.881,"hc-middle-lat":35.029}},{"type":"Polygon","arcs":[[25,26,27,28,29]],"id":"US.OK.059","properties":{"hc-group":"admin2","hc-key":"us-ok-059","hc-a2":"HA","fips":"40059","name":"Harper","hc-middle-lon":-99.652,"hc-middle-lat":36.799}},{"type":"Polygon","arcs":[[-26,30,31,32,33]],"id":"US.OK.151","properties":{"hc-group":"admin2","hc-key":"us-ok-151","hc-a2":"WO","fips":"40151","name":"Woods","hc-middle-lon":-98.837,"hc-middle-lat":36.76}},{"type":"Polygon","arcs":[[34,35,36,37,38,39]],"id":"US.OK.011","properties":{"hc-group":"admin2","hc-key":"us-ok-011","hc-a2":"BL","fips":"40011","name":"Blaine","hc-middle-lon":-98.422,"hc-middle-lat":35.889}},{"type":"Polygon","arcs":[[-35,40,41,42,22,23,43,-21,44]],"id":"US.OK.017","properties":{"hc-group":"admin2","hc-key":"us-ok-017","hc-a2":"CA","fips":"40017","name":"Canadian","hc-middle-lon":-97.992,"hc-middle-lat":35.537}},{"type":"Polygon","arcs":[[45,46,47,48,49,50,51,52]],"id":"US.OK.075","properties":{"hc-group":"admin2","hc-key":"us-ok-075","hc-a2":"KI","fips":"40075","name":"Kiowa","hc-middle-lon":-98.981,"hc-middle-lat":34.889}},{"type":"Polygon","arcs":[[-46,53,54,-36,-45,-20,55]],"id":"US.OK.015","properties":{"hc-group":"admin2","hc-key":"us-ok-015","hc-a2":"CA","fips":"40015","name":"Caddo","hc-middle-lon":-98.357,"hc-middle-lat":35.169}},{"type":"Polygon","arcs":[[-17,56,57,58,59,60,61,-18]],"id":"US.OK.137","properties":{"hc-group":"admin2","hc-key":"us-ok-137","hc-a2":"ST","fips":"40137","name":"Stephens","hc-middle-lon":-97.852,"hc-middle-lat":34.486}},{"type":"Polygon","arcs":[[62,63,64,-48,65]],"id":"US.OK.141","properties":{"hc-group":"admin2","hc-key":"us-ok-141","hc-a2":"TI","fips":"40141","name":"Tillman","hc-middle-lon":-98.899,"hc-middle-lat":34.355}},{"type":"Polygon","arcs":[[-63,66,-60,-59,67,68]],"id":"US.OK.033","properties":{"hc-group":"admin2","hc-key":"us-ok-033","hc-a2":"CO","fips":"40033","name":"Cotton","hc-middle-lon":-98.4,"hc-middle-lat":34.276}},{"type":"Polygon","arcs":[[69,-10,70,71,72,73]],"id":"US.OK.083","properties":{"hc-group":"admin2","hc-key":"us-ok-083","hc-a2":"LO","fips":"40083","name":"Logan","hc-middle-lon":-97.435,"hc-middle-lat":35.914}},{"type":"Polygon","arcs":[[74,75,76,77,78,-74]],"id":"US.OK.103","properties":{"hc-group":"admin2","hc-key":"us-ok-103","hc-a2":"NO","fips":"40103","name":"Noble","hc-middle-lon":-97.234,"hc-middle-lat":36.411}},{"type":"Polygon","arcs":[[79,80,81,82]],"id":"US.OK.001","properties":{"hc-group":"admin2","hc-key":"us-ok-001","hc-a2":"AD","fips":"40001","name":"Adair","hc-middle-lon":-94.639,"hc-middle-lat":35.867}},{"type":"Polygon","arcs":[[83,84,85,86,87,-80]],"id":"US.OK.041","properties":{"hc-group":"admin2","hc-key":"us-ok-041","hc-a2":"DE","fips":"40041","name":"Delaware","hc-middle-lon":-94.787,"hc-middle-lat":36.415}},{"type":"Polygon","arcs":[[-7,-6,88,89,90,91,92]],"id":"US.OK.107","properties":{"hc-group":"admin2","hc-key":"us-ok-107","hc-a2":"OK","fips":"40107","name":"Okfuskee","hc-middle-lon":-96.262,"hc-middle-lat":35.464}},{"type":"Polygon","arcs":[[93,94,95,-37,-55,96]],"id":"US.OK.039","properties":{"hc-group":"admin2","hc-key":"us-ok-039","hc-a2":"CU","fips":"40039","name":"Custer","hc-middle-lon":-99.001,"hc-middle-lat":35.639}},{"type":"Polygon","arcs":[[-94,97,-52,-51,98,99,100,101,102]],"id":"US.OK.009","properties":{"hc-group":"admin2","hc-key":"us-ok-009","hc-a2":"BE","fips":"40009","name":"Beckham","hc-middle-lon":-99.683,"hc-middle-lat":35.27}},{"type":"Polygon","arcs":[[-50,103,104,-100,105,-51]],"id":"US.OK.055","properties":{"hc-group":"admin2","hc-key":"us-ok-055","hc-a2":"GR","fips":"40055","name":"Greer","hc-middle-lon":-99.556,"hc-middle-lat":34.954}},{"type":"Polygon","arcs":[[-101,-105,106,107]],"id":"US.OK.057","properties":{"hc-group":"admin2","hc-key":"us-ok-057","hc-a2":"HA","fips":"40057","name":"Harmon","hc-middle-lon":-99.832,"hc-middle-lat":34.737}},{"type":"Polygon","arcs":[[108,109,110,-57,-16,111,112]],"id":"US.OK.019","properties":{"hc-group":"admin2","hc-key":"us-ok-019","hc-a2":"CA","fips":"40019","name":"Carter","hc-middle-lon":-97.249,"hc-middle-lat":34.222}},{"type":"Polygon","arcs":[[-109,113,114,115,116]],"id":"US.OK.095","properties":{"hc-group":"admin2","hc-key":"us-ok-095","hc-a2":"MA","fips":"40095","name":"Marshall","hc-middle-lon":-96.76,"hc-middle-lat":34.032}},{"type":"Polygon","arcs":[[117,-39,118,119,-33,120,121]],"id":"US.OK.093","properties":{"hc-group":"admin2","hc-key":"us-ok-093","hc-a2":"MA","fips":"40093","name":"Major","hc-middle-lon":-98.361,"hc-middle-lat":36.313}},{"type":"Polygon","arcs":[[-118,122,-72,-41,-40]],"id":"US.OK.073","properties":{"hc-group":"admin2","hc-key":"us-ok-073","hc-a2":"KI","fips":"40073","name":"Kingfisher","hc-middle-lon":-97.942,"hc-middle-lat":35.945}},{"type":"Polygon","arcs":[[-86,123,124,125,126,127]],"id":"US.OK.035","properties":{"hc-group":"admin2","hc-key":"us-ok-035","hc-a2":"CR","fips":"40035","name":"Craig","hc-middle-lon":-95.217,"hc-middle-lat":36.756}},{"type":"Polygon","arcs":[[128,129,130,131,132,133,134,-14]],"id":"US.OK.123","properties":{"hc-group":"admin2","hc-key":"us-ok-123","hc-a2":"PO","fips":"40123","name":"Pontotoc","hc-middle-lon":-96.686,"hc-middle-lat":34.742}},{"type":"Polygon","arcs":[[-93,135,-130,136,137,138,-8]],"id":"US.OK.125","properties":{"hc-group":"admin2","hc-key":"us-ok-125","hc-a2":"PO","fips":"40125","name":"Pottawatomie","hc-middle-lon":-96.958,"hc-middle-lat":35.212}},{"type":"Polygon","arcs":[[139,140,-125,141,142,143]],"id":"US.OK.131","properties":{"hc-group":"admin2","hc-key":"us-ok-131","hc-a2":"RO","fips":"40131","name":"Rogers","hc-middle-lon":-95.624,"hc-middle-lat":36.382}},{"type":"Polygon","arcs":[[-140,144,145,146,147]],"id":"US.OK.147","properties":{"hc-group":"admin2","hc-key":"us-ok-147","hc-a2":"WA","fips":"40147","name":"Washington","hc-middle-lon":-95.894,"hc-middle-lat":36.712}},{"type":"Polygon","arcs":[[148,149,150,151,-76]],"id":"US.OK.071","properties":{"hc-group":"admin2","hc-key":"us-ok-071","hc-a2":"KA","fips":"40071","name":"Kay","hc-middle-lon":-97.108,"hc-middle-lat":36.797}},{"type":"Polygon","arcs":[[-149,-75,-73,-123,-122,152,153]],"id":"US.OK.047","properties":{"hc-group":"admin2","hc-key":"us-ok-047","hc-a2":"GA","fips":"40047","name":"Garfield","hc-middle-lon":-97.782,"hc-middle-lat":36.379}},{"type":"Polygon","arcs":[[-84,-83,154,155,156,157]],"id":"US.OK.021","properties":{"hc-group":"admin2","hc-key":"us-ok-021","hc-a2":"CH","fips":"40021","name":"Cherokee","hc-middle-lon":-95.039,"hc-middle-lat":35.934}},{"type":"Polygon","arcs":[[-9,-139,158,-42,-71]],"id":"US.OK.109","properties":{"hc-group":"admin2","hc-key":"us-ok-109","hc-a2":"OK","fips":"40109","name":"Oklahoma","hc-middle-lon":-97.408,"hc-middle-lat":35.551}},{"type":"Polygon","arcs":[[159,160,161,162,163]],"id":"US.OK.023","properties":{"hc-group":"admin2","hc-key":"us-ok-023","hc-a2":"CH","fips":"40023","name":"Choctaw","hc-middle-lon":-95.532,"hc-middle-lat":34.01}},{"type":"Polygon","arcs":[[-160,164,165,166,167,168]],"id":"US.OK.005","properties":{"hc-group":"admin2","hc-key":"us-ok-005","hc-a2":"AT","fips":"40005","name":"Atoka","hc-middle-lon":-95.998,"hc-middle-lat":34.385}},{"type":"Polygon","arcs":[[-129,-13,-25,-24,-23,169,-137]],"id":"US.OK.087","properties":{"hc-group":"admin2","hc-key":"us-ok-087","hc-a2":"MC","fips":"40087","name":"McClain","hc-middle-lon":-97.509,"hc-middle-lat":35.033}},{"type":"Polygon","arcs":[[170,171,172,173,174,175]],"id":"US.OK.079","properties":{"hc-group":"admin2","hc-key":"us-ok-079","hc-a2":"LF","fips":"40079","name":"Le Flore","hc-middle-lon":-94.725,"hc-middle-lat":34.921}},{"type":"Polygon","arcs":[[176,177,178,179,180,-176]],"id":"US.OK.061","properties":{"hc-group":"admin2","hc-key":"us-ok-061","hc-a2":"HA","fips":"40061","name":"Haskell","hc-middle-lon":-95.127,"hc-middle-lat":35.224}},{"type":"Polygon","arcs":[[181,182,-153,-121,-32]],"id":"US.OK.003","properties":{"hc-group":"admin2","hc-key":"us-ok-003","hc-a2":"AL","fips":"40003","name":"Alfalfa","hc-middle-lon":-98.324,"hc-middle-lat":36.731}},{"type":"Polygon","arcs":[[-175,183,184,-177]],"id":"US.OK.077","properties":{"hc-group":"admin2","hc-key":"us-ok-077","hc-a2":"LA","fips":"40077","name":"Latimer","hc-middle-lon":-95.251,"hc-middle-lat":34.871}},{"type":"MultiPolygon","arcs":[[[-159,-138,-170,22,-23,-43]],[[23,-24,185]]],"id":"US.OK.027","properties":{"hc-group":"admin2","hc-key":"us-ok-027","hc-a2":"CL","fips":"40027","name":"Cleveland","hc-middle-lon":-97.326,"hc-middle-lat":35.225}},{"type":"Polygon","arcs":[[186,-28,187,188,189,190]],"id":"US.OK.045","properties":{"hc-group":"admin2","hc-key":"us-ok-045","hc-a2":"EL","fips":"40045","name":"Ellis","hc-middle-lon":-99.803,"hc-middle-lat":36.256}},{"type":"Polygon","arcs":[[-187,191,192,193,-29]],"id":"US.OK.007","properties":{"hc-group":"admin2","hc-key":"us-ok-007","hc-a2":"BE","fips":"40007","name":"Beaver","hc-middle-lon":-100.48,"hc-middle-lat":36.75}},{"type":"Polygon","arcs":[[-19,-62,194,59,-67,-66,-47,-56]],"id":"US.OK.031","properties":{"hc-group":"admin2","hc-key":"us-ok-031","hc-a2":"CO","fips":"40031","name":"Comanche","hc-middle-lon":-98.458,"hc-middle-lat":34.655}},{"type":"Polygon","arcs":[[-68,-58,-111,195,196]],"id":"US.OK.067","properties":{"hc-group":"admin2","hc-key":"us-ok-067","hc-a2":"JE","fips":"40067","name":"Jefferson","hc-middle-lon":-97.774,"hc-middle-lat":34.123}},{"type":"MultiPolygon","arcs":[[[197,197,197]],[[-79,198,-2,-11,-70]]],"id":"US.OK.119","properties":{"hc-group":"admin2","hc-key":"us-ok-119","hc-a2":"PA","fips":"40119","name":"Payne","hc-middle-lon":-97.002,"hc-middle-lat":36.094}},{"type":"Polygon","arcs":[[199,200,201,-89,-5,202]],"id":"US.OK.111","properties":{"hc-group":"admin2","hc-key":"us-ok-111","hc-a2":"OK","fips":"40111","name":"Okmulgee","hc-middle-lon":-95.938,"hc-middle-lat":35.694}},{"type":"Polygon","arcs":[[-200,203,-143,204,-157,205]],"id":"US.OK.145","properties":{"hc-group":"admin2","hc-key":"us-ok-145","hc-a2":"WA","fips":"40145","name":"Wagoner","hc-middle-lon":-95.594,"hc-middle-lat":35.964}},{"type":"Polygon","arcs":[[206,-95,-103,207,-190]],"id":"US.OK.129","properties":{"hc-group":"admin2","hc-key":"us-ok-129","hc-a2":"RM","fips":"40129","name":"Roger Mills","hc-middle-lon":-99.68,"hc-middle-lat":35.703}},{"type":"Polygon","arcs":[[-207,-189,208,-119,-38,-96]],"id":"US.OK.043","properties":{"hc-group":"admin2","hc-key":"us-ok-043","hc-a2":"DE","fips":"40043","name":"Dewey","hc-middle-lon":-99.008,"hc-middle-lat":35.989}},{"type":"Polygon","arcs":[[209,-3,-199,-78,210]],"id":"US.OK.117","properties":{"hc-group":"admin2","hc-key":"us-ok-117","hc-a2":"PA","fips":"40117","name":"Pawnee","hc-middle-lon":-96.788,"hc-middle-lat":36.358}},{"type":"Polygon","arcs":[[-210,211,-145,-144,-204,-203,-4]],"id":"US.OK.143","properties":{"hc-group":"admin2","hc-key":"us-ok-143","hc-a2":"TU","fips":"40143","name":"Tulsa","hc-middle-lon":-95.899,"hc-middle-lat":36.043}},{"type":"Polygon","arcs":[[-179,212,213,-90,-202,214]],"id":"US.OK.091","properties":{"hc-group":"admin2","hc-key":"us-ok-091","hc-a2":"MC","fips":"40091","name":"McIntosh","hc-middle-lon":-95.701,"hc-middle-lat":35.35}},{"type":"Polygon","arcs":[[-113,215,-134,216,-166,217,-114]],"id":"US.OK.069","properties":{"hc-group":"admin2","hc-key":"us-ok-069","hc-a2":"JO","fips":"40069","name":"Johnston","hc-middle-lon":-96.669,"hc-middle-lat":34.3}},{"type":"Polygon","arcs":[[-181,218,-155,-82,219,-171]],"id":"US.OK.135","properties":{"hc-group":"admin2","hc-key":"us-ok-135","hc-a2":"SE","fips":"40135","name":"Sequoyah","hc-middle-lon":-94.744,"hc-middle-lat":35.5}},{"type":"Polygon","arcs":[[-219,-180,-215,-201,-206,-156]],"id":"US.OK.101","properties":{"hc-group":"admin2","hc-key":"us-ok-101","hc-a2":"MU","fips":"40101","name":"Muskogee","hc-middle-lon":-95.377,"hc-middle-lat":35.687}},{"type":"Polygon","arcs":[[220,-115,-218,-165,-164]],"id":"US.OK.013","properties":{"hc-group":"admin2","hc-key":"us-ok-013","hc-a2":"BR","fips":"40013","name":"Bryan","hc-middle-lon":-96.246,"hc-middle-lat":33.958}},{"type":"Polygon","arcs":[[221,-162,222,-173]],"id":"US.OK.089","properties":{"hc-group":"admin2","hc-key":"us-ok-089","hc-a2":"MC","fips":"40089","name":"McCurtain","hc-middle-lon":-94.776,"hc-middle-lat":34.134}},{"type":"Polygon","arcs":[[-87,-128,223]],"id":"US.OK.115","properties":{"hc-group":"admin2","hc-key":"us-ok-115","hc-a2":"OT","fips":"40115","name":"Ottawa","hc-middle-lon":-94.825,"hc-middle-lat":36.835}},{"type":"Polygon","arcs":[[-91,-214,224,225,-132,226]],"id":"US.OK.063","properties":{"hc-group":"admin2","hc-key":"us-ok-063","hc-a2":"HU","fips":"40063","name":"Hughes","hc-middle-lon":-96.253,"hc-middle-lat":35.093}},{"type":"Polygon","arcs":[[-225,-213,-178,-185,227,-168,228]],"id":"US.OK.121","properties":{"hc-group":"admin2","hc-key":"us-ok-121","hc-a2":"PI","fips":"40121","name":"Pittsburg","hc-middle-lon":-95.797,"hc-middle-lat":34.892}},{"type":"Polygon","arcs":[[-133,-226,-229,-167,-217]],"id":"US.OK.029","properties":{"hc-group":"admin2","hc-key":"us-ok-029","hc-a2":"CO","fips":"40029","name":"Coal","hc-middle-lon":-96.302,"hc-middle-lat":34.594}},{"type":"Polygon","arcs":[[-97,-54,-53,-98]],"id":"US.OK.149","properties":{"hc-group":"admin2","hc-key":"us-ok-149","hc-a2":"WA","fips":"40149","name":"Washita","hc-middle-lon":-98.994,"hc-middle-lat":35.286}},{"type":"Polygon","arcs":[[229,230]],"id":"US.OK.025","properties":{"hc-group":"admin2","hc-key":"us-ok-025","hc-a2":"CI","fips":"40025","name":"Cimarron","hc-middle-lon":-102.719,"hc-middle-lat":36.781}},{"type":"Polygon","arcs":[[-148,231,-126,-141]],"id":"US.OK.105","properties":{"hc-group":"admin2","hc-key":"us-ok-105","hc-a2":"NO","fips":"40105","name":"Nowata","hc-middle-lon":-95.609,"hc-middle-lat":36.798}},{"type":"Polygon","arcs":[[232,-146,-212,-211,-77,-152]],"id":"US.OK.113","properties":{"hc-group":"admin2","hc-key":"us-ok-113","hc-a2":"OS","fips":"40113","name":"Osage","hc-middle-lon":-96.376,"hc-middle-lat":36.676}},{"type":"Polygon","arcs":[[233,-150,-154,-183]],"id":"US.OK.053","properties":{"hc-group":"admin2","hc-key":"us-ok-053","hc-a2":"GR","fips":"40053","name":"Grant","hc-middle-lon":-97.786,"hc-middle-lat":36.797}},{"type":"Polygon","arcs":[[234,-196,-110,-117]],"id":"US.OK.085","properties":{"hc-group":"admin2","hc-key":"us-ok-085","hc-a2":"LO","fips":"40085","name":"Love","hc-middle-lon":-97.273,"hc-middle-lat":33.976}},{"type":"Polygon","arcs":[[-169,-228,-184,-174,-223,-161]],"id":"US.OK.127","properties":{"hc-group":"admin2","hc-key":"us-ok-127","hc-a2":"PU","fips":"40127","name":"Pushmataha","hc-middle-lon":-95.412,"hc-middle-lat":34.421}},{"type":"Polygon","arcs":[[235,-231,236,-193]],"id":"US.OK.139","properties":{"hc-group":"admin2","hc-key":"us-ok-139","hc-a2":"TE","fips":"40139","name":"Texas","hc-middle-lon":-101.535,"hc-middle-lat":36.752}},{"type":"Polygon","arcs":[[-27,-34,-120,-209,-188]],"id":"US.OK.153","properties":{"hc-group":"admin2","hc-key":"us-ok-153","hc-a2":"WO","fips":"40153","name":"Woodward","hc-middle-lon":-99.283,"hc-middle-lat":36.396}},{"type":"Polygon","arcs":[[237,-107,-104,-49,-65]],"id":"US.OK.065","properties":{"hc-group":"admin2","hc-key":"us-ok-065","hc-a2":"JA","fips":"40065","name":"Jackson","hc-middle-lon":-99.428,"hc-middle-lat":34.555}},{"type":"Polygon","arcs":[[-85,-158,-205,-142,-124]],"id":"US.OK.097","properties":{"hc-group":"admin2","hc-key":"us-ok-097","hc-a2":"MA","fips":"40097","name":"Mayes","hc-middle-lon":-95.222,"hc-middle-lat":36.324}},{"type":"Polygon","arcs":[[-112,-15,-135,-216]],"id":"US.OK.099","properties":{"hc-group":"admin2","hc-key":"us-ok-099","hc-a2":"MU","fips":"40099","name":"Murray","hc-middle-lon":-97.027,"hc-middle-lat":34.485}},{"type":"Polygon","arcs":[[-227,-131,-136,-92]],"id":"US.OK.133","properties":{"hc-group":"admin2","hc-key":"us-ok-133","hc-a2":"SE","fips":"40133","name":"Seminole","hc-middle-lon":-96.61,"hc-middle-lat":35.169}}],"hc-recommended-transform":{"default":{"crs":"+proj=lcc +lat_1=35.56666666666667 +lat_2=36.76666666666667 +lat_0=35 +lon_0=-98 +x_0=600000 +y_0=0 +ellps=GRS80 +units=m +no_defs","scale":0.000904155839951,"jsonres":15.5,"jsonmarginX":-999,"jsonmarginY":9851,"xoffset":152043.911987,"yoffset":233391.357104}},"hc-recommended-mapview":{"projection":{"name":"LambertConformalConic","parallels":[35.56666666666667,36.76666666666667],"rotation":[98]}}}},"arcs":[[[7444,5968],[2,629],[-3,267]],[[7443,6864],[-2,344],[2,300]],[[7443,7508],[0,12],[378,-5]],[[7821,7515],[-1,-255],[314,-1],[-5,-646]],[[8129,6613],[-185,0],[-1,-645]],[[7943,5968],[-249,1],[-250,-1]],[[7444,5968],[-1,-257],[-4,-264]],[[7439,5447],[-237,2],[-365,0]],[[6837,5449],[0,297],[0,474]],[[6837,6220],[0,515],[1,130]],[[6838,6865],[382,1],[223,-2]],[[6222,3135],[0,203],[0,312]],[[6222,3650],[560,-1],[298,-2]],[[7080,3647],[0,-342],[0,-301]],[[7080,3004],[-245,1],[0,-43],[-67,1],[29,-81],[37,-263],[-243,0]],[[6591,2619],[-97,0],[-149,1]],[[6345,2620],[1,516],[-124,-1]],[[6222,3135],[-384,1],[-107,-2]],[[5731,3134],[1,474],[-5,42]],[[5727,3650],[1,1031],[-5,515]],[[5723,5196],[92,0],[72,-95],[10,86],[31,-63],[59,26],[34,-83],[80,33],[41,-64]],[[6142,5036],[76,41]],[[6218,5077],[0,-4]],[[6218,5073],[0,-2]],[[6218,5071],[1,-1419],[3,-2]],[[4136,9992],[97,-357],[69,-66],[22,-110]],[[4324,9459],[1,-664],[-362,-7]],[[3963,8788],[-24,1],[-440,2]],[[3499,8791],[-1,516],[1,692]],[[3499,9999],[148,-2],[489,-5]],[[4136,9992],[770,-1],[293,-2]],[[5199,9989],[6,-167],[0,-1029],[8,0],[0,-388]],[[5213,8405],[0,-194],[-107,-14],[-87,69],[-31,87],[-95,46],[-42,134],[-136,1]],[[4715,8534],[0,272],[-62,123],[-56,223],[-27,18],[-64,181],[-31,22],[-98,-15],[-53,101]],[[5593,6223],[-123,-1],[0,-513]],[[5470,5709],[-204,0],[-158,0]],[[5108,5709],[-10,1],[0,771]],[[5098,6481],[-5,255],[-1,787]],[[5092,7523],[180,0],[317,1]],[[5589,7524],[1,-788],[3,-513]],[[5593,6223],[290,2],[332,1]],[[6215,6226],[0,-518],[3,-515]],[[6218,5193],[1,-86],[-1,-30]],[[6218,5071],[-76,-35]],[[5723,5196],[-245,-3],[-1,413],[-7,103]],[[5111,4366],[0,-236],[1,-481]],[[5112,3649],[-240,2],[0,-772]],[[4872,2879],[-205,-1],[0,130],[-119,-1]],[[4548,3007],[10,91],[60,25],[-11,72],[-53,-19],[-59,22],[-28,157],[28,126],[2,154],[-42,28],[-35,-98],[-39,-13]],[[4381,3552],[-69,105],[-12,83],[29,1],[-8,112],[-38,62],[3,287],[-44,54],[-3,78],[-48,82]],[[4191,4416],[0,6]],[[4191,4422],[57,2]],[[4248,4424],[714,-1],[42,-36],[71,58],[36,-79]],[[5111,4366],[-3,317],[0,769]],[[5108,5452],[0,169],[0,88]],[[5727,3650],[-356,0],[-259,-1]],[[6345,2620],[0,-519],[1,-125]],[[6346,1976],[-511,0],[-162,2]],[[5673,1978],[0,643]],[[5673,2621],[-4,0]],[[5669,2621],[1,513]],[[5670,3134],[61,0]],[[5063,2321],[0,-215],[61,1],[-1,-521]],[[5123,1586],[-44,22],[-49,-94],[-89,12],[-76,75],[-33,-37],[-71,99],[-37,85],[-45,28],[-61,-68],[-60,38],[-31,-29],[-79,38],[-28,279],[7,87]],[[4427,2121],[16,48],[-18,101],[-23,-5],[-11,112],[18,24],[2,182],[67,276],[94,10],[-24,138]],[[4872,2879],[-1,-257],[192,-1],[0,-300]],[[5063,2321],[61,1],[0,43],[122,0],[0,85],[244,-1],[0,42],[60,2],[1,127],[118,1]],[[5673,1978],[0,-293],[0,-144]],[[5673,1541],[-35,-82],[-74,60],[-79,0],[-75,66],[-40,-84],[-29,-135],[-73,-60],[-87,208],[-58,72]],[[6588,7506],[0,-516],[36,78],[34,-16],[23,-95],[62,-26],[21,-59],[74,-7]],[[6837,6220],[-247,4],[-375,2]],[[6215,6226],[-1,685],[0,612]],[[6214,7523],[104,-1],[146,1]],[[6464,7523],[124,-2],[0,-15]],[[6464,7523],[0,485],[-1,783]],[[6463,8791],[333,1],[139,-1]],[[6935,8791],[63,-33],[105,49],[29,-69],[-17,-72],[-109,-66],[-16,-65]],[[6990,8535],[-26,-1],[0,-512],[125,0],[0,-257]],[[7089,7765],[-252,-1],[0,-258],[-249,0]],[[9571,7514],[60,-1],[213,2]],[[9844,7515],[48,-681],[57,-868]],[[9949,5966],[-245,-1],[-144,2]],[[9560,5967],[-1,775],[12,1],[0,771]],[[9571,7514],[-103,1],[-147,0]],[[9321,7515],[6,258],[1,771]],[[9328,8544],[0,260],[7,215]],[[9335,9019],[253,1],[192,-8]],[[9780,9012],[0,-499],[64,-998]],[[7943,5968],[0,-257],[123,1],[0,-520],[123,1]],[[8189,5193],[1,-137],[0,-120]],[[8190,4936],[-240,0],[-297,0]],[[7653,4936],[1,525],[-38,-10],[-27,-104],[-67,74],[-17,-47],[37,-140],[-57,61],[-45,-31]],[[7440,5264],[0,103],[-1,80]],[[4243,5454],[1,27],[0,101]],[[4244,5582],[-15,127],[1,770]],[[4230,6479],[519,2],[349,0]],[[5108,5452],[-247,2],[-618,0]],[[4243,5454],[1,-772],[4,-258]],[[4191,4416],[-37,7]],[[4154,4423],[-399,1],[0,-257],[-123,1]],[[3632,4168],[-73,-1],[-58,1]],[[3501,4168],[1,1159],[1,0]],[[3503,5327],[494,-2],[0,259],[247,-2]],[[4381,3552],[-5,-28],[-181,0],[0,-129],[-37,1],[17,-131],[-284,-2]],[[3891,3263],[-21,131],[-41,0],[0,261],[-13,1],[0,257],[-184,0],[0,255]],[[4154,4423],[37,-1]],[[3891,3263],[0,-643],[-208,0]],[[3683,2620],[-91,200],[-36,12],[-54,-54],[-1,1390]],[[7079,1631],[-41,1],[-1,-302]],[[7037,1330],[-365,1],[-325,0]],[[6347,1331],[-2,0],[1,645]],[[6591,2619],[0,-386],[368,-2],[9,-126],[111,0]],[[7079,2105],[0,-244],[0,-230]],[[7079,1631],[307,0],[59,-34],[40,-139]],[[7485,1458],[43,-151],[-32,-56],[-8,-110],[-49,-4],[56,-122],[-22,-60],[9,-145]],[[7482,810],[-47,-2],[-53,53],[-20,-184],[-26,-55],[-65,-11],[-12,90],[-62,49],[-21,-82],[-38,62],[-19,195],[-41,61]],[[7078,986],[0,174],[-41,-1],[0,171]],[[5714,7524],[-55,-2],[-70,2]],[[5092,7523],[-260,-10],[-111,0]],[[4721,7513],[-6,253],[0,768]],[[5213,8405],[354,1],[147,-1]],[[5714,8405],[-1,-599],[1,-282]],[[5714,7524],[214,-2],[286,1]],[[9328,8544],[-140,1],[-236,0]],[[8952,8545],[0,259],[-121,-1]],[[8831,8803],[0,1022],[28,-2],[0,168]],[[8859,9991],[283,1],[183,0]],[[9325,9992],[-30,-15],[41,-151],[-1,-807]],[[7080,3647],[2,2],[1,323]],[[7083,3972],[52,-111],[75,59],[53,-139]],[[7263,3781],[24,2],[38,-129],[42,79],[-28,84],[50,52],[24,-80],[105,34],[13,-93],[39,-20],[25,103]],[[7595,3813],[99,-7],[0,-414]],[[7694,3392],[0,-261],[-124,0],[-2,-515]],[[7568,2616],[-189,0],[-176,1]],[[7203,2617],[0,259],[-122,-1],[-1,129]],[[7440,5264],[-34,-26],[-80,96],[-27,-53],[-37,14],[1,-1514]],[[7083,3972],[-100,-169],[-75,64],[-73,-2]],[[6835,3865],[1,221],[-1,1107]],[[6835,5193],[2,249],[0,7]],[[8387,8289],[0,514],[3,-1]],[[8390,8802],[257,1],[184,0]],[[8952,8545],[-125,0],[0,-773],[-6,1],[0,-514]],[[8821,7259],[-153,-2],[22,49],[-18,113],[-43,12],[-16,86],[-167,1]],[[8446,7518],[-63,-1],[4,772]],[[8387,8289],[-63,-1],[-157,1]],[[8167,8289],[0,504],[0,1197]],[[8167,9990],[95,1],[155,1]],[[8417,9992],[0,-171],[-27,1],[0,-1020]],[[6463,8791],[-1,0]],[[6462,8791],[1,495],[0,703]],[[6463,9989],[736,2],[94,0]],[[7293,9991],[-2,-643],[-83,-42],[-13,-71],[-64,22],[-50,-193],[-70,5],[-45,41],[-39,-50],[23,-242],[-15,-27]],[[5714,8405],[-1,291],[0,95]],[[5713,8791],[397,-1],[352,1]],[[9560,5967],[-229,-2],[-146,4]],[[9185,5969],[1,513],[-162,0]],[[9024,6482],[40,114],[-60,167],[17,64],[-12,102],[63,133],[20,195]],[[9092,7257],[104,-1],[0,257],[125,2]],[[6835,5193],[-115,2],[-502,-2]],[[8178,1585],[135,-1],[112,1]],[[8425,1585],[262,0],[465,0]],[[9152,1585],[0,-514],[1,-139]],[[9153,932],[-71,79],[-40,-79],[-13,-144],[-118,-62],[-89,0],[-24,60],[-53,-31],[-7,63],[-47,-24],[-7,120],[-47,36],[-34,-102],[-49,-2],[-23,-56],[-79,12],[-6,-57]],[[8446,745],[-88,1],[-48,125],[-48,27],[-22,70],[0,523],[-18,69],[-44,25]],[[8178,1585],[-110,1],[-375,1]],[[7693,1587],[0,274],[-1,498]],[[7692,2359],[306,0],[0,259],[63,-1],[0,515]],[[8061,3132],[244,1],[1,-257],[245,0]],[[8551,2876],[0,-257],[-126,-1],[0,-1033]],[[6218,5077],[63,-96],[71,-50],[-11,-121],[29,-98],[157,-226],[5,-152],[56,-29],[-4,-128],[19,-205],[39,-30],[40,26],[14,-51],[139,-52]],[[9552,5035],[74,100],[77,-91],[18,-93],[62,26],[24,71],[47,-53],[71,-26],[-1,121],[26,99],[43,31]],[[9993,5220],[4,-67],[-18,-1270],[-16,-1262]],[[9963,2621],[-459,1],[-97,-3]],[[9407,2619],[0,515],[-142,0]],[[9265,3134],[0,516],[72,-1],[0,259],[82,0],[-1,343]],[[9418,4251],[0,426],[133,-1],[1,359]],[[9418,4251],[-200,-3],[-291,2]],[[8927,4250],[0,303],[-124,-1],[5,401]],[[8808,4953],[77,89],[48,-97]],[[8933,4945],[38,28],[79,-121],[52,125],[34,18],[-6,121],[16,54],[45,9],[43,100],[7,79],[35,78]],[[9276,5436],[29,-17],[22,-114],[122,-50],[-12,-151],[97,43],[18,-112]],[[5199,9989],[286,-3],[219,1]],[[5704,9987],[3,-165],[1,-1031],[5,0]],[[9265,3134],[-222,-1],[-309,2]],[[8734,3135],[1,513],[8,2],[-1,514],[185,1],[0,85]],[[6218,5073],[0,0]],[[3498,8513],[0,52],[1,226]],[[3963,8788],[1,-1023],[10,0],[-1,-244],[250,1]],[[4223,7522],[-1,-227],[2,-220]],[[4224,7075],[-84,-24],[-50,-77],[-23,-157],[-40,-76],[-10,-101],[-69,-69],[-116,49],[-98,151],[-9,264],[-54,11],[-38,-47],[-43,-219],[-88,-97]],[[3502,6683],[-1,1831],[-3,-1]],[[3498,8513],[-633,-1],[-476,2]],[[2389,8514],[0,1030],[11,2],[0,442]],[[2400,9988],[744,10],[355,1]],[[5670,3134],[3,-513]],[[6347,1331],[0,-258],[0,-249]],[[6347,824],[-32,13],[0,141],[-85,115],[-30,-10],[-53,-150],[-36,-7],[-82,-226],[-52,-21],[-116,117],[24,72],[-16,66],[28,160],[-32,46],[-77,-38],[-52,26],[-21,78],[22,38],[-42,89],[36,166],[-40,78],[-18,-36]],[[6588,7506],[0,0]],[[7089,7765],[123,-1],[1,-259],[230,3]],[[8378,6609],[16,2],[47,-1]],[[8441,6610],[0,-386],[61,1],[1,-516]],[[8503,5709],[-128,1],[-1,-259],[-61,-1],[0,-259],[-124,2]],[[8129,6613],[37,0],[212,-4]],[[8378,6609],[0,134],[68,-2],[0,777]],[[8821,7259],[122,-1],[149,-1]],[[9024,6482],[-91,2],[-19,26],[-70,-67],[-66,13],[-100,-48],[-26,-65],[-62,64],[-14,204],[-135,-1]],[[4224,7075],[0,-339],[6,-257]],[[3503,5327],[-1,287],[0,1069]],[[4223,7522],[300,-6],[198,-3]],[[7855,7514],[-15,0],[-19,1]],[[6990,8535],[5,-62],[76,-90],[76,46],[63,200],[60,79],[38,-45],[37,-214],[-6,-120],[43,-50],[44,16],[40,-129],[31,-24],[40,79],[26,-69],[-47,-85],[-17,-98],[68,-52],[33,95],[34,8],[28,-138],[55,-57],[70,-118],[81,-3],[17,-64],[-30,-126]],[[7855,7514],[312,-1],[0,776]],[[8808,4953],[-57,15],[-15,-102],[-69,-65],[-31,-67],[-34,74],[-51,-58],[-4,-55],[-79,-48],[-15,-44],[-44,59],[-90,-34],[-43,-126],[-89,25]],[[8187,4527],[3,188],[0,221]],[[8503,5709],[429,2],[1,-766]],[[7079,2105],[62,0],[0,512],[62,0]],[[7568,2616],[0,-255],[124,-2]],[[7693,1587],[-54,0],[0,-128],[-154,-1]],[[9276,5436],[-31,0],[-65,198],[5,335]],[[9949,5966],[50,-727],[-6,-19]],[[8446,745],[-10,-83],[-53,44],[-36,-59],[-91,134],[-21,-72],[-124,-72],[-61,31],[2,-50],[-58,20],[-24,-201],[-60,-64],[-81,70],[-33,-220],[-48,-21],[-23,108],[-59,156],[-83,-17],[-36,148],[-48,-12],[-66,94],[49,131]],[[9963,2621],[-29,-2572],[-57,-49],[-34,16],[17,101],[-48,-46],[-43,108],[-14,-54],[-33,92],[-20,-29],[-72,55],[-5,89],[-60,-1],[-25,106],[-5,-83],[-54,24],[-92,201],[-18,130],[-28,-26],[-66,36],[-12,111],[-27,-65],[-55,169],[-30,-2]],[[9152,1585],[6,256],[122,0],[0,780],[127,-2]],[[9325,9992],[455,-2],[0,-978]],[[8187,4527],[-35,-29],[-87,-272],[-4,-835]],[[8061,3391],[-265,-3],[-102,4]],[[7595,3813],[1,607],[57,0],[0,516]],[[8734,3135],[0,-257],[-183,-2]],[[8061,3132],[-1,86],[1,173]],[[1132,8517],[-1132,-1],[0,1477],[218,0],[137,-15],[782,-5]],[[1137,9973],[-5,-443],[0,-1013]],[[8417,9992],[181,-1],[261,0]],[[7293,9991],[503,0],[371,-1]],[[5704,9987],[555,4],[204,-2]],[[7078,986],[-72,-36],[14,-145],[-66,-166],[-34,70],[-23,-49],[49,-79],[-53,-39],[9,-116],[-12,-107],[-69,-14],[-45,108],[-13,116],[11,93],[33,26],[-22,179],[-31,44],[-38,-37],[-12,-116],[-24,-17],[-37,88],[-25,-96],[-3,85],[-50,-195],[-61,1],[-42,73],[13,142],[-58,83],[-70,-58]],[[2389,8514],[-153,-2],[-873,1],[-231,4]],[[1137,9973],[148,1],[1115,14]],[[4427,2121],[-31,7],[-11,95],[-37,39],[-15,83],[-38,-14],[-64,146],[-24,-50],[10,-91],[-14,-105],[-40,-16],[-98,132],[-72,7],[-24,-125],[-110,10],[-69,126],[-107,255]]],"bbox":[-103.00244977470176,33.62112753258914,-94.43027356454293,37.00194859295229],"transform":{"scale":[0.0008573033513510181,0.0003381159176280774],"translate":[-103.00244977470176,33.62112753258914]},"title":"Oklahoma","version":"2.1.0","copyright":"Copyright (c) 2023 Highsoft AS, Based on data from The United States Census Bureau","copyrightShort":"USA Census Bureau","copyrightUrl":"http://www.census.gov"}