{"type":"Topology","objects":{"default":{"type":"GeometryCollection","geometries":[{"type":"Polygon","arcs":[[0,1,2,3,4,5,6,7]],"id":"US.PA.015","properties":{"hc-group":"admin2","hc-key":"us-pa-015","hc-a2":"BR","fips":"42015","name":"Bradford","hc-middle-lon":-76.529,"hc-middle-lat":41.774}},{"type":"Polygon","arcs":[[8,6,9,10,11,-1]],"id":"US.PA.117","properties":{"hc-group":"admin2","hc-key":"us-pa-117","hc-a2":"TI","fips":"42117","name":"Tioga","hc-middle-lon":-77.241,"hc-middle-lat":41.772}},{"type":"Polygon","arcs":[[12,13,14,15,16,17,18,19]],"id":"US.PA.027","properties":{"hc-group":"admin2","hc-key":"us-pa-027","hc-a2":"CE","fips":"42027","name":"Centre","hc-middle-lon":-77.848,"hc-middle-lat":40.927}},{"type":"Polygon","arcs":[[20,-18,21,22,23,24,25,19]],"id":"US.PA.035","properties":{"hc-group":"admin2","hc-key":"us-pa-035","hc-a2":"CL","fips":"42035","name":"Clinton","hc-middle-lon":-77.722,"hc-middle-lat":41.293}},{"type":"Polygon","arcs":[[26,27,-15,28,29,30,31]],"id":"US.PA.061","properties":{"hc-group":"admin2","hc-key":"us-pa-061","hc-a2":"HU","fips":"42061","name":"Huntingdon","hc-middle-lon":-78.011,"hc-middle-lat":40.443}},{"type":"Polygon","arcs":[[-27,32,33,34,35,36]],"id":"US.PA.009","properties":{"hc-group":"admin2","hc-key":"us-pa-009","hc-a2":"BE","fips":"42009","name":"Bedford","hc-middle-lon":-78.507,"hc-middle-lat":39.989}},{"type":"MultiPolygon","arcs":[[[37,38,39,40,41]],[[42,42,42]],[[42,42,42]],[[42,42,42]],[[43,-44,42]]],"id":"US.PA.075","properties":{"hc-group":"admin2","hc-key":"us-pa-075","hc-a2":"LE","fips":"42075","name":"Lebanon","hc-middle-lon":-76.473,"hc-middle-lat":40.367}},{"type":"MultiPolygon","arcs":[[[44,45,46,47,48]],[[49,50]]],"id":"US.PA.029","properties":{"hc-group":"admin2","hc-key":"us-pa-029","hc-a2":"CH","fips":"42029","name":"Chester","hc-middle-lon":-75.777,"hc-middle-lat":39.969}},{"type":"Polygon","arcs":[[-45,51,-40,52,53,54]],"id":"US.PA.011","properties":{"hc-group":"admin2","hc-key":"us-pa-011","hc-a2":"BE","fips":"42011","name":"Berks","hc-middle-lon":-75.904,"hc-middle-lat":40.418}},{"type":"Polygon","arcs":[[55,56,57,58,59,60,61]],"id":"US.PA.083","properties":{"hc-group":"admin2","hc-key":"us-pa-083","hc-a2":"MC","fips":"42083","name":"McKean","hc-middle-lon":-78.574,"hc-middle-lat":41.809}},{"type":"Polygon","arcs":[[62,-60,63,64,65,66,61]],"id":"US.PA.047","properties":{"hc-group":"admin2","hc-key":"us-pa-047","hc-a2":"EL","fips":"42047","name":"Elk","hc-middle-lon":-78.701,"hc-middle-lat":41.428}},{"type":"Polygon","arcs":[[67,68,69,70,71,72,73]],"id":"US.PA.005","properties":{"hc-group":"admin2","hc-key":"us-pa-005","hc-a2":"AR","fips":"42005","name":"Armstrong","hc-middle-lon":-79.486,"hc-middle-lat":40.837}},{"type":"Polygon","arcs":[[74,72,75,76,77,78,79,80,-68]],"id":"US.PA.019","properties":{"hc-group":"admin2","hc-key":"us-pa-019","hc-a2":"BU","fips":"42019","name":"Butler","hc-middle-lon":-79.928,"hc-middle-lat":40.919}},{"type":"Polygon","arcs":[[-77,81,82,83,84]],"id":"US.PA.007","properties":{"hc-group":"admin2","hc-key":"us-pa-007","hc-a2":"BE","fips":"42007","name":"Beaver","hc-middle-lon":-80.334,"hc-middle-lat":40.69}},{"type":"Polygon","arcs":[[85,-30,86,87,88,89]],"id":"US.PA.067","properties":{"hc-group":"admin2","hc-key":"us-pa-067","hc-a2":"JU","fips":"42067","name":"Juniata","hc-middle-lon":-77.42,"hc-middle-lat":40.548}},{"type":"Polygon","arcs":[[90,91,92,-90]],"id":"US.PA.099","properties":{"hc-group":"admin2","hc-key":"us-pa-099","hc-a2":"PE","fips":"42099","name":"Perry","hc-middle-lon":-77.202,"hc-middle-lat":40.425}},{"type":"Polygon","arcs":[[-67,93,94,95,96]],"id":"US.PA.053","properties":{"hc-group":"admin2","hc-key":"us-pa-053","hc-a2":"FO","fips":"42053","name":"Forest","hc-middle-lon":-79.239,"hc-middle-lat":41.528}},{"type":"Polygon","arcs":[[-97,97,98,99,100,-56,-62]],"id":"US.PA.123","properties":{"hc-group":"admin2","hc-key":"us-pa-123","hc-a2":"WA","fips":"42123","name":"Warren","hc-middle-lon":-79.267,"hc-middle-lat":41.812}},{"type":"Polygon","arcs":[[-98,-96,101,-80,102,103,104,105]],"id":"US.PA.121","properties":{"hc-group":"admin2","hc-key":"us-pa-121","hc-a2":"VE","fips":"42121","name":"Venango","hc-middle-lon":-79.758,"hc-middle-lat":41.398}},{"type":"Polygon","arcs":[[106,107,-65,108,-22,-17,109,110]],"id":"US.PA.033","properties":{"hc-group":"admin2","hc-key":"us-pa-033","hc-a2":"CL","fips":"42033","name":"Clearfield","hc-middle-lon":-78.486,"hc-middle-lat":40.989}},{"type":"Polygon","arcs":[[-107,111,112,-71,113]],"id":"US.PA.063","properties":{"hc-group":"admin2","hc-key":"us-pa-063","hc-a2":"IN","fips":"42063","name":"Indiana","hc-middle-lon":-79.077,"hc-middle-lat":40.647}},{"type":"Polygon","arcs":[[114,115,116,-53,-39,117,118,119,120]],"id":"US.PA.107","properties":{"hc-group":"admin2","hc-key":"us-pa-107","hc-a2":"SC","fips":"42107","name":"Schuylkill","hc-middle-lon":-76.145,"hc-middle-lat":40.73}},{"type":"Polygon","arcs":[[-115,121,122,123,124,125,126]],"id":"US.PA.079","properties":{"hc-group":"admin2","hc-key":"us-pa-079","hc-a2":"LU","fips":"42079","name":"Luzerne","hc-middle-lon":-75.967,"hc-middle-lat":41.176}},{"type":"Polygon","arcs":[[127,128,129,-31,-86,-93,130]],"id":"US.PA.055","properties":{"hc-group":"admin2","hc-key":"us-pa-055","hc-a2":"FR","fips":"42055","name":"Franklin","hc-middle-lon":-77.713,"hc-middle-lat":39.897}},{"type":"Polygon","arcs":[[-128,131,132,133]],"id":"US.PA.001","properties":{"hc-group":"admin2","hc-key":"us-pa-001","hc-a2":"AD","fips":"42001","name":"Adams","hc-middle-lon":-77.213,"hc-middle-lat":39.87}},{"type":"Polygon","arcs":[[134,135,136,137,138,139,-126]],"id":"US.PA.089","properties":{"hc-group":"admin2","hc-key":"us-pa-089","hc-a2":"MO","fips":"42089","name":"Monroe","hc-middle-lon":-75.336,"hc-middle-lat":41.088}},{"type":"Polygon","arcs":[[-135,-125,140,141,142]],"id":"US.PA.069","properties":{"hc-group":"admin2","hc-key":"us-pa-069","hc-a2":"LA","fips":"42069","name":"Lackawanna","hc-middle-lon":-75.611,"hc-middle-lat":41.437}},{"type":"Polygon","arcs":[[143,144,145]],"id":"US.PA.093","properties":{"hc-group":"admin2","hc-key":"us-pa-093","hc-a2":"MO","fips":"42093","name":"Montour","hc-middle-lon":-76.667,"hc-middle-lat":41.019}},{"type":"Polygon","arcs":[[-144,146,147,-25,148,-10,-7,-6,149,150]],"id":"US.PA.081","properties":{"hc-group":"admin2","hc-key":"us-pa-081","hc-a2":"LY","fips":"42081","name":"Lycoming","hc-middle-lon":-77.035,"hc-middle-lat":41.344}},{"type":"Polygon","arcs":[[151,-139,152,153,154]],"id":"US.PA.095","properties":{"hc-group":"admin2","hc-key":"us-pa-095","hc-a2":"NO","fips":"42095","name":"Northampton","hc-middle-lon":-75.374,"hc-middle-lat":40.738}},{"type":"Polygon","arcs":[[-152,155,-116,-127,-140]],"id":"US.PA.025","properties":{"hc-group":"admin2","hc-key":"us-pa-025","hc-a2":"CA","fips":"42025","name":"Carbon","hc-middle-lon":-75.724,"hc-middle-lat":40.898}},{"type":"Polygon","arcs":[[-94,-66,-108,-114,-70,156]],"id":"US.PA.065","properties":{"hc-group":"admin2","hc-key":"us-pa-065","hc-a2":"JE","fips":"42065","name":"Jefferson","hc-middle-lon":-79.006,"hc-middle-lat":41.144}},{"type":"Polygon","arcs":[[157,158,-82,-76,-73,159]],"id":"US.PA.003","properties":{"hc-group":"admin2","hc-key":"us-pa-003","hc-a2":"AL","fips":"42003","name":"Allegheny","hc-middle-lon":-79.982,"hc-middle-lat":40.479}},{"type":"Polygon","arcs":[[160,-73,-72,-113,161,162,163,164,-158]],"id":"US.PA.129","properties":{"hc-group":"admin2","hc-key":"us-pa-129","hc-a2":"WE","fips":"42129","name":"Westmoreland","hc-middle-lon":-79.413,"hc-middle-lat":40.303}},{"type":"Polygon","arcs":[[-36,165,-162,-112,-111,166]],"id":"US.PA.021","properties":{"hc-group":"admin2","hc-key":"us-pa-021","hc-a2":"CA","fips":"42021","name":"Cambria","hc-middle-lon":-78.711,"hc-middle-lat":40.479}},{"type":"Polygon","arcs":[[-167,-110,-16,-28,-37]],"id":"US.PA.013","properties":{"hc-group":"admin2","hc-key":"us-pa-013","hc-a2":"BL","fips":"42013","name":"Blair","hc-middle-lon":-78.343,"hc-middle-lat":40.477}},{"type":"Polygon","arcs":[[167,168,169,-99,-106,-105]],"id":"US.PA.039","properties":{"hc-group":"admin2","hc-key":"us-pa-039","hc-a2":"CR","fips":"42039","name":"Crawford","hc-middle-lon":-80.14,"hc-middle-lat":41.665}},{"type":"Polygon","arcs":[[-109,-64,-59,170,-23]],"id":"US.PA.023","properties":{"hc-group":"admin2","hc-key":"us-pa-023","hc-a2":"CA","fips":"42023","name":"Cameron","hc-middle-lon":-78.222,"hc-middle-lat":41.462}},{"type":"Polygon","arcs":[[171,172,-147,-146,173,-120,-119,174,175,-89]],"id":"US.PA.097","properties":{"hc-group":"admin2","hc-key":"us-pa-097","hc-a2":"NO","fips":"42097","name":"Northumberland","hc-middle-lon":-76.686,"hc-middle-lat":40.818}},{"type":"MultiPolygon","arcs":[[[-176,176,-119,-118,-38,177,178,179,180,-91]],[[181,181,181]],[[182,182,182]],[[42,42,42]],[[183,-44,-42]]],"id":"US.PA.043","properties":{"hc-group":"admin2","hc-key":"us-pa-043","hc-a2":"DA","fips":"42043","name":"Dauphin","hc-middle-lon":-76.778,"hc-middle-lat":40.411}},{"type":"Polygon","arcs":[[184,-54,-117,-156,-155,185]],"id":"US.PA.077","properties":{"hc-group":"admin2","hc-key":"us-pa-077","hc-a2":"LE","fips":"42077","name":"Lehigh","hc-middle-lon":-75.611,"hc-middle-lat":40.645}},{"type":"Polygon","arcs":[[-185,186,187,188,-46,-55]],"id":"US.PA.091","properties":{"hc-group":"admin2","hc-key":"us-pa-091","hc-a2":"MO","fips":"42091","name":"Montgomery","hc-middle-lon":-75.443,"hc-middle-lat":40.241}},{"type":"Polygon","arcs":[[189,-4,190,-141,-124]],"id":"US.PA.131","properties":{"hc-group":"admin2","hc-key":"us-pa-131","hc-a2":"WY","fips":"42131","name":"Wyoming","hc-middle-lon":-76.002,"hc-middle-lat":41.512}},{"type":"Polygon","arcs":[[-190,-123,191,-150,-5]],"id":"US.PA.113","properties":{"hc-group":"admin2","hc-key":"us-pa-113","hc-a2":"SU","fips":"42113","name":"Sullivan","hc-middle-lon":-76.501,"hc-middle-lat":41.447}},{"type":"Polygon","arcs":[[-192,-122,-121,-174,-145,-151]],"id":"US.PA.037","properties":{"hc-group":"admin2","hc-key":"us-pa-037","hc-a2":"CO","fips":"42037","name":"Columbia","hc-middle-lon":-76.376,"hc-middle-lat":41.043}},{"type":"Polygon","arcs":[[-189,192,193,-51,194,-47]],"id":"US.PA.045","properties":{"hc-group":"admin2","hc-key":"us-pa-045","hc-a2":"DE","fips":"42045","name":"Delaware","hc-middle-lon":-75.401,"hc-middle-lat":39.913}},{"type":"Polygon","arcs":[[-26,-148,-173,195,196,-13,-20]],"id":"US.PA.119","properties":{"hc-group":"admin2","hc-key":"us-pa-119","hc-a2":"UN","fips":"42119","name":"Union","hc-middle-lon":-77.053,"hc-middle-lat":40.974}},{"type":"Polygon","arcs":[[-197,197,-87,-29,-14]],"id":"US.PA.087","properties":{"hc-group":"admin2","hc-key":"us-pa-087","hc-a2":"MI","fips":"42087","name":"Mifflin","hc-middle-lon":-77.614,"hc-middle-lat":40.635}},{"type":"Polygon","arcs":[[-81,-102,-95,-157,-69]],"id":"US.PA.031","properties":{"hc-group":"admin2","hc-key":"us-pa-031","hc-a2":"CL","fips":"42031","name":"Clarion","hc-middle-lon":-79.419,"hc-middle-lat":41.179}},{"type":"MultiPolygon","arcs":[[[104,198,-103,-79,199,200,-168]],[[201,201,201]],[[201,201,201]]],"id":"US.PA.085","properties":{"hc-group":"admin2","hc-key":"us-pa-085","hc-a2":"ME","fips":"42085","name":"Mercer","hc-middle-lon":-80.26,"hc-middle-lat":41.302}},{"type":"Polygon","arcs":[[-41,-52,-49,202,203,-178,-42]],"id":"US.PA.071","properties":{"hc-group":"admin2","hc-key":"us-pa-071","hc-a2":"LA","fips":"42071","name":"Lancaster","hc-middle-lon":-76.215,"hc-middle-lat":40.049}},{"type":"Polygon","arcs":[[-100,-170,204]],"id":"US.PA.049","properties":{"hc-group":"admin2","hc-key":"us-pa-049","hc-a2":"ER","fips":"42049","name":"Erie","hc-middle-lon":-80.004,"hc-middle-lat":41.986}},{"type":"Polygon","arcs":[[205,-132,-131,-92,-181]],"id":"US.PA.041","properties":{"hc-group":"admin2","hc-key":"us-pa-041","hc-a2":"CU","fips":"42041","name":"Cumberland","hc-middle-lon":-77.328,"hc-middle-lat":40.164}},{"type":"Polygon","arcs":[[206,207,-136,-143,208]],"id":"US.PA.127","properties":{"hc-group":"admin2","hc-key":"us-pa-127","hc-a2":"WA","fips":"42127","name":"Wayne","hc-middle-lon":-75.287,"hc-middle-lat":41.659}},{"type":"Polygon","arcs":[[209,210,-187,-186,-154]],"id":"US.PA.017","properties":{"hc-group":"admin2","hc-key":"us-pa-017","hc-a2":"BU","fips":"42017","name":"Bucks","hc-middle-lon":-75.102,"hc-middle-lat":40.318}},{"type":"Polygon","arcs":[[211,212,213]],"id":"US.PA.059","properties":{"hc-group":"admin2","hc-key":"us-pa-059","hc-a2":"GR","fips":"42059","name":"Greene","hc-middle-lon":-80.216,"hc-middle-lat":39.864}},{"type":"Polygon","arcs":[[214,-214,215,-164,216]],"id":"US.PA.051","properties":{"hc-group":"admin2","hc-key":"us-pa-051","hc-a2":"FA","fips":"42051","name":"Fayette","hc-middle-lon":-79.649,"hc-middle-lat":39.904}},{"type":"Polygon","arcs":[[217,-193,-188,-211]],"id":"US.PA.101","properties":{"hc-group":"admin2","hc-key":"us-pa-101","hc-a2":"PH","fips":"42101","name":"Philadelphia","hc-middle-lon":-75.127,"hc-middle-lat":40.029}},{"type":"Polygon","arcs":[[-208,218,-137]],"id":"US.PA.103","properties":{"hc-group":"admin2","hc-key":"us-pa-103","hc-a2":"PI","fips":"42103","name":"Pike","hc-middle-lon":-75.032,"hc-middle-lat":41.346}},{"type":"Polygon","arcs":[[-209,-142,-191,-3,219]],"id":"US.PA.115","properties":{"hc-group":"admin2","hc-key":"us-pa-115","hc-a2":"SU","fips":"42115","name":"Susquehanna","hc-middle-lon":-75.803,"hc-middle-lat":41.823}},{"type":"Polygon","arcs":[[220,-83,-159,-165,-216,-213]],"id":"US.PA.125","properties":{"hc-group":"admin2","hc-key":"us-pa-125","hc-a2":"WA","fips":"42125","name":"Washington","hc-middle-lon":-80.247,"hc-middle-lat":40.184}},{"type":"Polygon","arcs":[[-11,-149,-24,-171,-58,221]],"id":"US.PA.105","properties":{"hc-group":"admin2","hc-key":"us-pa-105","hc-a2":"PO","fips":"42105","name":"Potter","hc-middle-lon":-77.902,"hc-middle-lat":41.738}},{"type":"Polygon","arcs":[[-196,-172,-88,-198]],"id":"US.PA.109","properties":{"hc-group":"admin2","hc-key":"us-pa-109","hc-a2":"SN","fips":"42109","name":"Snyder","hc-middle-lon":-77.052,"hc-middle-lat":40.77}},{"type":"Polygon","arcs":[[-35,222,-217,-163,-166]],"id":"US.PA.111","properties":{"hc-group":"admin2","hc-key":"us-pa-111","hc-a2":"SO","fips":"42111","name":"Somerset","hc-middle-lon":-79.053,"hc-middle-lat":39.974}},{"type":"Polygon","arcs":[[223,-33,-32,-130]],"id":"US.PA.057","properties":{"hc-group":"admin2","hc-key":"us-pa-057","hc-a2":"FU","fips":"42057","name":"Fulton","hc-middle-lon":-78.108,"hc-middle-lat":39.921}},{"type":"Polygon","arcs":[[-78,-85,224,-200]],"id":"US.PA.073","properties":{"hc-group":"admin2","hc-key":"us-pa-073","hc-a2":"LA","fips":"42073","name":"Lawrence","hc-middle-lon":-80.34,"hc-middle-lat":40.99}},{"type":"Polygon","arcs":[[225,-133,-206,-179,-204]],"id":"US.PA.133","properties":{"hc-group":"admin2","hc-key":"us-pa-133","hc-a2":"YO","fips":"42133","name":"York","hc-middle-lon":-76.714,"hc-middle-lat":39.921}}],"hc-recommended-transform":{"default":{"crs":"+proj=lcc +lat_1=40.88333333333333 +lat_2=41.95 +lat_0=40.16666666666666 +lon_0=-77.75 +x_0=600000.0000000001 +y_0=0 +datum=NAD83 +units=us-ft +no_defs","scale":0.000430748320562,"jsonres":15.5,"jsonmarginX":-999,"jsonmarginY":9851,"xoffset":1189318.15649,"yoffset":772291.557668}},"hc-recommended-mapview":{"projection":{"name":"LambertConformalConic","parallels":[40.88333333333333,41.95],"rotation":[77.75]}}}},"arcs":[[[6215,8196],[-48,755]],[[6167,8951],[157,2],[669,-14],[516,1]],[[7509,8940],[34,-857],[18,-504]],[[7561,7579],[-143,-16],[-38,-419]],[[7380,7144],[-982,184],[-37,7]],[[6361,7335],[-104,26]],[[6257,7361],[0,2]],[[6257,7363],[-42,833]],[[6215,8196],[42,-835]],[[6257,7363],[-82,-61],[-65,-117],[-558,-29],[-539,-8]],[[5013,7148],[-12,1306],[-7,487]],[[4994,8941],[830,1],[343,9]],[[5794,5196],[-102,-204],[-130,-324],[-145,-247]],[[5417,4421],[-129,-91],[-265,-246],[-151,-122]],[[4872,3962],[-149,-42],[-97,95],[-205,-203],[-296,187]],[[4125,3999],[-26,14],[-391,-41]],[[3708,3972],[-29,87],[106,212],[54,170],[58,14],[51,224],[110,112],[134,69],[-16,136],[53,42],[-41,104],[40,33],[-58,83],[-37,211],[74,36],[52,120]],[[4259,5625],[60,-35],[52,110],[0,122],[56,22],[73,169],[9,-292],[162,15],[97,-292],[89,-6],[117,-59],[104,-132],[-32,-42],[122,-329],[290,94]],[[5458,4970],[337,229]],[[5795,5199],[-1,-3]],[[5794,5196],[-336,-226]],[[4259,5625],[-38,82],[-56,166]],[[4165,5873],[180,589],[-1,423]],[[4344,6885],[276,7],[395,6]],[[5015,6898],[23,-145],[100,-324],[87,-80],[6,-95],[210,-369],[50,-5],[269,-588],[35,-1]],[[5795,5291],[0,-92]],[[4094,1747],[-175,232],[-36,289]],[[3883,2268],[176,551],[43,170],[-40,27],[6,206],[-46,-27],[-35,94],[52,233],[-95,223],[29,83],[152,171]],[[4872,3962],[-34,-98],[25,-110],[-147,-200],[-119,-298],[43,-195],[-166,-399],[74,-24],[23,-106],[163,13],[16,38]],[[4750,2583],[34,-171],[51,-280]],[[4835,2132],[-37,-52],[-123,-327],[-117,-413]],[[4558,1340],[-105,159],[-264,125],[-95,123]],[[4094,1747],[-41,-170],[-83,-141],[44,-106],[-39,-66],[-27,-192],[-82,-353],[-54,-305],[-140,-403]],[[3672,11],[-198,0],[-536,0]],[[2938,11],[88,396],[-11,915],[40,49],[140,680]],[[3195,2051],[39,262],[26,69]],[[3260,2382],[197,-157],[99,-168],[24,228],[250,-237],[53,220]],[[6780,1867],[-185,1093],[245,317]],[[6840,3277],[61,-88],[102,-145]],[[7003,3044],[357,-509],[45,-22],[94,-175]],[[7499,2338],[-268,-239],[-220,-66],[-225,-163]],[[6786,1870],[-6,-3]],[[6780,1867],[0,0]],[[6780,1867],[1,-1]],[[7976,1637],[224,312],[79,98]],[[8279,2047],[79,2],[66,-75],[26,53],[40,-163],[29,47],[51,-225],[94,-80],[28,-162],[62,35],[47,-140],[54,16]],[[8855,1355],[-92,-92],[18,-57],[-85,-132],[31,-34],[-151,-160],[-39,-136],[-88,-138],[6,-145]],[[8455,461],[-164,-111],[-170,-341],[-595,-4]],[[7526,5],[118,152],[85,278],[-5,89],[48,59],[-4,329],[100,334],[-12,281],[120,110]],[[8480,466],[-15,-2],[-8,-2]],[[8457,462],[11,26],[12,-22]],[[7976,1637],[-140,208],[-337,493]],[[7003,3044],[174,76],[142,7],[145,70],[183,176],[90,-8],[33,242],[175,149]],[[7945,3756],[113,-171],[508,-732]],[[8566,2853],[-100,-283],[-187,-523]],[[2684,7469],[12,810],[48,3],[4,654]],[[2748,8936],[553,8],[670,-1]],[[3971,8943],[0,-484],[5,-1012]],[[3976,7447],[-371,-6],[0,-56]],[[3605,7385],[-109,0],[0,108],[-326,-20]],[[3170,7473],[-486,-6]],[[2684,7467],[0,2]],[[2684,7469],[486,4]],[[3605,7385],[-1,-774],[285,-2],[-1,-318],[34,-1],[-4,-364]],[[3918,5926],[-703,91],[-2,-143],[-107,-60]],[[3106,5814],[0,111],[-48,1],[5,127],[-385,389],[-25,52],[-208,-136]],[[2445,6358],[3,325],[49,-1],[2,118],[149,-6],[31,-57],[5,730]],[[1424,4852],[-1,839]],[[1423,5691],[18,-59],[1,-244],[41,-104],[-17,-70],[115,-65],[-34,-229],[223,84],[65,-55],[52,88],[78,-80],[15,68],[139,34],[120,161]],[[2239,5220],[8,-6],[-8,-540]],[[2239,4674],[0,-531],[-403,-965]],[[1836,3178],[-76,-20],[-114,154],[-29,146],[-104,252],[-52,57],[-41,-41]],[[1420,3726],[-1,0]],[[1419,3726],[5,1126]],[[1424,4852],[-4,-1126]],[[1419,3726],[-204,10],[-578,8]],[[637,3744],[-4,153],[-13,556]],[[620,4453],[-11,570],[116,272]],[[725,5295],[86,199],[81,202]],[[892,5696],[337,5],[187,-1]],[[1416,5700],[4,-4],[3,-5]],[[637,3744],[6,-239],[-60,-16],[-311,-517]],[[272,2972],[-132,1],[-139,-1]],[[1,2972],[0,321],[0,1145]],[[1,4438],[322,6],[297,9]],[[4889,2235],[-23,-53],[-31,-50]],[[4750,2583],[50,113],[191,329],[0,90],[197,266],[-1,109],[196,205],[165,125]],[[5548,3820],[236,-66],[70,58],[27,-60],[99,1],[52,-134],[114,-16]],[[6146,3603],[-14,-34],[-3,-7]],[[6129,3562],[-127,-93],[-274,-86],[26,-89],[-209,-161],[-269,-280],[-161,-188],[13,-92],[-57,-34],[-121,-175],[-61,-129]],[[6129,3562],[-14,-130],[-60,-107],[12,-200],[62,-187],[-92,-164],[-44,-140],[35,-129],[121,-4],[39,-114]],[[6188,2387],[-102,-70],[-209,-39],[-298,-86],[-73,-42],[-18,95],[-108,-115],[-58,5],[94,151],[-3,43],[-103,-105],[-190,-265],[-36,-2],[-81,-132],[-16,52]],[[4987,1877],[17,105],[-60,-29],[-10,150],[-45,132]],[[2445,6358],[-28,-62],[-167,28]],[[2250,6324],[3,389],[-332,20],[0,-195],[-133,0]],[[1788,6538],[0,210],[-75,2],[16,96],[1,626]],[[1730,7472],[616,8],[338,-13]],[[1730,7472],[-78,-1],[-95,-2]],[[1557,7469],[0,672],[1,215]],[[1558,8356],[1,129],[1,456]],[[1560,8941],[237,-4],[707,5],[244,-6]],[[1788,6538],[0,-200],[-109,1],[0,-58],[-108,1],[0,-174],[-79,-92],[1,-140],[-77,-176]],[[892,5696],[0,157]],[[892,5853],[0,1090]],[[892,6943],[1,0]],[[893,6943],[130,187],[53,144],[108,109],[2,79],[371,-19],[0,26]],[[2949,3942],[-8,19],[2,692]],[[2943,4653],[1,887],[66,277],[96,-3]],[[3918,5926],[84,-17],[163,-36]],[[3708,3972],[15,-27],[1,-4]],[[3724,3941],[-261,7],[-514,-6]],[[2949,3942],[-193,-885],[-104,-404]],[[2652,2653],[-72,95],[-72,-156],[-42,35],[-66,-75],[8,93],[-67,69],[-291,160],[-120,17],[-61,126],[-40,-15],[7,176]],[[2239,4674],[461,-12],[243,-9]],[[7401,4824],[309,-187],[53,43]],[[7763,4680],[191,-379],[220,-317]],[[8174,3984],[-86,-109],[-143,-119]],[[6840,3277],[-85,117],[-200,286]],[[6555,3680],[-1,0]],[[6554,3680],[236,197],[316,264]],[[7106,4141],[125,103],[39,321],[131,259]],[[7401,4824],[-39,392],[3,348],[-83,-25],[-71,299],[15,400]],[[7226,6238],[43,247],[3,14]],[[7272,6499],[478,32],[292,167]],[[8042,6698],[4,-107],[156,-203],[94,-36],[-13,-85],[28,-208],[43,-24],[6,-265],[84,-115]],[[8444,5655],[-59,-150],[-25,-4]],[[8360,5501],[-72,37],[-108,-115],[-27,-204],[66,-166],[-456,-373]],[[5234,879],[12,-485],[7,-394]],[[5253,0],[-807,9],[-291,-1]],[[4155,8],[165,410],[48,178],[93,505],[97,239]],[[4987,1877],[-22,-39],[33,-140],[78,-131],[52,-278],[134,-299],[-28,-111]],[[5234,879],[115,198],[373,137],[84,158]],[[5806,1372],[77,-62],[41,-97],[86,-60],[90,-309],[-30,-130],[49,-177],[-74,-97],[-3,-440]],[[6042,0],[-372,0],[-417,0]],[[8444,5655],[104,251],[59,28]],[[8607,5934],[225,20],[27,5]],[[8859,5959],[393,52],[-46,-400],[137,-36],[84,-240],[63,48]],[[9490,5383],[42,9],[-79,-110],[-22,-104],[-180,-192],[17,-88]],[[9268,4898],[-167,-159],[-25,-110],[-117,-159],[-142,-111],[-156,-63]],[[8661,4296],[-172,535],[135,141],[-201,420],[-63,109]],[[8042,6698],[108,308],[-53,70],[49,198],[94,267]],[[8240,7541],[245,-2],[196,0]],[[8681,7539],[36,-1497],[-110,-108]],[[6501,5696],[92,-70],[66,7]],[[6659,5633],[37,-361],[84,-40],[8,-212],[87,-160],[-23,-299]],[[6852,4561],[-39,1],[-30,128],[19,91],[-76,13],[-102,103],[-226,-85],[28,242],[71,329],[4,313]],[[6501,5696],[-97,15],[-163,-72],[-20,-72]],[[6221,5567],[-111,37],[-30,-238],[-155,-10],[-130,-65]],[[5015,6898],[-2,125],[0,125]],[[6361,7335],[111,-723],[269,-397],[249,-113]],[[6990,6102],[-249,-461],[-82,-8]],[[8429,4188],[117,76],[115,32]],[[9268,4898],[115,-372],[-19,-99],[-45,2],[12,-96],[-95,-200],[-55,16],[-44,-102],[24,-71],[-36,-164],[46,-56],[-40,-120],[6,-149]],[[9137,3487],[-105,-105],[-129,-177]],[[8903,3205],[-122,174],[37,166],[-82,199],[-88,-72],[-83,315],[-48,-61],[-75,115],[-13,147]],[[8429,4188],[-146,-68],[-109,-136]],[[2239,5220],[7,110],[4,994]],[[1426,3626],[-56,-142],[-73,-59],[-2,-170],[109,-96],[-5,-384],[-99,-136],[-75,-597],[41,-50],[-152,-119]],[[1114,1873],[-45,-11],[-102,74],[-14,95],[86,58],[-462,314],[-305,569]],[[1420,3726],[6,-100]],[[1426,3626],[-7,100]],[[2652,2653],[-107,-350],[-33,-86]],[[2512,2217],[-76,-246],[-104,-240],[-41,-201],[-44,36],[-78,-120],[-64,-189]],[[2105,1257],[-85,16],[-22,117],[-219,272],[-98,-116],[-66,-33],[-25,-92],[-82,25],[-77,100],[-100,56],[-228,-5]],[[1103,1597],[-47,119],[93,78],[-35,79]],[[3195,2051],[-389,7],[-74,159],[-220,0]],[[3724,3941],[-100,-315],[-49,10],[-7,-180],[-77,-235],[-92,-137],[-42,-531],[-66,-69],[-31,-102]],[[892,6943],[-215,-15],[0,-22],[-676,33]],[[1,6939],[0,465],[-1,950]],[[0,8354],[677,-1],[763,10],[118,-7]],[[3976,7447],[263,-561],[105,-1]],[[6146,3603],[102,191],[42,164],[10,314],[63,149],[22,137]],[[6385,4558],[-85,116],[-56,235],[23,91],[18,308],[-54,111],[-10,148]],[[6852,4561],[38,-1],[8,-226],[158,34],[50,-227]],[[6555,3680],[-84,-19]],[[6471,3661],[-242,-170],[-78,11],[-22,60]],[[6471,3661],[83,19]],[[6780,1867],[-62,-22],[-198,-275]],[[6520,1570],[-39,51],[-9,134],[-188,231]],[[6284,1986],[0,1],[0,-1]],[[6284,1986],[-78,135],[-35,120],[17,146]],[[6554,3680],[0,0]],[[6555,3680],[0,0]],[[6786,1870],[-5,-4]],[[8644,2740],[-25,36],[-53,77]],[[8903,3205],[-132,-192],[-127,-273]],[[8644,2740],[326,-447],[479,-652]],[[9449,1641],[-140,-272],[-21,-91],[-115,153],[-21,-47],[-61,79],[-70,-151],[98,-173],[-119,-131]],[[9000,1008],[-75,154],[-70,193]],[[7272,6499],[95,528],[13,117]],[[7561,7579],[46,-29],[633,-9]],[[7226,6238],[-168,-7],[-68,-129]],[[9000,1008],[72,-152],[-51,-196],[63,-45]],[[9084,615],[-78,-50],[-42,30],[-161,-126],[-56,-126],[-98,86],[-169,37]],[[8457,462],[-2,-1]],[[6385,4558],[-101,29],[-141,-6],[-121,-75],[-70,3],[-462,-205],[-61,-38]],[[5429,4266],[0,145],[-12,10]],[[5429,4266],[5,-415],[114,-31]],[[893,6943],[-1,-1090]],[[725,5295],[-85,173],[-191,14],[-1,42],[-447,-11]],[[1,5513],[1,1095],[-1,331]],[[892,6943],[0,0]],[[7526,5],[-14,2],[-165,-2]],[[7347,5],[-63,214],[-106,182],[-66,171],[-26,184],[-141,136],[-104,408],[-63,-23],[-159,70],[-99,223]],[[0,8354],[0,531],[138,114],[109,38],[284,270],[82,101],[22,91],[103,129],[-79,-189],[200,161],[77,111],[146,134],[218,154],[1,-1059],[259,1]],[[6284,1986],[-65,-5],[-56,-111],[41,-121],[-124,-3],[-87,-67],[-187,-307]],[[8646,8942],[212,0],[85,-198],[28,22],[44,-186],[17,-177],[59,-18],[81,59],[52,-85],[54,-28],[3,-81],[59,-100],[-40,-43],[84,-137],[15,-525],[-43,-62]],[[9356,7383],[-171,-498],[-29,-126],[-97,-85],[-40,-192],[-147,-33],[69,-127],[-52,-303],[-30,-60]],[[8681,7539],[-20,825],[-15,578]],[[9137,3487],[42,-175],[64,45],[115,-132],[13,-472],[49,-67],[111,-22],[42,-225],[128,-182],[45,-175],[123,-141],[80,-265],[-99,-100],[-58,24],[-76,-167],[-129,-68],[-67,-75]],[[9520,1290],[26,132],[-11,141],[-86,78]],[[1036,4],[-1036,2],[1,944]],[[1,950],[75,-39],[39,84],[97,17],[29,64],[120,45],[229,10],[80,-78],[74,8],[45,75],[35,-139],[72,36]],[[896,1033],[-20,-96],[89,-22],[55,-112],[17,-174],[-38,-132],[50,-209],[-45,-47],[54,-149],[-22,-88]],[[1935,6],[-638,-3],[-261,1]],[[896,1033],[45,120],[29,-73],[133,164],[-34,168],[59,-17],[40,66],[-65,136]],[[2105,1257],[-181,-548],[-32,-183],[89,-131],[1,-120],[-45,-48],[-2,-221]],[[9520,1290],[-68,-111],[-182,-182],[-29,-121],[5,-120],[-162,-141]],[[9356,7383],[72,-151],[7,-119],[61,-96],[11,-113],[68,14],[88,-107],[-10,-62],[145,11],[36,-85],[63,14],[70,-138],[32,-128],[-105,-46],[-141,-268],[-76,-378],[-70,-167],[-101,-117],[-16,-64]],[[7509,8940],[692,-3],[445,5]],[[1,950],[1,1522],[-1,500]],[[3971,8943],[355,-4],[668,2]],[[2938,11],[-408,0],[-595,-5]],[[4155,8],[-369,3],[-114,0]],[[1,4438],[1,746],[-1,329]],[[7347,5],[-621,1],[-684,-6]]],"bbox":[-80.51962035362767,39.71994029867375,-74.69479415518829,42.26882819618253],"transform":{"scale":[0.0005825408739313314,0.00025491428117899634],"translate":[-80.51962035362767,39.71994029867375]},"title":"Pennsylvania","version":"2.1.0","copyright":"Copyright (c) 2023 Highsoft AS, Based on data from The United States Census Bureau","copyrightShort":"USA Census Bureau","copyrightUrl":"http://www.census.gov"}