{"type":"Topology","objects":{"default":{"type":"GeometryCollection","geometries":[{"type":"Polygon","arcs":[[0,1,2]],"id":"US.VT.013","properties":{"hc-group":"admin2","hc-key":"us-vt-013","hc-a2":"GI","fips":"50013","name":"Grand Isle","hc-middle-lon":-73.286,"hc-middle-lat":44.868}},{"type":"Polygon","arcs":[[3,4,5]],"id":"US.VT.009","properties":{"hc-group":"admin2","hc-key":"us-vt-009","hc-a2":"ES","fips":"50009","name":"Essex","hc-middle-lon":-71.733,"hc-middle-lat":44.775}},{"type":"Polygon","arcs":[[6,7,8,9,-2]],"id":"US.VT.011","properties":{"hc-group":"admin2","hc-key":"us-vt-011","hc-a2":"FR","fips":"50011","name":"Franklin","hc-middle-lon":-72.946,"hc-middle-lat":44.828}},{"type":"Polygon","arcs":[[-3,-10,10,11,12,13]],"id":"US.VT.007","properties":{"hc-group":"admin2","hc-key":"us-vt-007","hc-a2":"CH","fips":"50007","name":"Chittenden","hc-middle-lon":-73.082,"hc-middle-lat":44.47}},{"type":"Polygon","arcs":[[-9,14,15,16,-11]],"id":"US.VT.015","properties":{"hc-group":"admin2","hc-key":"us-vt-015","hc-a2":"LA","fips":"50015","name":"Lamoille","hc-middle-lon":-72.64,"hc-middle-lat":44.608}},{"type":"Polygon","arcs":[[17,18,19,20]],"id":"US.VT.021","properties":{"hc-group":"admin2","hc-key":"us-vt-021","hc-a2":"RU","fips":"50021","name":"Rutland","hc-middle-lon":-73.043,"hc-middle-lat":43.573}},{"type":"Polygon","arcs":[[21,-21,22,23]],"id":"US.VT.003","properties":{"hc-group":"admin2","hc-key":"us-vt-003","hc-a2":"BE","fips":"50003","name":"Bennington","hc-middle-lon":-73.137,"hc-middle-lat":43.027}},{"type":"Polygon","arcs":[[24,25,26,27,28,29,30]],"id":"US.VT.017","properties":{"hc-group":"admin2","hc-key":"us-vt-017","hc-a2":"OR","fips":"50017","name":"Orange","hc-middle-lon":-72.389,"hc-middle-lat":44.01}},{"type":"Polygon","arcs":[[31,32,-23,-20,33,-28]],"id":"US.VT.027","properties":{"hc-group":"admin2","hc-key":"us-vt-027","hc-a2":"WI","fips":"50027","name":"Windsor","hc-middle-lon":-72.576,"hc-middle-lat":43.474}},{"type":"MultiPolygon","arcs":[[[-16,34,-5,35,-31,36]],[[37,-26]]],"id":"US.VT.005","properties":{"hc-group":"admin2","hc-key":"us-vt-005","hc-a2":"CA","fips":"50005","name":"Caledonia","hc-middle-lon":-72.082,"hc-middle-lat":44.463}},{"type":"Polygon","arcs":[[38,-6,-35,-15,-8]],"id":"US.VT.019","properties":{"hc-group":"admin2","hc-key":"us-vt-019","hc-a2":"OR","fips":"50019","name":"Orleans","hc-middle-lon":-72.199,"hc-middle-lat":44.832}},{"type":"Polygon","arcs":[[-24,-33,39]],"id":"US.VT.025","properties":{"hc-group":"admin2","hc-key":"us-vt-025","hc-a2":"WI","fips":"50025","name":"Windham","hc-middle-lon":-72.739,"hc-middle-lat":42.989}},{"type":"Polygon","arcs":[[-29,-34,-19,40,-13,41]],"id":"US.VT.001","properties":{"hc-group":"admin2","hc-key":"us-vt-001","hc-a2":"AD","fips":"50001","name":"Addison","hc-middle-lon":-73.146,"hc-middle-lat":44.062}},{"type":"Polygon","arcs":[[-42,-12,-17,-37,-30]],"id":"US.VT.023","properties":{"hc-group":"admin2","hc-key":"us-vt-023","hc-a2":"WA","fips":"50023","name":"Washington","hc-middle-lon":-72.615,"hc-middle-lat":44.274}}],"hc-recommended-transform":{"default":{"crs":"+proj=tmerc +lat_0=42.5 +lon_0=-72.5 +k=0.9999642857142858 +x_0=500000 +y_0=0 +ellps=GRS80 +units=m +no_defs","scale":0.002750190481,"jsonres":15.5,"jsonmarginX":-999,"jsonmarginY":9851,"xoffset":424833.815419,"yoffset":279727.441841}}}},"arcs":[[[394,8032],[-146,234],[99,199],[35,362],[148,257],[-229,148],[121,291],[90,65],[-37,373],[770,4]],[[1245,9965],[-218,-280],[244,-161],[-91,-356],[-170,-83],[-73,-197],[141,-160]],[[1078,8728],[-23,-319],[-101,-39],[-7,-148],[-204,-125],[-349,-65]],[[7941,9977],[510,10],[1534,12],[-206,-123],[134,-116],[86,-209],[-295,-268],[-120,-281],[-268,-141],[350,-441],[127,-307],[-307,-120],[136,-71],[-111,-69],[84,-92],[-360,-121],[-64,-136],[-285,-145],[-260,-13],[-258,-110],[9,-114],[-128,-33]],[[8249,7089],[-493,408],[395,240],[-268,223],[340,280],[-348,157],[376,305],[-529,228]],[[7722,8930],[-176,77],[514,393],[-279,136],[160,441]],[[1245,9965],[3292,13],[19,-1]],[[4556,9977],[95,-361],[16,-404],[-236,-226]],[[4431,8986],[-174,87],[-697,-68],[-183,-201],[-65,-209],[-287,82],[-267,-284],[-109,-57]],[[2649,8336],[-587,79],[-984,313]],[[2649,8336],[69,-10],[421,-344],[101,-18],[-110,-138],[140,-45],[-181,-205],[173,-33]],[[3262,7543],[-175,-212],[178,-56],[-111,-137],[-152,28],[-288,-367],[80,-23],[-291,-504]],[[2503,6272],[-108,579],[-243,45],[21,-81],[-271,-6],[-1038,-104],[-222,18]],[[642,6723],[-104,473],[193,244],[-55,316],[-165,203],[-117,73]],[[4431,8986],[830,-257],[-335,-389],[588,-182],[-33,-36]],[[5481,8122],[-103,-119],[-204,-222]],[[5174,7781],[-291,-352],[-547,235],[-297,-355],[-574,194],[-203,40]],[[945,2570],[40,887],[-9,160],[-251,113],[-27,201],[-357,-5],[-136,-248],[-157,70],[3,221],[129,254],[207,264]],[[387,4487],[807,61],[-66,308],[976,41],[66,-182],[300,94]],[[2470,4809],[435,138],[5,-80],[396,-46],[71,-109],[-185,-254],[-6,-129],[614,-148],[-295,-417],[-76,17],[-94,-422],[330,-115],[-170,-501],[-341,115],[-141,-41],[-74,-308]],[[2939,2509],[-1163,28],[-831,33]],[[2616,55],[-1725,28],[-134,245],[63,138],[23,482],[92,1384],[10,238]],[[2939,2509],[247,-6],[3,-192]],[[3189,2311],[-148,31],[-72,-251],[-35,-402],[-661,27],[-57,-827],[447,-15],[-47,-819]],[[7189,6254],[0,-3],[4,1]],[[7193,6252],[9,-3],[9,-2]],[[7211,6247],[-74,-153],[117,-171],[-236,-162],[-208,-218],[-24,-332],[-266,-167],[-73,-110],[25,-196],[-117,-172]],[[6355,4566],[-681,170],[-633,124],[-724,188],[-942,209],[-43,143]],[[3332,5400],[194,221],[60,76]],[[3586,5697],[302,-73],[487,645],[153,11],[602,-150],[120,404],[264,-74]],[[5514,6460],[327,-91],[694,38],[654,-153]],[[6355,4566],[-343,-163],[-174,-168],[8,-119],[-160,-229],[28,-68],[-214,-86],[-142,-304],[93,-98],[-62,-103],[-108,-448],[92,-218],[-200,-235],[-3,-113]],[[5170,2214],[-573,12],[-719,-58],[-689,143]],[[2470,4809],[-111,245],[141,-34],[394,123],[57,-180],[254,333],[127,104]],[[5481,8122],[576,-183],[600,705],[298,-87],[-133,289],[526,-223],[374,307]],[[8249,7089],[-180,-49],[-176,50],[-383,-47],[-196,-75],[-252,-206],[104,-152],[-92,-214],[115,-142]],[[5514,6460],[268,299],[-6,113],[257,199],[261,294],[-35,59],[-1085,357]],[[7193,6252],[14,2],[4,-7]],[[4556,9977],[1460,-18],[1925,18]],[[5170,2214],[-79,-179],[-9,-134],[91,-340],[-169,-130],[41,-233],[-74,-125],[-302,-76],[41,-163],[-146,-143],[-24,-137],[227,-392],[111,38],[171,-200],[-1808,43],[-625,12]],[[387,4487],[60,74],[-145,169],[26,293],[-179,258],[-7,402],[-142,82],[244,638],[141,73],[257,247]],[[2503,6272],[93,11],[91,-401],[102,7],[797,-192]]],"bbox":[-73.43790401905946,42.72685002979665,-71.4983194375923,45.013348228100334],"transform":{"scale":[0.00019397785593230912,0.0002286726870990782],"translate":[-73.43790401905946,42.72685002979665]},"title":"Vermont","version":"2.1.0","copyright":"Copyright (c) 2023 Highsoft AS, Based on data from The United States Census Bureau","copyrightShort":"USA Census Bureau","copyrightUrl":"http://www.census.gov"}